~Version
 VERS              .         2.0                           : CWLS LOG ASCII STANDARD - VERSION 2.0
 WRAP              .         NO                            : ONE LINE PER DEPTH STEP
 DLM               .         SPACE                         : DELIMITING CHARACTER(SPACE TAB OR COMMA)
~Well Information
#_______________________________________________________________________________
#
#PARAMETER_NAME    .UNIT     VALUE                         : DESCRIPTION
#_______________________________________________________________________________
STRT               .m        114                           : First reference value
STOP               .m        447.756                       : Last reference value
STEP               .m        0.1524                        : Step increment
NULL               .         -9999                         : Missing value
COMP               .                                       : Company
WELL               .         A                             : Well name
FLD                .                                       : Field
LOC                .                                       : Location
CNTY               .                                       : County
STAT               .                                       : State
CTRY               .                                       : Country
SRVC               .                                       : Service Company
DATE               .                                       : Date
API                .                                       : API number
~Parameter Information Block
#_______________________________________________________________________________
#
#PARAMETER_NAME    .UNIT     VALUE                         : DESCRIPTION
#_______________________________________________________________________________
SET                .         Inclination                   : 
TLFamily_AZI       .         Hole Azimuth                  : 
TLFamily_AZ_OF_P1  .                                       : 
TLFamily_CAL2      .         Caliper 2                     : 
TLFamily_CAL4      .         Caliper                       : 
TLFamily_CAL6      .         Caliper                       : 
TLFamily_CAL8      .         Caliper                       : 
TLFamily_CALX      .         Caliper 1                     : 
TLFamily_CALY      .         Caliper 2                     : 
TLFamily_DEV       .         Hole Deviation                : 
TLFamily_DMAX      .         Caliper                       : 
TLFamily_DMIN      .         Caliper                       : 
TLFamily_GR        .         Gamma Ray                     : 
TLFamily_HAZI      .         Hole Azimuth                  : 
TLFamily_MD        .         Measured Depth                : 
TLFamily_RB_OF_P1  .         Relative Bearing              : 
TLFamily_ROT       .         Relative Bearing              : 
~Curve Information
#_______________________________________________________________________________
#
#LOGNAME           .UNIT     LOG_ID                        : DESCRIPTION
#_______________________________________________________________________________
MD                 .m                                      :  
AZ_OF_P1           .deg                                    : Unrecognised 
AZI                .deg                                    : AZIMUTH OF FIRST PIXEL OF IMAGE ARRAY 
CAL2               .in                                     : Unrecognised 
CAL4               .in                                     : Unrecognised 
CAL6               .in                                     : Unrecognised 
CAL8               .in                                     : Unrecognised 
CALX               .in                                     : Unrecognised 
CALY               .in                                     : Unrecognised 
DEV                .deg                                    : Unrecognised 
DMAX               .in                                     : Unrecognised 
DMIN               .in                                     : Unrecognised 
GR                 .gAPI                                   : Gamma Ray 
HAZI               .deg                                    : HOLE AZIMUTH 
RB_OF_P1           .deg                                    : Unrecognised 
ROT                .deg                                    : RELATIVE BEARING OF FIRST PIXEL OF IMAGE ARRAY 
~Ascii
# ...
443.4888   251.9092   0          7.908616   7.805901   7.781725   7.797678   7.809005   7.702336   0.6657841  7.84517    7.702336   -9999      349.9084   262.0009   10.09166  
443.6412   252.2383   0          7.847092   7.778259   7.748707   7.181722   7.851071   7.690104   0.6458567  7.851071   7.451413   -9999      349.9423   262.296    10.05769  
443.7936   252.3231   0          7.822095   7.744493   7.723614   7.684632   7.851143   7.671966   0.6431658  7.851143   7.671966   -9999      349.3612   262.9619   10.63879  
443.946    252.5162   0          7.802974   7.762537   7.711803   7.727631   7.86479    7.671177   0.6596688  7.86479    7.671177   -9999      351.3485   261.1678   8.651521  
444.0984   252.7964   0          7.796717   7.741637   7.728523   7.76515    7.866682   7.663047   0.6413321  7.866682   7.663047   -9999      351.0844   261.7121   8.915614  
444.2508   252.9687   0          7.784702   7.713573   7.700971   7.76614    7.833467   7.636106   0.6042044  7.833467   7.636106   -9999      351.6446   261.3242   8.355431  
444.4032   253.1204   0          7.810772   7.728196   7.68789    7.765308   7.781585   7.64365    0.6325824  7.781585   7.64365    -9999      350.5796   262.5408   9.420374  
444.5556   253.211    0          7.796883   7.687513   7.664606   7.736855   7.767896   7.643593   0.629057   7.767896   7.643593   -9999      348.9794   264.2316   11.02057  
444.708    252.9594   0          7.797764   7.618893   7.632817   7.744868   7.772177   7.663261   0.6310359  7.772177   7.663261   -9999      352.4307   260.5285   7.569303  
444.8604   252.8701   0          7.791699   7.56001    7.689134   7.720539   7.824141   7.672243   0.6005991  7.824141   7.639311   -9999      352.0829   260.7871   7.917074  
445.0128   253.4731   0          7.751222   7.588178   7.686746   7.684069   7.852216   7.652034   0.5943958  7.852216   7.629272   -9999      349.3175   264.1558   10.68251  
445.1652   253.5001   0          7.776688   7.61983    7.694386   7.732571   7.858467   7.605208   0.5920559  7.858467   7.605208   -9999      352.8753   260.6248   7.124671  
445.3176   252.8394   0          7.789844   7.607728   7.702323   7.749662   7.856557   7.550747   0.5580583  7.856557   7.550747   -9999      349.9109   262.928    10.08912  
445.47     252.478    0          7.809027   7.633209   7.680902   7.753205   7.851892   7.532258   0.5986672  7.851892   7.532258   -9999      352.0315   260.4466   7.968506  
445.6224   252.0463   0          7.863389   7.661517   7.617603   7.772718   7.849838   7.549331   0.6158051  7.849838   7.549331   -9999      352.5252   259.5211   7.474801  
445.7748   252.2288   0          7.880717   7.648149   7.610177   7.854097   7.845424   7.657013   0.7117062  7.845424   7.657013   -9999      352.1452   260.0835   7.854832  
445.9272   252.3569   0          7.835235   7.619777   7.602851   7.854572   7.827306   7.672965   0.5834088  7.827306   7.672965   -9999      350.3841   261.9728   9.615902  
446.0796   252.1003   0          7.851787   7.478681   7.618912   7.855409   7.835502   7.692691   0.5962433  7.835502   7.658066   -9999      350.0619   262.0384   9.938069  
446.232    251.7578   0          7.976304   7.766874   7.73363    7.92591    7.910643   7.739972   0.5987329  7.910643   7.739972   -9999      350.5366   261.2213   9.463417  
446.3844   251.711    0          7.99049    7.834095   7.707446   7.828449   7.851201   7.78673    0.640366   7.856209   7.78673    -9999      345.4859   266.226    14.51413  
446.5368   251.157    0          8.010247   7.74211    7.631016   7.864049   7.796722   7.779719   0.6614678  7.82083    7.779719   -9999      351.7746   259.3829   8.225406  
446.6892   250.7937   0          7.958746   7.632483   7.51181    7.903563   7.726235   7.765251   0.6170016  7.773233   7.724221   -9999      348.7302   262.0647   11.26985  
446.8416   250.7376   0          7.809252   7.678506   7.507309   8.044232   7.763379   7.760405   0.629653   7.861369   7.65828    -9999      345.2635   265.4742   14.73652  
446.994    249.9747   0          7.751034   7.778224   7.569987   7.835116   7.755531   7.695798   0.6595659  7.80667    7.660511   -9999      346.1309   263.8434   13.86915  
447.1464   249.2482   0          7.683225   7.91933    7.736568   7.627601   7.821856   7.680588   0.6772396  7.821856   7.680588   -9999      347.9319   261.3163   12.06805  
447.2988   249.1807   0          7.725395   8.002178   7.915824   7.36889    7.821455   7.696402   0.6608925  7.821629   7.684934   -9999      353.3161   255.8647   6.683858  
447.4512   248.9853   0          7.748643   8.215945   7.793445   7.291396   7.798179   7.675752   0.6940683  7.798179   7.675752   -9999      354.3125   254.6728   5.687519  
447.6036   248.8531   0          7.739772   8.265831   7.769274   7.292344   7.786877   7.66009    0.7313316  7.786877   7.66009    -9999      355.2957   253.5574   4.704254  
447.756    248.7644   0          7.731225   8.251984   7.761608   7.283829   7.785848   7.658194   0.6952173  7.785848   7.658194   -9999      355.3679   253.3966   4.632145  
