~Version
 VERS              .         2.0                           : CWLS LOG ASCII STANDARD - VERSION 2.0
 WRAP              .         NO                            : ONE LINE PER DEPTH STEP
 DLM               .         SPACE                         : DELIMITING CHARACTER(SPACE TAB OR COMMA)
~Well Information
#_______________________________________________________________________________
#
#PARAMETER_NAME    .UNIT     VALUE                         : DESCRIPTION
#_______________________________________________________________________________
STRT               .m        114                           : First reference value
STOP               .m        447.756                       : Last reference value
STEP               .m        0.1524                        : Step increment
NULL               .         -9999                         : Missing value
COMP               .                                       : Company
WELL               .         A                             : Well name
FLD                .                                       : Field
LOC                .                                       : Location
CNTY               .                                       : County
STAT               .                                       : State
CTRY               .                                       : Country
SRVC               .                                       : Service Company
DATE               .                                       : Date
API                .                                       : API number
~Parameter Information Block
#_______________________________________________________________________________
#
#PARAMETER_NAME    .UNIT     VALUE                         : DESCRIPTION
#_______________________________________________________________________________
SET                .         Inclination                   : 
TLFamily_AZI       .         Hole Azimuth                  : 
TLFamily_AZ_OF_P1  .                                       : 
TLFamily_CAL2      .         Caliper 2                     : 
TLFamily_CAL4      .         Caliper                       : 
TLFamily_CAL6      .         Caliper                       : 
TLFamily_CAL8      .         Caliper                       : 
TLFamily_CALX      .         Caliper 1                     : 
TLFamily_CALY      .         Caliper 2                     : 
TLFamily_DEV       .         Hole Deviation                : 
TLFamily_DMAX      .         Caliper                       : 
TLFamily_DMIN      .         Caliper                       : 
TLFamily_GR        .         Gamma Ray                     : 
TLFamily_HAZI      .         Hole Azimuth                  : 
TLFamily_MD        .         Measured Depth                : 
TLFamily_RB_OF_P1  .         Relative Bearing              : 
TLFamily_ROT       .         Relative Bearing              : 
~Curve Information
#_______________________________________________________________________________
#
#LOGNAME           .UNIT     LOG_ID                        : DESCRIPTION
#_______________________________________________________________________________
MD                 .m                                      :  
AZ_OF_P1           .deg                                    : Unrecognised 
AZI                .deg                                    : AZIMUTH OF FIRST PIXEL OF IMAGE ARRAY 
CAL2               .in                                     : Unrecognised 
CAL4               .in                                     : Unrecognised 
CAL6               .in                                     : Unrecognised 
CAL8               .in                                     : Unrecognised 
CALX               .in                                     : Unrecognised 
CALY               .in                                     : Unrecognised 
DEV                .deg                                    : Unrecognised 
DMAX               .in                                     : Unrecognised 
DMIN               .in                                     : Unrecognised 
GR                 .gAPI                                   : Gamma Ray 
HAZI               .deg                                    : HOLE AZIMUTH 
RB_OF_P1           .deg                                    : Unrecognised 
ROT                .deg                                    : RELATIVE BEARING OF FIRST PIXEL OF IMAGE ARRAY 
~Ascii
# ...
422.4576   188.526    0          7.818545   7.763931   7.183869   7.748107   7.572813   7.734384   0.6712562  7.756019   7.501207   38.05127   336.6088   211.9175   23.39123  
422.61     189.4614   0          7.709849   7.712008   7.142349   7.585896   7.401606   7.555233   0.6814151  7.649222   7.401606   35.69617   333.6369   215.8246   26.36312  
422.7624   188.8644   0          7.474922   7.715655   6.854403   7.32034    7.131035   7.52982    0.6530898  7.52982    7.094335   33.27346   329.6819   219.1826   30.31816  
422.9148   189.0626   0          7.348256   7.812702   6.493665   7.377059   7.0427     7.62398    0.6370149  7.63064    6.92096    30.38909   328.8088   220.2539   31.19119  
423.0672   191.7319   0          7.332369   7.367475   6.390785   7.361891   7.01288    7.612578   0.5812872  7.612578   6.861577   26.78025   327.865    223.8673   32.13497  
423.2196   192.2844   0          7.285773   7.394229   6.555818   7.338225   6.984301   7.554102   0.509444   7.554102   6.832109   23.7713    326.2938   225.9904   33.70618  
423.372    193.0444   0          7.245295   7.417441   7.20277    7.356795   7.048697   7.39938    0.4771999  7.422708   7.048697   22.01766   329.9653   223.0788   30.03468  
423.5244   193.368    0          6.24237    7.359015   7.092827   7.360513   7.376417   6.84654    0.4274047  7.392591   6.627264   23.25131   337.3402   216.0287   22.65974  
423.6768   193.3878   0          6.409948   7.551142   7.557836   7.335276   7.588977   6.77171    0.4327841  7.588977   6.77171    27.97118   348.3273   205.0607   11.6727   
423.8292   192.5105   0          6.580579   7.625748   7.48665    7.45857    7.653659   6.813804   0.4289896  7.653659   6.813804   32.30804   354.9031   197.6072   5.096876  
423.9816   192.167    0          6.578866   7.018075   7.447275   7.576754   7.397757   6.768009   0.4825828  7.397757   6.768009   34.5138    355.0031   197.164    4.996856  
424.134    191.9695   0          6.714986   6.883478   7.232387   7.619512   7.273234   6.746513   0.5083088  7.27774    6.746513   34.35051   1.985089   189.9842   358.0149  
424.2864   192.3837   0          6.79632    7.154888   7.158619   7.646606   7.30192    6.773992   0.5248053  7.400747   6.773992   32.23265   8.403784   183.9798   351.5962  
424.4388   193.1726   0          6.756889   7.420349   7.122858   7.51774    7.35221    6.76286    0.5521905  7.469044   6.76286    29.68644   7.339585   185.8331   352.6604  
424.5912   194.1742   0          6.757734   7.86529    7.078861   7.15188    7.343036   6.949542   0.6032549  7.508584   6.90472    27.18766   4.836872   189.3378   355.1631  
424.7436   193.1345   0          7.636708   7.713449   7.188884   7.00575    7.463772   7.176732   0.5686557  7.464224   7.176732   26.49542   0.3707736  192.7638   359.6292  
424.896    193.2769   0          7.632302   7.626083   7.231892   6.742574   7.416027   7.20915    0.6215919  7.432471   7.183043   28.57001   352.9922   200.2849   7.007749  
425.0484   194.1512   0          7.322101   7.562294   7.352556   6.545283   7.048168   7.120484   0.6844233  7.337328   7.033545   32.36875   352.2829   201.8683   7.717117  
425.2008   195.1976   0          7.291153   7.314276   7.310256   6.570807   7.003433   7.155297   0.725659   7.301868   6.942312   36.94714   351.8606   203.3369   8.139402  
425.3532   197.1416   0          6.62635    7.027298   7.447536   6.778816   6.842898   7.195095   0.7782341  7.195095   6.842898   46.4014    350.9314   206.2102   9.068621  
425.5056   198.6408   0          6.652688   6.968224   7.441529   7.040097   6.882805   7.222161   0.7926066  7.222161   6.882805   60.8677    352.6519   205.9889   7.348065  
425.658    199.7295   0          7.405928   6.982962   7.453057   7.152511   7.059412   7.314455   0.7644559  7.446566   7.04273    77.40623   350.8171   208.9125   9.182868  
425.8104   200.5483   0          7.625364   7.168447   7.463875   6.865212   7.087266   7.318078   0.7179018  7.54462    7.016829   90.47076   351.9935   208.5551   8.006536  
425.9628   202.699    0          7.633374   7.130224   7.400025   6.73772    7.033291   7.276697   0.6939687  7.5167     6.933971   95.81296   353.8941   208.8047   6.105873  
426.1152   205.267    0          7.563538   7.06589    7.311422   6.660979   6.980369   7.254728   0.7471231  7.437479   6.863434   94.33904   353.6743   211.5929   6.325698  
426.2676   207.4511   0          7.534199   7.023284   7.219643   6.667006   7.002713   7.355408   0.7371246  7.392299   6.845145   90.21571   354.3714   213.0798   5.628629  
426.42     209.1079   0          7.739616   7.166926   7.219541   6.693375   7.119013   7.458174   0.7516388  7.479579   6.930151   86.12444   355.9082   213.1994   4.091767  
426.5724   212.5798   0          7.861217   7.294371   7.398101   6.743637   7.371398   7.528688   0.7184702  7.629659   7.019003   83.51286   0.537797   212.0422   359.4622  
426.7248   211.467    0          7.814674   7.335396   7.504499   6.603745   7.482975   7.537364   0.7045184  7.659587   6.96957    81.34657   357.7486   213.7183   2.251404  
426.8772   212.3544   0          7.662495   7.378768   7.572081   6.474182   7.498432   7.450402   0.7488912  7.617288   6.926475   75.30846   0.571045   211.7835   359.429   
427.0296   213.3306   0          7.586251   7.419713   7.579722   6.50249    7.488472   7.381261   0.7642781  7.582986   6.961102   68.97797   2.114904   211.2157   357.8851  
427.182    212.7903   0          7.607129   7.63706    7.575149   6.527507   7.477102   7.350595   0.7826964  7.591139   7.082283   66.34713   3.670423   209.12     356.3296  
427.3344   212.2141   0          7.660187   7.381837   7.489988   6.71872    7.497063   7.43828    0.7542925  7.575088   7.050278   68.55113   1.537316   210.6768   358.4627  
427.4868   213.8655   0          7.707527   7.476353   7.508038   6.80163    7.535393   7.512797   0.7301068  7.607782   7.138991   74.23042   359.374    214.4922   0.6259938 
427.6392   215.1307   0          7.698015   7.449441   7.642325   6.574199   7.425213   7.375881   0.7060154  7.67017    7.01182    78.15218   358.4896   216.6408   1.510447  
427.7916   215.4771   0          6.880968   7.370698   7.912907   6.314061   7.074247   7.213861   0.7762304  7.396937   6.84238    78.8466    351.7206   223.7564   8.279376  
427.944    215.9829   0          6.370564   7.07724    7.53784    6.49856    6.819834   6.858951   0.8058547  6.985818   6.711308   77.97263   351.5543   224.4286   8.445711  
428.0964   217.1417   0          6.560935   6.918658   6.963766   6.366732   6.654991   6.31013    0.8590318  6.76235    6.31013    74.7398    352.6405   224.5012   7.359463  
428.2488   216.9286   0          6.760577   7.066679   6.76924    6.165532   6.547585   6.373798   0.7893752  6.764909   6.373798   72.29949   350.7992   226.1294   9.200843  
428.4012   216.9065   0          6.563303   7.108391   6.97717    6.17128    6.547434   6.680282   0.7441243  6.770236   6.547434   71.63434   348.9373   227.9687   11.06265  
428.5536   218.2841   0          6.488206   7.129189   7.122246   6.431129   6.371742   6.697025   0.742395   6.805226   6.371742   70.50603   345.5394   232.7446   14.46056  
428.706    219.5491   0          6.449685   7.318561   6.706092   6.48428    6.073969   6.810355   0.7068488  6.92267    6.073969   70.84898   343.0643   236.4852   16.93573  
428.8584   219.8313   0          6.93924    7.398855   6.773495   6.617791   6.200877   7.4315     0.6774309  7.4315     6.200877   71.84081   339.5039   240.3274   20.49613  
429.0108   218.2589   0          7.568278   7.459301   7.157137   6.799846   6.647164   7.525219   0.5682859  7.525219   6.647164   72.49055   335.0446   243.2145   24.95539  
429.1632   218.101    0          7.455984   7.85659    7.681695   7.27238    6.862318   7.685729   0.4969005  7.685729   6.862318   72.05949   332.0979   246.0031   27.90208  
429.3156   217.4971   0          7.10632    7.745446   7.763041   7.440108   7.365001   7.43828    0.4762188  7.592777   7.365001   69.40211   335.3876   242.1113   24.61242  
