~Version
 VERS              .         2.0                           : CWLS LOG ASCII STANDARD - VERSION 2.0
 WRAP              .         NO                            : ONE LINE PER DEPTH STEP
 DLM               .         SPACE                         : DELIMITING CHARACTER(SPACE TAB OR COMMA)
~Well Information
#_______________________________________________________________________________
#
#PARAMETER_NAME    .UNIT     VALUE                         : DESCRIPTION
#_______________________________________________________________________________
STRT               .m        114                           : First reference value
STOP               .m        447.756                       : Last reference value
STEP               .m        0.1524                        : Step increment
NULL               .         -9999                         : Missing value
COMP               .                                       : Company
WELL               .         A                             : Well name
FLD                .                                       : Field
LOC                .                                       : Location
CNTY               .                                       : County
STAT               .                                       : State
CTRY               .                                       : Country
SRVC               .                                       : Service Company
DATE               .                                       : Date
API                .                                       : API number
~Parameter Information Block
#_______________________________________________________________________________
#
#PARAMETER_NAME    .UNIT     VALUE                         : DESCRIPTION
#_______________________________________________________________________________
SET                .         Inclination                   : 
TLFamily_AZI       .         Hole Azimuth                  : 
TLFamily_AZ_OF_P1  .                                       : 
TLFamily_CAL2      .         Caliper 2                     : 
TLFamily_CAL4      .         Caliper                       : 
TLFamily_CAL6      .         Caliper                       : 
TLFamily_CAL8      .         Caliper                       : 
TLFamily_CALX      .         Caliper 1                     : 
TLFamily_CALY      .         Caliper 2                     : 
TLFamily_DEV       .         Hole Deviation                : 
TLFamily_DMAX      .         Caliper                       : 
TLFamily_DMIN      .         Caliper                       : 
TLFamily_GR        .         Gamma Ray                     : 
TLFamily_HAZI      .         Hole Azimuth                  : 
TLFamily_MD        .         Measured Depth                : 
TLFamily_RB_OF_P1  .         Relative Bearing              : 
TLFamily_ROT       .         Relative Bearing              : 
~Curve Information
#_______________________________________________________________________________
#
#LOGNAME           .UNIT     LOG_ID                        : DESCRIPTION
#_______________________________________________________________________________
MD                 .m                                      :  
AZ_OF_P1           .deg                                    : Unrecognised 
AZI                .deg                                    : AZIMUTH OF FIRST PIXEL OF IMAGE ARRAY 
CAL2               .in                                     : Unrecognised 
CAL4               .in                                     : Unrecognised 
CAL6               .in                                     : Unrecognised 
CAL8               .in                                     : Unrecognised 
CALX               .in                                     : Unrecognised 
CALY               .in                                     : Unrecognised 
DEV                .deg                                    : Unrecognised 
DMAX               .in                                     : Unrecognised 
DMIN               .in                                     : Unrecognised 
GR                 .gAPI                                   : Gamma Ray 
HAZI               .deg                                    : HOLE AZIMUTH 
RB_OF_P1           .deg                                    : Unrecognised 
ROT                .deg                                    : RELATIVE BEARING OF FIRST PIXEL OF IMAGE ARRAY 
~Ascii
# ...
380.3952   76.79621   0          6.437596   6.027032   6.823033   6.261367   7.076261   6.410081   0.4909406  7.076261   6.1442     52.62977   293.2998   143.4976   66.70024  
380.5476   76.15572   0          6.698743   7.057343   6.979518   6.563137   7.274392   6.492375   0.4405632  7.274392   6.492375   51.26882   283.8626   152.2924   76.13738  
380.7      77.70074   0          6.70679    7.202286   7.254974   6.684615   7.348533   6.53279    0.4655821  7.348533   6.53279    50.9016    284.8037   152.8973   75.19627  
380.8524   80.19625   0          6.741576   7.64709    7.096236   7.134788   7.192084   6.92669    0.4458729  7.412336   6.827699   51.15491   287.8796   152.3166   72.12039  
381.0048   80.84129   0          7.273998   7.4845     7.022726   7.299708   6.87248    7.539449   0.3527192  7.539449   6.87248    51.30872   288.539    152.3025   71.46104  
381.1572   81.34016   0          7.297479   6.996438   7.201734   7.324525   6.722418   7.599264   0.2402865  7.599264   6.722418   50.89202   286.5873   154.7542   73.41273  
381.3096   82.20671   0          7.26276    7.095445   7.12295    7.290711   6.673577   7.538034   0.2092755  7.538034   6.673577   49.53275   284.4114   157.7956   75.58859  
381.462    82.37677   0          7.225641   7.644264   7.039195   7.262598   6.603      7.500453   0.2344851  7.566447   6.603      48.63419   279.1522   163.2243   80.84776  
381.6144   83.22665   0          7.055122   7.493722   7.040345   7.193443   6.398888   7.383137   0.2246214  7.383137   6.398888   49.63001   280.9478   162.2761   79.05224  
381.7668   83.42067   0          6.409305   6.608825   6.683518   6.651461   6.274137   6.782268   0.216215   6.782268   6.274137   52.13888   301.0749   142.346    58.92508  
381.9192   83.01536   0          6.278476   6.65096    6.277901   6.510381   6.216566   6.708288   0.2464253  6.708288   6.210217   55.48014   298.5515   144.4641   61.44852  
382.0716   82.84344   0          6.180621   6.519177   6.049811   6.478292   6.172568   6.661683   0.3255047  6.661683   6.115216   58.07833   300.9033   141.9403   59.09669  
382.224    83.62523   0          6.117297   6.11287    5.947306   6.463656   6.118394   6.605504   0.3734551  6.605504   6.032301   58.77605   302.8441   140.7817   57.15593  
382.3764   84.67339   0          6.074078   6.334138   6.231394   6.413092   6.133704   6.642087   0.3454767  6.642087   6.111369   60.12695   304.011    140.6625   55.98902  
382.5288   85.04881   0          6.068126   6.260828   6.517731   6.336943   6.133142   6.619598   0.346407   6.619598   6.133142   62.02854   302.3703   142.6786   57.62973  
382.6812   85.39519   0          6.137179   6.155559   6.546336   6.216866   6.117661   6.633794   0.3767685  6.633794   6.117661   63.49453   302.5946   142.8009   57.40543  
382.8336   86.49591   0          6.316769   6.101315   6.570703   6.034109   6.120208   6.570302   0.3399484  6.570302   6.067712   63.12241   304.1353   142.3606   55.86467  
382.986    87.69051   0          6.366931   5.972315   6.554738   5.946017   6.157218   6.452318   0.3063741  6.461541   5.959166   59.57342   313.0014   134.6907   46.99856  
383.1384   88.85477   0          6.392778   5.96443    6.523305   5.955127   6.163667   6.461957   0.2854818  6.461957   5.959779   56.29042   313.4036   135.4513   46.59638  
383.2908   89.38819   0          6.383964   5.919965   6.536242   5.960161   6.177161   6.462742   0.2916721  6.462742   5.940063   55.69679   318.2441   131.1443   41.75586  
383.4432   89.88701   0          6.381629   5.880195   6.577094   5.956155   6.201831   6.383119   0.3561924  6.479362   5.918175   57.84868   318.1589   131.7281   41.84107  
383.5956   91.2933    0          6.398063   5.884159   6.48578    5.980163   6.451437   6.203175   0.3905025  6.462832   5.932161   59.15381   317.0966   134.197    42.90338  
383.748    94.63369   0          6.483425   5.846307   6.317208   6.115275   6.555565   6.48262    0.3791073  6.588339   5.980791   57.97459   318.916    135.7177   41.08395  
383.9004   96.76811   0          6.577451   6.303584   6.333772   6.113698   6.660029   6.697989   0.3444918  6.697989   6.208706   57.03585   311.2618   145.2741   48.73822  
384.0528   96.18844   0          6.755739   6.983678   6.657643   6.058267   6.935931   6.818009   0.2723543  6.939874   6.528599   57.43998   302.9258   152.7236   57.07416  
384.2052   95.91842   0          6.916097   7.269564   7.292433   6.09939    7.292114   6.870131   0.2325738  7.29281    6.684477   57.96681   306.8508   149.0678   53.14922  
384.3576   97.76211   0          6.928931   6.991507   7.646097   6.031036   7.234642   6.87976    0.2432593  7.287514   6.511271   55.62794   306.1435   151.6187   53.85655  
384.51     98.10892   0          6.925693   6.400012   7.736039   6.013456   7.080646   6.824911   0.2533906  7.330866   6.206734   50.29552   301.3224   156.7882   58.67756  
384.6624   97.17788   0          6.910815   6.262963   7.036969   5.983616   6.906993   6.77584    0.2390756  7.032482   6.12329    43.93956   312.3356   144.8423   47.66443  
384.8148   96.2738    0          6.849743   6.28798    6.633696   5.979999   6.852856   6.725109   0.1958012  6.852856   6.133989   39.14428   314.1866   142.0872   45.81337  
384.9672   95.28748   0          6.864034   6.265697   6.51261    5.946311   6.821022   6.709289   0.2001489  6.821022   6.106004   36.74129   317.3819   137.9058   42.61811  
385.1196   94.42728   0          6.905191   6.258063   6.409147   5.926322   6.793246   6.813962   0.2169002  6.813962   6.092193   35.5966    311.4776   142.9485   48.52244  
385.272    95.10809   0          6.913972   6.300709   6.359127   5.985531   6.809632   6.973218   0.2362823  6.973218   6.14312    35.95341   297.9475   157.1613   62.05246  
385.4244   95.55506   0          6.901797   6.384673   6.390339   6.049838   6.878593   7.053865   0.2504725  7.053865   6.217256   38.16074   299.111    156.4438   60.88898  
385.5768   95.55688   0          6.860933   6.5067     6.385669   6.102029   6.955665   7.136112   0.2993295  7.136112   6.304365   41.83503   306.7526   148.8043   53.24744  
385.7292   96.09997   0          6.846014   6.599479   6.34516    6.401845   7.021473   7.242043   0.3309809  7.242043   6.482799   45.24469   305.1975   150.9022   54.80247  
385.8816   98.26933   0          6.828992   6.700346   6.320634   6.876021   7.098838   7.399579   0.352037   7.399579   6.574813   47.30819   307.2363   151.0339   52.76375  
386.034    99.59      0          6.924279   6.637197   6.388385   6.998892   7.115161   7.450078   0.3545007  7.450078   6.656332   48.79905   309.8832   149.7067   50.11676  
386.1864   100.1123   0          6.938032   6.802958   6.38158    6.908143   7.173086   7.3792     0.3247719  7.3792     6.659805   49.886     309.9077   150.2048   50.09233  
386.3388   100.3654   0          6.913053   7.658843   6.260243   6.777291   7.295677   7.30831    0.3152917  7.308738   6.586648   49.93415   294.3604   166.0012   65.63965  
386.4912   102.3457   0          6.937878   7.406937   5.941279   6.939196   7.237055   7.218268   0.318997   7.238157   6.439579   49.26804   277.7874   184.5589   82.21265  
386.6436   104.4377   0          6.909343   7.219027   5.964013   7.102793   7.141916   7.157873   0.3296128  7.171371   6.436677   48.87965   279.686    184.7519   80.31403  
386.796    106.9571   0          6.841254   7.219033   6.007004   7.113138   7.176337   7.130818   0.34379    7.178174   6.424129   48.6009    282.4886   184.4686   77.51137  
386.9484   108.9339   0          6.799874   7.220446   6.107572   7.350744   7.329959   7.160728   0.3626047  7.329959   6.453723   47.8546    290.6765   178.2571   69.32344  
387.1008   108.8597   0          6.738565   7.233849   6.382266   7.439116   7.585425   7.134767   0.3239398  7.585425   6.560416   46.38499   298.3826   170.4786   61.61743  
387.2532   107.2796   0          6.410762   7.114559   6.341824   7.424375   7.308732   6.657669   0.323337   7.349612   6.376293   43.73864   302.1574   165.1222   57.84259  
