~Version
 VERS              .         2.0                           : CWLS LOG ASCII STANDARD - VERSION 2.0
 WRAP              .         NO                            : ONE LINE PER DEPTH STEP
 DLM               .         SPACE                         : DELIMITING CHARACTER(SPACE TAB OR COMMA)
~Well Information
#_______________________________________________________________________________
#
#PARAMETER_NAME    .UNIT     VALUE                         : DESCRIPTION
#_______________________________________________________________________________
STRT               .m        114                           : First reference value
STOP               .m        447.756                       : Last reference value
STEP               .m        0.1524                        : Step increment
NULL               .         -9999                         : Missing value
COMP               .                                       : Company
WELL               .         A                             : Well name
FLD                .                                       : Field
LOC                .                                       : Location
CNTY               .                                       : County
STAT               .                                       : State
CTRY               .                                       : Country
SRVC               .                                       : Service Company
DATE               .                                       : Date
API                .                                       : API number
~Parameter Information Block
#_______________________________________________________________________________
#
#PARAMETER_NAME    .UNIT     VALUE                         : DESCRIPTION
#_______________________________________________________________________________
SET                .         Inclination                   : 
TLFamily_AZI       .         Hole Azimuth                  : 
TLFamily_AZ_OF_P1  .                                       : 
TLFamily_CAL2      .         Caliper 2                     : 
TLFamily_CAL4      .         Caliper                       : 
TLFamily_CAL6      .         Caliper                       : 
TLFamily_CAL8      .         Caliper                       : 
TLFamily_CALX      .         Caliper 1                     : 
TLFamily_CALY      .         Caliper 2                     : 
TLFamily_DEV       .         Hole Deviation                : 
TLFamily_DMAX      .         Caliper                       : 
TLFamily_DMIN      .         Caliper                       : 
TLFamily_GR        .         Gamma Ray                     : 
TLFamily_HAZI      .         Hole Azimuth                  : 
TLFamily_MD        .         Measured Depth                : 
TLFamily_RB_OF_P1  .         Relative Bearing              : 
TLFamily_ROT       .         Relative Bearing              : 
~Curve Information
#_______________________________________________________________________________
#
#LOGNAME           .UNIT     LOG_ID                        : DESCRIPTION
#_______________________________________________________________________________
MD                 .m                                      :  
AZ_OF_P1           .deg                                    : Unrecognised 
AZI                .deg                                    : AZIMUTH OF FIRST PIXEL OF IMAGE ARRAY 
CAL2               .in                                     : Unrecognised 
CAL4               .in                                     : Unrecognised 
CAL6               .in                                     : Unrecognised 
CAL8               .in                                     : Unrecognised 
CALX               .in                                     : Unrecognised 
CALY               .in                                     : Unrecognised 
DEV                .deg                                    : Unrecognised 
DMAX               .in                                     : Unrecognised 
DMIN               .in                                     : Unrecognised 
GR                 .gAPI                                   : Gamma Ray 
HAZI               .deg                                    : HOLE AZIMUTH 
RB_OF_P1           .deg                                    : Unrecognised 
ROT                .deg                                    : RELATIVE BEARING OF FIRST PIXEL OF IMAGE ARRAY 
~Ascii
# ...
289.26     40.66316   0          6.561671   7.095863   6.97999    6.185778   6.426644   7.080915   0.6038287  7.080915   6.426644   47.64583   307.4671   93.19613   52.53289  
289.4124   41.4852    0          6.591342   7.120168   7.060884   6.206573   6.554835   7.144695   0.5699381  7.144695   6.554835   46.43188   307.951    93.53426   52.04901  
289.5648   41.00926   0          6.648978   7.196836   7.184767   6.333471   6.789357   7.215102   0.5191707  7.215102   6.760301   46.01616   308.1017   92.90749   51.8983   
289.7172   38.10567   0          6.901342   7.269898   7.298967   7.12043    7.10373    7.374288   0.4754753  7.374288   7.080491   45.7294    306.9196   91.18645   53.08044  
289.8696   36.9197    0          7.541018   7.321135   7.39444    7.248816   7.392979   7.569333   0.4758813  7.569333   7.284975   44.80427   307.1479   89.7718    52.85211  
290.022    37.7892    0          8.035863   7.349501   7.39032    7.451865   7.459078   7.80569    0.4313932  7.80569    7.400683   43.16351   307.5457   90.24259   52.45428  
290.1744   39.6972    0          7.671081   7.501936   7.374091   7.561595   7.537469   7.757298   0.3504394  7.757298   7.487854   40.32354   314.7232   84.9738    45.27682  
290.3268   40.39119   0          7.644029   7.529211   7.385554   7.77301    7.622191   7.723804   0.3134209  7.723804   7.514791   36.05887   308.7341   91.65762   51.26588  
290.4792   41.03854   0          7.648346   7.416012   7.487588   7.823703   7.653251   7.710264   0.3153343  7.710264   7.567966   31.98134   304.4611   96.5774    55.53892  
290.6316   42.11141   0          7.724754   7.292025   7.754899   7.851512   7.697242   7.861374   0.2998061  7.861374   7.571769   29.00091   302.2766   99.83496   57.72342  
290.784    46.45947   0          7.953032   7.284724   8.186325   8.019498   7.770534   7.987374   0.3159396  8.081744   7.652111   27.25743   303.0871   103.3681   56.91288  
290.9364   50.50447   0          7.397341   7.280194   8.308086   7.860245   7.014768   6.81108    0.3417134  7.852714   6.81108    28.0014    313.0295   97.47869   46.97048  
291.0888   54.25741   0          6.680978   7.285769   7.128793   7.080212   6.845952   6.645216   0.4178334  7.197132   6.645216   30.29724   327.0927   87.17068   32.90725  
291.2412   58.92468   0          6.513046   7.380207   6.896075   6.944081   6.826883   6.590122   0.4827026  7.162144   6.590122   33.78998   333.3      85.62452   26.69994  
291.3936   62.06264   0          6.445411   7.482043   6.778573   6.753593   6.743121   6.577545   0.4887405  7.117818   6.577545   37.89784   331.8726   90.19009   28.1274   
291.546    64.41749   0          6.417562   7.503974   6.696984   6.575925   6.712074   6.572185   0.4850669  7.039949   6.556735   40.08152   331.7496   92.66787   28.25037  
291.6984   67.59704   0          6.392974   7.513273   6.662762   6.433915   6.681371   6.570166   0.4452806  6.973594   6.527868   39.35709   330.7726   96.82452   29.22741  
291.8508   71.38587   0          6.374095   7.508324   6.668343   6.570757   6.787956   6.582864   0.345618   7.03954    6.521219   38.10893   333.3415   98.0444    26.65849  
292.0032   74.89693   0          6.362038   7.455467   6.677879   6.863851   6.919333   6.732422   0.2523308  7.159659   6.519958   37.2664    336.9455   97.95138   23.05454  
292.1556   76.66948   0          6.342021   7.55091    6.664814   6.888465   6.953233   6.820525   0.2166672  7.219688   6.503417   39.10209   343.4909   93.17844   16.50912  
292.308    78.75478   0          6.393744   7.676903   6.622865   6.862192   6.966442   6.978765   0.1666732  7.269547   6.508305   41.69231   348.5869   90.16826   11.4131   
292.4604   80.79742   0          6.831461   7.886248   6.557178   6.935744   7.006748   7.243499   0.09271072 7.410996   6.69432    42.61282   355.813    84.9627    4.186992  
292.6128   82.29688   0          7.471698   8.127506   6.489834   7.013456   7.123996   7.483097   0.03654173 7.570482   6.980766   44.00992   316.0958   126.2535   43.90417  
292.7652   84.42509   0          7.513998   8.287695   6.509767   7.130069   7.261663   7.592699   0.06490266 7.708882   7.011882   44.74992   172.315    274.2867   187.685   
292.9176   87.72276   0          7.511014   8.324354   6.584257   7.286488   7.348474   7.926885   0.093086   7.926885   7.047635   45.66675   172.5901   275.2444   187.4099  
293.0700000000001 89.86121   0          7.493733   8.270735   6.644586   7.408398   7.357268   7.93322    0.1023713  7.93322    7.06916    45.88347   188.2688   261.5919   171.7312  
293.2224   89.80165   0          7.501987   8.342627   7.292599   7.483685   7.708063   7.952233   0.1032907  7.971068   7.397293   44.05536   214.2576   235.5449   145.7424  
293.3748000000001 88.93943   0          7.790767   8.233844   8.034531   7.712707   8.045295   7.948178   0.1712515  8.045295   7.894669   42.35746   243.5278   205.4058   116.4722  
293.5272   88.15781   0          8.046442   8.015123   7.417532   7.750335   7.999921   7.973428   0.2300214  8.041769   7.731987   40.90533   251.6681   196.4898   108.3319  
293.6796000000001 87.64002   0          8.007495   7.956876   7.369784   7.577697   7.787768   7.947208   0.2772571  7.947208   7.68864    40.57116   250.2725   197.3674   109.7275  
293.832    87.03381   0          8.071555   7.891635   7.371686   7.887464   7.968624   7.981504   0.3053549  8.00213    7.721621   42.95213   252.6672   194.3669   107.3328  
293.9844000000001 85.97653   0          7.968612   7.855268   7.596581   8.101186   7.981221   7.941892   0.3047705  7.982852   7.782597   45.4971    261.3162   184.6599   98.68382  
294.1368   85.40692   0          7.933895   7.851072   7.894289   7.966518   7.924481   7.90796    0.3154213  7.924481   7.896567   46.11285   265.128    180.279    94.87204  
294.2892000000001 84.64568   0          7.976703   7.728107   7.790386   7.944736   7.926132   7.897191   0.3529982  7.926132   7.836421   44.17455   269.4326   175.213    90.56742  
294.4416   83.94955   0          7.997145   7.711031   7.532423   7.928134   7.914997   7.789801   0.3425931  7.914997   7.742433   41.51425   272.6748   171.2748   87.32521  
294.5940000000001 83.38303   0          7.826267   7.587934   7.27033    7.99749    7.636696   7.575243   0.3363491  7.795208   7.545075   40.87495   266.4005   176.9819   93.59954  
294.7464   83.21326   0          7.493598   7.485569   7.178817   7.815824   7.368675   7.350191   0.3147944  7.650696   7.331581   43.28522   262.885    180.3282   97.11495  
294.8988000000001 83.33852   0          7.239561   7.260515   7.237262   7.590136   7.202207   7.149346   0.2628086  7.425325   7.148865   46.94855   263.736    179.6059   96.26399  
295.0512   82.96139   0          7.164244   7.111073   6.95063    7.366999   7.007807   6.907596   0.2543428  7.239037   6.907596   50.34988   236.1313   206.8299   123.8687  
295.2036000000001 83.42221   0          6.985212   7.059909   6.913882   6.95095    6.904214   6.803534   0.2925576  7.005429   6.803534   51.69778   219.3273   224.0976   140.6727  
295.356    86.20102   0          6.909015   7.070306   6.896589   6.948601   6.871397   6.768769   0.2960677  7.009453   6.768769   51.31324   220.1792   226.0216   139.8208  
295.5084000000001 88.88503   0          6.725888   7.113857   6.881844   7.117379   6.854296   6.756736   0.2843985  7.115618   6.756736   50.53928   217.4763   231.4092   142.5237  
295.6608   90.9212    0          6.660336   7.143039   6.857      7.099583   6.912963   6.881196   0.3003473  7.121311   6.757267   49.91761   218.1155   232.8058   141.8845  
295.8132000000001 91.2762    0          6.716703   7.226227   6.814646   7.081922   7.038588   6.959583   0.2623681  7.154074   6.765674   50.15594   227.4128   223.8622   132.5872  
295.9656   91.47995   0          6.849009   7.307497   6.794215   6.961141   7.131083   7.023851   0.2849123  7.160026   6.821612   50.63041   254.697    196.7828   105.303   
296.118    92.52766   0          7.380615   7.374022   6.788418   6.956938   7.142658   7.195667   0.3358548  7.195667   7.084517   51.21455   265.9641   186.5603   94.03587  
