~Version
 VERS              .         2.0                           : CWLS LOG ASCII STANDARD - VERSION 2.0
 WRAP              .         NO                            : ONE LINE PER DEPTH STEP
 DLM               .         SPACE                         : DELIMITING CHARACTER(SPACE TAB OR COMMA)
~Well Information
#_______________________________________________________________________________
#
#PARAMETER_NAME    .UNIT     VALUE                         : DESCRIPTION
#_______________________________________________________________________________
STRT               .m        114                           : First reference value
STOP               .m        447.756                       : Last reference value
STEP               .m        0.1524                        : Step increment
NULL               .         -9999                         : Missing value
COMP               .                                       : Company
WELL               .         A                             : Well name
FLD                .                                       : Field
LOC                .                                       : Location
CNTY               .                                       : County
STAT               .                                       : State
CTRY               .                                       : Country
SRVC               .                                       : Service Company
DATE               .                                       : Date
API                .                                       : API number
~Parameter Information Block
#_______________________________________________________________________________
#
#PARAMETER_NAME    .UNIT     VALUE                         : DESCRIPTION
#_______________________________________________________________________________
SET                .         Inclination                   : 
TLFamily_AZI       .         Hole Azimuth                  : 
TLFamily_AZ_OF_P1  .                                       : 
TLFamily_CAL2      .         Caliper 2                     : 
TLFamily_CAL4      .         Caliper                       : 
TLFamily_CAL6      .         Caliper                       : 
TLFamily_CAL8      .         Caliper                       : 
TLFamily_CALX      .         Caliper 1                     : 
TLFamily_CALY      .         Caliper 2                     : 
TLFamily_DEV       .         Hole Deviation                : 
TLFamily_DMAX      .         Caliper                       : 
TLFamily_DMIN      .         Caliper                       : 
TLFamily_GR        .         Gamma Ray                     : 
TLFamily_HAZI      .         Hole Azimuth                  : 
TLFamily_MD        .         Measured Depth                : 
TLFamily_RB_OF_P1  .         Relative Bearing              : 
TLFamily_ROT       .         Relative Bearing              : 
~Curve Information
#_______________________________________________________________________________
#
#LOGNAME           .UNIT     LOG_ID                        : DESCRIPTION
#_______________________________________________________________________________
MD                 .m                                      :  
AZ_OF_P1           .deg                                    : Unrecognised 
AZI                .deg                                    : AZIMUTH OF FIRST PIXEL OF IMAGE ARRAY 
CAL2               .in                                     : Unrecognised 
CAL4               .in                                     : Unrecognised 
CAL6               .in                                     : Unrecognised 
CAL8               .in                                     : Unrecognised 
CALX               .in                                     : Unrecognised 
CALY               .in                                     : Unrecognised 
DEV                .deg                                    : Unrecognised 
DMAX               .in                                     : Unrecognised 
DMIN               .in                                     : Unrecognised 
GR                 .gAPI                                   : Gamma Ray 
HAZI               .deg                                    : HOLE AZIMUTH 
RB_OF_P1           .deg                                    : Unrecognised 
ROT                .deg                                    : RELATIVE BEARING OF FIRST PIXEL OF IMAGE ARRAY 
~Ascii
# ...
226.1664   244.7      0          7.51624    7.915619   7.40738    7.395696   7.455443   7.699565   0.3922622  7.699565   7.448183   82.95654   291.5222   313.1777   68.4778   
226.3188   244.9957   0          7.693543   7.921685   7.414676   7.515162   7.522577   7.721243   0.4401555  7.728811   7.522577   75.74832   293.5443   311.4514   66.45573  
226.4712   244.8552   0          7.739709   7.972393   7.489763   7.639807   7.612535   7.75609    0.4663487  7.806099   7.608062   65.93357   291.2464   313.6088   68.75362  
226.6236   244.3247   0          7.800802   8.024998   7.608783   7.78892    7.79424    7.798104   0.4657599  7.906959   7.704793   60.2725    290.9249   313.3998   69.07508  
226.776    244.5401   0          7.799422   7.976208   7.582852   7.841469   7.8109     7.760729   0.4698668  7.908839   7.691137   59.7006    294.974    309.5661   65.02598  
226.9284   245.8316   0          7.859101   7.949519   7.56074    7.83036    7.813633   7.693432   0.4444272  7.88994    7.693432   59.72462   294.4749   311.3568   65.52512  
227.0808   246.603    0          7.83138    7.935039   7.454633   7.821371   7.696794   7.517834   0.43546    7.878205   7.517834   60.18039   298.9052   307.6978   61.09476  
227.2332   247.0863   0          7.47772    7.866539   7.166717   7.741971   7.436791   7.18398    0.4479746  7.804255   7.18398    62.02754   302.4613   304.625    57.53868  
227.3856   248.0644   0          7.309628   7.82212    7.131285   7.677065   7.449953   7.197583   0.4506595  7.749592   7.197583   64.78222   306.3539   301.7099   53.64607  
227.538    250.1915   0          7.357626   7.881165   7.157162   7.684065   7.523226   7.25103    0.4747633  7.782615   7.25103    66.16865   304.5555   305.6365   55.44449  
227.6904   250.2349   0          7.370405   7.905514   7.320217   7.700217   7.555065   7.314998   0.4418407  7.802866   7.314998   64.56766   306.2493   303.9857   53.75073  
227.8428   250.7712   0          7.396338   7.955903   7.57848    7.762463   7.645806   7.568654   0.4281136  7.859183   7.47381    62.50983   305.9862   304.785    54.01382  
227.9952   251.4809   0          7.536044   8.035081   7.828341   7.842226   7.745166   7.80172    0.3998061  7.938653   7.682192   61.63002   302.347    309.134    57.65298  
228.1476   252.5792   0          7.672021   8.015512   7.354276   7.812832   7.699685   7.790892   0.3550905  7.914172   7.513149   61.22611   306.6471   305.9323   53.35292  
228.3      252.3772   0          7.662775   7.982105   7.301266   7.862387   7.672499   7.810057   0.3352118  7.922246   7.48202    61.98594   314.3051   298.0718   45.69492  
228.4524   252.5077   0          7.673372   8.032315   7.314138   7.897237   7.695769   7.847594   0.2697289  7.964777   7.493755   63.68061   316.8856   295.6216   43.1144   
228.6048   253.8999   0          7.64072    8.071552   7.601704   7.855483   7.657203   7.833921   0.2223127  7.963518   7.621212   66.66988   312.7361   301.163    47.26389  
228.7572   253.7782   0          7.538406   8.014493   7.450534   7.618143   7.640288   7.655863   0.2294164  7.816318   7.49447    68.98257   322.6741   291.1039   37.32586  
228.9096   254.8555   0          7.458055   7.851716   7.32125    7.58265    7.487228   7.645531   0.2535238  7.717183   7.389359   68.66469   328.0594   286.7958   31.9406   
229.062    253.9674   0          7.398185   7.832348   7.380979   7.742127   7.373853   7.678047   0.2597008  7.787238   7.373853   66.88182   322.1691   291.7915   37.83086  
229.2144   252.7012   0          7.371705   7.833333   7.430987   7.869698   7.330793   7.689549   0.2274365  7.851515   7.330793   64.40479   308.3712   304.3289   51.62875  
229.3668   253.6754   0          7.362677   7.787801   7.43748    7.88944    7.189847   7.679167   0.1853326  7.838621   7.189847   62.27033   306.0016   307.6729   53.99845  
229.5192   254.8179   0          7.331177   7.707579   7.458992   7.832305   7.175422   7.649389   0.1842772  7.769942   7.175422   59.89354   298.991    315.8302   61.00899  
229.6716   256.6754   0          7.314928   7.670386   7.388551   7.591223   7.072269   7.624753   0.1445035  7.658036   7.072269   58.96483   301.9529   314.7168   58.04716  
229.824    257.4202   0          7.084436   7.597667   7.309186   7.882781   6.84451    7.59711    0.1344585  7.740224   6.84451    59.61942   315.9816   301.44     44.0184   
229.9764   257.841    0          6.853488   7.531182   7.298303   7.277896   6.496058   7.511719   0.1096486  7.549799   6.496058   61.49028   311.595    306.2295   48.40499  
230.1288   259.3165   0          7.111963   7.493711   7.315406   6.916099   6.477884   7.472011   0.1348076  7.472011   6.477884   64.80698   306.2369   313.0583   53.76307  
230.2812   260.8127   0          7.600062   7.385947   7.401046   6.455297   6.501218   7.361316   0.1303718  7.503623   6.501218   67.98012   313.4555   307.3674   46.54451  
230.4336   262.6456   0          7.614121   7.317486   7.436903   6.384511   6.545043   7.141504   0.1282767  7.525512   6.545043   70.00034   297.4227   325.2223   62.57728  
230.586    265.8393   0          7.572006   7.313512   7.394503   6.47812    6.539981   7.201443   0.1418837  7.483254   6.539981   71.16647   303.433    322.4152   56.56698  
230.7384   268.7742   0          7.65936    7.340283   7.439637   6.547335   6.529085   7.303554   0.1218219  7.549499   6.529085   73.29137   322.6665   306.0938   37.33348  
230.8908   270.8425   0          7.709627   7.335744   7.468768   6.594549   6.545496   7.355417   0.1637482  7.589198   6.545496   78.45364   347.4885   283.3543   12.51153  
231.0432   273.2821   0          7.716818   7.352919   7.495181   6.664311   7.181579   7.50423    0.1835894  7.605999   6.993386   84.09197   342.9041   290.3752   17.09589  
231.1956   275.2455   0          7.685905   7.409025   7.556761   6.740821   7.507154   7.597322   0.1891749  7.621334   7.074923   87.3031    340.2851   294.952    19.71489  
231.348    276.4955   0          7.722816   7.478436   7.730606   6.945903   7.561777   7.733386   0.1576028  7.735927   7.21217    87.6184    315.1215   321.3778   44.87855  
231.5004   278.1339   0          7.793117   7.613465   7.74996    7.763635   7.762484   7.749815   0.1130485  7.771539   7.688458   86.38001   300.5789   337.5582   59.42111  
231.6528   279.7553   0          7.774882   7.655215   7.745577   7.871345   7.777233   7.77619    0.09908511 7.797256   7.740206   87.84895   282.0116   357.7469   77.98838  
231.8052   279.3326   0          7.745209   7.714544   7.866626   7.882416   7.799422   7.798087   0.1240204  7.809556   7.788346   91.15525   275.437    3.904416   84.563    
231.9576   278.6544   0          7.764744   7.73197    7.822631   7.826765   7.707289   7.7731     0.127177   7.80318    7.696741   93.07386   294.4277   344.2264   65.57228  
232.11     280.3911   0          7.77328    7.731381   7.805936   7.476596   7.838228   7.799081   0.1501826  7.838228   7.603989   92.31071   291.2344   349.1567   68.76556  
232.2624   282.335    0          7.540271   7.74547    7.75787    7.782876   7.841478   7.779673   0.1437103  7.841478   7.637128   92.26682   298.9276   343.4073   61.07242  
232.4148   283.0688   0          7.510509   7.723186   7.411345   7.45909    7.562996   7.670717   0.1225937  7.670717   7.460927   94.12312   297.0532   346.0157   62.94677  
232.5672   283.7022   0          7.614889   7.663596   7.230201   7.228372   7.493777   7.541058   0.1381931  7.541058   7.422545   96.96569   296.7049   346.9973   63.29512  
232.7196   283.976    0          7.644754   7.566408   7.340701   7.196305   7.534773   7.53576    0.1759574  7.536262   7.381356   98.44108   299.4893   344.4866   60.51065  
232.872    285.715    0          7.665865   7.557937   7.365317   7.167349   7.508949   7.524963   0.1703932  7.524963   7.362643   96.21957   304.5656   341.1466   55.43438  
233.0244   287.937    0          7.677459   7.478735   7.63812    7.178392   7.500446   7.499626   0.1737148  7.657789   7.328564   92.87659   297.7572   350.1837   62.24277  
