~Version
 VERS              .         2.0                           : CWLS LOG ASCII STANDARD - VERSION 2.0
 WRAP              .         NO                            : ONE LINE PER DEPTH STEP
 DLM               .         SPACE                         : DELIMITING CHARACTER(SPACE TAB OR COMMA)
~Well Information
#_______________________________________________________________________________
#
#PARAMETER_NAME    .UNIT     VALUE                         : DESCRIPTION
#_______________________________________________________________________________
STRT               .m        114                           : First reference value
STOP               .m        447.756                       : Last reference value
STEP               .m        0.1524                        : Step increment
NULL               .         -9999                         : Missing value
COMP               .                                       : Company
WELL               .         A                             : Well name
FLD                .                                       : Field
LOC                .                                       : Location
CNTY               .                                       : County
STAT               .                                       : State
CTRY               .                                       : Country
SRVC               .                                       : Service Company
DATE               .                                       : Date
API                .                                       : API number
~Parameter Information Block
#_______________________________________________________________________________
#
#PARAMETER_NAME    .UNIT     VALUE                         : DESCRIPTION
#_______________________________________________________________________________
SET                .         Inclination                   : 
TLFamily_AZI       .         Hole Azimuth                  : 
TLFamily_AZ_OF_P1  .                                       : 
TLFamily_CAL2      .         Caliper 2                     : 
TLFamily_CAL4      .         Caliper                       : 
TLFamily_CAL6      .         Caliper                       : 
TLFamily_CAL8      .         Caliper                       : 
TLFamily_CALX      .         Caliper 1                     : 
TLFamily_CALY      .         Caliper 2                     : 
TLFamily_DEV       .         Hole Deviation                : 
TLFamily_DMAX      .         Caliper                       : 
TLFamily_DMIN      .         Caliper                       : 
TLFamily_GR        .         Gamma Ray                     : 
TLFamily_HAZI      .         Hole Azimuth                  : 
TLFamily_MD        .         Measured Depth                : 
TLFamily_RB_OF_P1  .         Relative Bearing              : 
TLFamily_ROT       .         Relative Bearing              : 
~Curve Information
#_______________________________________________________________________________
#
#LOGNAME           .UNIT     LOG_ID                        : DESCRIPTION
#_______________________________________________________________________________
MD                 .m                                      :  
AZ_OF_P1           .deg                                    : Unrecognised 
AZI                .deg                                    : AZIMUTH OF FIRST PIXEL OF IMAGE ARRAY 
CAL2               .in                                     : Unrecognised 
CAL4               .in                                     : Unrecognised 
CAL6               .in                                     : Unrecognised 
CAL8               .in                                     : Unrecognised 
CALX               .in                                     : Unrecognised 
CALY               .in                                     : Unrecognised 
DEV                .deg                                    : Unrecognised 
DMAX               .in                                     : Unrecognised 
DMIN               .in                                     : Unrecognised 
GR                 .gAPI                                   : Gamma Ray 
HAZI               .deg                                    : HOLE AZIMUTH 
RB_OF_P1           .deg                                    : Unrecognised 
ROT                .deg                                    : RELATIVE BEARING OF FIRST PIXEL OF IMAGE ARRAY 
~Ascii
# ...
331.3224   189.2935   0          5.313715   7.909295   4.593488   4.787446   7.60997    7.696023   0.4650708  7.696023   4.953602   60.45126   317.355    231.9398   42.64503  
331.4748   192.8007   0          5.313194   7.937959   4.59275    4.787978   7.594232   7.656007   0.502401   7.656007   4.952972   58.67324   321.9644   230.8362   38.03555  
331.6272   192.2513   0          5.313363   7.885489   4.590162   4.787457   7.54472    7.634779   0.4773914  7.634779   4.951763   57.41185   320.3056   231.9453   39.69439  
331.7796   191.3931   0          5.313363   7.69384    4.588171   4.787814   7.292373   7.533406   0.4671425  7.533406   4.950767   58.52362   320.0758   231.3174   39.92423  
331.932    191.7735   0          5.313064   7.28711    4.586733   4.787552   6.539289   6.429531   0.4921765  6.539289   4.949899   62.24136   323.9221   227.8515   36.07785  
332.0844   192.5013   0          5.31769    6.637815   4.586978   4.787393   6.180806   6.124647   0.5234423  6.180806   4.952334   66.05656   322.3187   230.1827   37.68131  
332.2368   192.2459   0          5.322483   6.515114   4.590179   4.787579   6.118998   6.163996   0.550625   6.163996   4.956331   68.51076   320.0079   232.2381   39.99211  
332.3892   192.2218   0          5.324917   6.522176   4.589503   4.786273   6.118522   6.240149   0.5348728  6.240149   4.95721    70.15343   322.3043   229.9176   37.69569  
332.5416   191.768    0          5.325143   6.537889   4.587358   4.785617   6.167826   6.331855   0.5625224  6.331855   4.956251   69.78545   321.6785   230.0895   38.32153  
332.694    191.307    0          5.327912   6.578235   4.583806   4.786855   6.23761    6.447668   0.57239    6.447668   4.955859   68.33349   319.9156   231.3915   40.08437  
332.8464   191.3083   0          5.327563   6.573369   4.585857   4.788564   6.355259   6.623841   0.6179202  6.623841   4.95671    67.35103   315.2531   236.0553   44.74694  
332.9988   192.1047   0          5.327179   6.570277   4.585882   4.789027   6.572944   6.950682   0.6249157  6.950682   4.956531   68.05325   309.4224   242.683    50.57758  
333.1512   194.58     0          5.325127   6.643387   4.586557   4.78925    6.931311   7.547514   0.6106637  7.547514   4.955842   70.13982   310.7055   243.8742   49.29454  
333.3036   197.3349   0          5.310005   7.045657   4.582683   4.789442   7.169083   7.780458   0.5671508  7.780458   4.946343   71.52387   315.1388   242.1966   44.86124  
333.456    192.8382   0          5.305109   7.079342   4.581227   4.7876     7.249039   7.746047   0.5232514  7.746047   4.943168   71.17749   306.81     246.0272   53.18997  
333.6084   194.5042   0          5.306376   7.089506   4.572251   4.787725   7.176126   7.347017   0.531224   7.347017   4.939313   70.53574   304.5084   249.9949   55.49157  
333.7608   193.8008   0          5.30181    7.400847   4.575135   4.792358   7.164841   7.300772   0.4810151  7.300772   4.938472   72.96122   300.3976   253.4033   59.60243  
333.9132   194.5227   0          5.300844   7.515267   4.575484   4.796059   7.193455   7.291296   0.454965   7.291296   4.938164   77.76594   301.359    253.1637   58.641    
334.0656   195.6539   0          5.299262   7.485245   4.576382   4.796059   7.236611   7.248927   0.4424841  7.25663    4.937822   83.22433   304.4728   251.173    55.52715  
334.218    197.5775   0          5.298801   7.54123    4.576573   4.795908   7.315023   7.331294   0.4492927  7.331294   4.937688   86.97805   288.8969   268.6962   71.10306  
334.3704   199.2377   0          5.300182   7.885038   4.568561   4.791347   7.561505   7.636861   0.4692459  7.636861   4.934371   86.43419   294.3524   264.8854   65.64762  
334.5228   200.3021   0          5.297454   7.672307   4.563102   4.786954   7.576855   7.6861     0.5277313  7.6861     4.930278   84.50417   297.9064   262.3958   62.0936   
334.6752   201.1193   0          5.29762    7.603042   4.561788   4.78388    7.534932   7.682795   0.5288283  7.682795   4.929704   82.87192   295.2911   265.8285   64.70889  
334.8276   200.1211   0          5.294702   7.876524   4.561513   4.783347   7.664831   5.873352   0.4939     7.664831   4.928107   82.83258   299.5537   260.5663   60.4463   
334.98     200.0053   0          5.294425   8.296928   4.566065   4.788236   7.763017   5.557598   0.4887002  7.763017   4.930244   83.60712   300.7991   259.2063   59.20092  
335.1324   200.7332   0          5.294408   8.257255   4.567416   4.787868   7.807668   5.54088    0.5050798  7.807668   4.930912   83.94255   301.891    258.8423   58.10901  
335.2848   200.5718   0          5.294369   8.079206   4.566263   4.787393   7.91808    5.524263   0.4939882  7.91808    4.930315   84.95812   302.9807   257.5925   57.01924  
335.4372   199.3697   0          5.288982   8.253679   4.566875   4.787889   7.88679    5.518562   0.4555319  7.88679    4.927929   86.37958   306.0824   253.287    53.91764  
335.5896   199.4282   0          5.289327   8.378996   4.559796   4.7877     7.700158   5.515723   0.4265359  7.700158   4.924562   89.36862   305.3542   254.0741   54.64579  
335.742    199.2357   0          5.289482   8.410086   4.55829    4.786494   6.614981   5.436327   0.4411593  6.67576    4.923886   92.11491   297.1261   262.1095   62.87391  
335.8944   198.2913   0          5.289351   9.172482   4.553381   4.789096   6.440292   5.413345   0.3924469  6.980789   4.921366   94.58003   290.5935   267.6982   69.40649  
336.0468   197.7417   0          5.288898   8.141848   4.551215   4.789172   6.405276   5.401934   0.4126732  6.513348   4.920056   94.68739   289.8506   267.8911   70.14938  
336.1992   198.586    0          5.287999   7.296366   4.548055   4.78694    6.374561   5.389357   0.4088618  6.374561   4.918027   89.80495   296.3742   262.2117   63.62582  
336.3516   199.2168   0          5.286829   4.980452   4.546798   4.78314    6.361683   5.379168   0.4169388  6.361683   4.881137   82.0211    291.4606   267.7562   68.53939  
336.504    200.046    0          5.281631   4.859797   4.545706   4.780704   6.350712   5.375543   0.4114994  6.350712   4.820251   75.14044   293.1788   266.8657   66.82121  
336.6564   202.9517   0          5.281579   4.838935   4.538799   4.772802   6.341381   5.367727   0.474727   6.341381   4.805869   74.80421   301.7296   261.2219   58.27035  
336.8088   204.2664   0          5.281669   4.82622    4.532637   4.768616   6.33735    5.361003   0.4783405  6.33735    4.797418   79.25912   303.883    260.3834   56.11705  
336.9612   205.0759   0          5.282013   4.816357   4.531607   4.768046   6.337535   5.359148   0.4430192  6.337535   4.792202   84.91599   298.8649   266.2111   61.13506  
337.1136   206.1991   0          5.281875   4.81137    4.531585   4.768348   6.338125   5.356806   0.432522   6.338125   4.789859   88.85087   297.5205   268.6787   62.47952  
337.266    207.5212   0          5.281127   4.806856   4.531635   4.769051   6.336566   5.352377   0.4323528  6.336566   4.787953   90.11296   300.0322   267.4891   59.96777  
337.4184   207.9451   0          5.280557   4.800941   4.531508   4.769255   6.334632   5.349761   0.4264755  6.334632   4.785098   90.53597   297.1383   270.8058   62.86168  
337.5708   208.4764   0          5.280581   4.796583   4.530109   4.769165   6.32238    5.344128   0.4186637  6.32238    4.782875   90.09889   297.2269   271.2494   62.77312  
337.7232   209.3144   0          5.280063   4.791659   4.528233   4.765215   6.326834   5.331351   0.4250619  6.326834   4.778437   89.2595    309.7259   259.589    50.27411  
337.8756   209.8378   0          5.280063   4.786064   4.525659   4.76503    6.33085    5.317542   0.405419   6.33085    4.775547   88.91493   306.9041   262.9333   53.0959   
338.028    210.6118   0          5.27903    4.778372   4.524699   4.76521    6.328336   5.298163   0.3611165  6.328336   4.771791   88.90788   313.7851   256.8293   46.21492  
338.1804   211.9724   0          5.278886   4.773351   4.524719   4.765378   6.326911   5.268693   0.4075046  6.326911   4.769365   88.17477   316.0472   255.9273   43.9528   
