~Version
 VERS              .         2.0                           : CWLS LOG ASCII STANDARD - VERSION 2.0
 WRAP              .         NO                            : ONE LINE PER DEPTH STEP
 DLM               .         SPACE                         : DELIMITING CHARACTER(SPACE TAB OR COMMA)
~Well Information
#_______________________________________________________________________________
#
#PARAMETER_NAME    .UNIT     VALUE                         : DESCRIPTION
#_______________________________________________________________________________
STRT               .m        114                           : First reference value
STOP               .m        447.756                       : Last reference value
STEP               .m        0.1524                        : Step increment
NULL               .         -9999                         : Missing value
COMP               .                                       : Company
WELL               .         A                             : Well name
FLD                .                                       : Field
LOC                .                                       : Location
CNTY               .                                       : County
STAT               .                                       : State
CTRY               .                                       : Country
SRVC               .                                       : Service Company
DATE               .                                       : Date
API                .                                       : API number
~Parameter Information Block
#_______________________________________________________________________________
#
#PARAMETER_NAME    .UNIT     VALUE                         : DESCRIPTION
#_______________________________________________________________________________
SET                .         Inclination                   : 
TLFamily_AZI       .         Hole Azimuth                  : 
TLFamily_AZ_OF_P1  .                                       : 
TLFamily_CAL2      .         Caliper 2                     : 
TLFamily_CAL4      .         Caliper                       : 
TLFamily_CAL6      .         Caliper                       : 
TLFamily_CAL8      .         Caliper                       : 
TLFamily_CALX      .         Caliper 1                     : 
TLFamily_CALY      .         Caliper 2                     : 
TLFamily_DEV       .         Hole Deviation                : 
TLFamily_DMAX      .         Caliper                       : 
TLFamily_DMIN      .         Caliper                       : 
TLFamily_GR        .         Gamma Ray                     : 
TLFamily_HAZI      .         Hole Azimuth                  : 
TLFamily_MD        .         Measured Depth                : 
TLFamily_RB_OF_P1  .         Relative Bearing              : 
TLFamily_ROT       .         Relative Bearing              : 
~Curve Information
#_______________________________________________________________________________
#
#LOGNAME           .UNIT     LOG_ID                        : DESCRIPTION
#_______________________________________________________________________________
MD                 .m                                      :  
AZ_OF_P1           .deg                                    : Unrecognised 
AZI                .deg                                    : AZIMUTH OF FIRST PIXEL OF IMAGE ARRAY 
CAL2               .in                                     : Unrecognised 
CAL4               .in                                     : Unrecognised 
CAL6               .in                                     : Unrecognised 
CAL8               .in                                     : Unrecognised 
CALX               .in                                     : Unrecognised 
CALY               .in                                     : Unrecognised 
DEV                .deg                                    : Unrecognised 
DMAX               .in                                     : Unrecognised 
DMIN               .in                                     : Unrecognised 
GR                 .gAPI                                   : Gamma Ray 
HAZI               .deg                                    : HOLE AZIMUTH 
RB_OF_P1           .deg                                    : Unrecognised 
ROT                .deg                                    : RELATIVE BEARING OF FIRST PIXEL OF IMAGE ARRAY 
~Ascii
114.0000   20.64345   0          6.441742   6.404235   6.357993   6.223015   6.774932   6.658294   0.1940051  6.774932   6.313625   114.2485   334.5846   46.0212    25.41537  
114.1524   26.75225   0          7.209947   7.229177   7.194508   7.032184   7.563807   7.4363     0.1831028  7.563807   7.130681   118.9675   350.7284   36.0233    9.271634  
114.3048   30.01495   0          7.780027   7.70599    7.754512   7.565331   7.772879   7.725943   0.1848656  7.772879   7.635661   120.4469   353.1217   36.88801   6.878294  
114.4572   33.33124   0          7.788958   7.737034   7.741229   7.671958   7.766215   7.781899   0.1818052  7.783085   7.704496   119.9063   353.3739   39.95886   6.626076  
114.6096   33.29293   0          7.802757   7.700441   7.717077   7.690032   7.753757   7.782143   0.1595491  7.782143   7.695236   120.5265   349.0965   44.18596   10.90348  
114.762    29.58323   0          7.872938   7.719398   7.626996   7.745252   7.734619   7.787687   0.1534533  7.787687   7.730549   122.6807   349.7333   39.84705   10.26674  
114.9144   31.09258   0          7.869736   7.704513   7.635592   7.695136   7.772231   7.790862   0.1592944  7.790862   7.699824   123.4458   2.506994   28.59904   357.493   
115.0668   37.08522   0          7.805203   7.78485    7.766001   7.612595   7.763392   7.788746   0.1676516  7.791581   7.698722   120.0231   0.5923079  36.49781   359.4077  
115.2192   46.86471   0          7.880614   7.822393   7.671688   7.664052   7.774049   7.846532   0.1310551  7.846532   7.741784   114.6742   0.7106164  46.15268   359.2894  
115.3716   47.68283   0          7.896868   7.777426   7.670345   7.778969   7.75893    7.853013   0.1350753  7.853013   7.75893    112.8278   5.91961    41.76039   354.0804  
115.524    41.58009   0          7.980271   7.756364   7.639952   7.794911   7.808167   7.812961   0.1604729  7.813681   7.775638   114.769    4.946289   36.63698   355.0537  
115.6764   31.00062   0          8.049981   7.782973   7.746568   7.825923   7.872481   7.848293   0.1906101  7.898274   7.804449   117.9328   358.8562   32.15657   1.143844  
115.8288   19.58431   0          8.035856   7.808461   7.761465   7.881394   7.981901   7.834126   0.2219486  7.981901   7.834126   120.1543   348.674    30.90564   11.32599  
115.9812   22.24782   0          7.853452   7.71777    7.856509   7.892456   7.96275    7.816048   0.245428   7.96275    7.804198   119.8875   350.7178   31.52991   9.282204  
116.1336   27.14986   0          7.758895   7.491404   7.900861   8.103364   7.975564   7.764401   0.2348131  7.975564   7.764401   117.6002   354.5984   32.55187   5.401612  
116.286    19.45377   0          7.648232   7.603247   8.019731   8.006899   7.900332   7.789812   0.2712349  7.900332   7.789812   115.0254   336.2448   43.22231   23.75517  
116.4384   356.3142   0          7.850433   7.8631     7.866456   7.776934   7.868628   7.777882   0.2879524  7.868628   7.777882   114.6918   307.0767   49.22252   52.92334  
116.5908   359.5347   0          7.901344   7.919137   7.805492   7.782317   7.852574   7.819028   0.2456672  7.854992   7.819028   116.3552   308.4124   51.12213   51.58759  
116.7432   358.7061   0          7.885983   7.885044   7.870448   7.848549   7.890553   7.831696   0.2465688  7.890553   7.831696   118.4885   305.3674   53.33703   54.63256  
116.8956   351.2631   0          7.90026    7.983719   7.855599   7.855663   7.927951   7.845048   0.2414604  7.927951   7.845048   118.1881   292.3061   58.94783   67.69393  
117.048    347.1324   0          7.960867   8.287759   7.974937   7.933611   7.98663    7.974444   0.2433482  8.110684   7.938589   115.6682   285.1845   61.94775   74.81549  
117.2004   345.3248   0          8.153473   7.975255   7.73702    8.020102   7.93872    8.007835   0.2466915  8.007835   7.93872    113.2418   283.5221   61.8027    76.47793  
117.3528   344.1443   0          8.151642   7.898324   7.826492   7.972726   7.932822   7.98951    0.2543572  7.98951    7.932067   113.3514   293.431    50.71304   66.569    
117.5052   343.5036   0          8.074129   7.977439   7.884472   7.936957   7.951113   7.999947   0.2264233  8.000526   7.95021    116.4599   291.6323   51.87017   68.36769  
117.6576   343.0089   0          7.974499   7.949744   7.921577   7.923759   7.95783    7.944654   0.2534519  7.95783    7.936752   118.9442   288.3299   54.67904   71.6701   
117.81     343.0518   0          7.970208   7.963811   7.902251   7.874261   7.917947   7.943076   0.2267771  7.943076   7.917657   120.8      287.4892   55.56245   72.51084  
117.9624   343.1338   0          7.99266    7.899444   7.905354   7.936108   7.923272   7.952504   0.1780811  7.957232   7.917776   121.2946   291.4453   51.68854   68.55476  
118.1148   342.5825   0          7.881006   7.878079   7.894113   7.943947   7.901363   7.828869   0.1455617  7.913887   7.828869   121.4646   289.9814   52.60134   70.01856  
118.2672   340.7597   0          7.970987   7.93536    7.87618    7.813631   7.860526   7.841421   0.146813   7.923583   7.841421   121.1096   297.3968   43.36195   62.60318  
118.4196   338.9092   0          7.967478   7.908975   7.869114   7.846875   7.859559   7.848455   0.1820916  7.918296   7.848455   119.7553   305.5995   33.31846   54.40049  
118.572    337.7007   0          8.00191    7.87812    7.881597   7.904243   7.913391   7.847764   0.1893694  7.941753   7.847764   120.7845   313.5295   24.17033   46.47046  
118.7244   337.5043   0          8.041726   7.913814   7.870828   7.823635   7.908471   7.843974   0.2064653  7.956277   7.843974   124.2071   305.8082   31.6959    54.19176  
118.8768   337.4711   0          8.061421   7.960304   7.797497   7.802347   7.879509   7.860711   0.2066692  7.92946    7.860711   127.3069   307.3091   30.16201   52.6909   
119.0292   337.0259   0          8.087756   7.921254   7.834408   7.869387   7.973203   7.863409   0.2047311  7.973203   7.863409   128.536    315.9592   21.06551   44.04084  
119.1816   337.0379   0          8.210806   8.150507   8.005213   7.856082   8.066072   8.052253   0.1742727  8.112408   8.001045   128.3888   319.0976   17.94035   40.90242  
119.334    337.1813   0          8.322236   7.986164   7.990184   7.958642   8.040939   8.076867   0.1940494  8.15621    7.972403   129.6336   314.4733   22.7079    45.52671  
119.4864   337.2003   0          8.239956   7.842412   7.95143    7.998594   8.062248   7.941697   0.207245   8.095693   7.920503   130.6171   312.763    24.43749   47.23702  
119.6388   336.8658   0          8.058286   7.890351   7.954804   7.871257   8.029979   7.858449   0.2569684  8.033394   7.858449   130.5376   312.4508   24.41513   47.54918  
119.7912   337.0593   0          8.188203   7.937219   7.899592   7.840268   8.03778    7.874955   0.2565581  8.043897   7.874955   128.9101   311.7748   25.28483   48.22522  
119.9436   337.5018   0          8.10022    7.872861   7.985467   7.933331   8.14246    7.928405   0.241994   8.14246    7.903096   126.1405   309.7257   27.77616   50.2743   
120.096    338.4481   0          8.012398   7.968977   8.042464   7.934744   8.21733    7.940007   0.2242932  8.21733    7.938609   125.1475   306.5264   31.92156   53.47364  
120.2484   339.7681   0          7.87713    7.896694   8.008324   8.02358    8.032511   7.883939   0.1942695  8.032511   7.883939   125.126    306.8726   32.89556   53.12743  
120.4008   336.1385   0          7.875156   7.88066    7.973686   7.858155   7.92225    7.838927   0.1986494  7.924421   7.838927   126.2741   310.1576   25.98075   49.84241  
120.5532   335.2321   0          7.94354    7.882275   7.850969   7.820171   7.878133   7.832759   0.1730277  7.897254   7.832759   127.9771   314.0468   21.18547   45.95326  
120.7056   334.3227   0          7.982059   7.883359   7.763796   7.820024   7.861842   7.851001   0.1862626  7.873709   7.850927   130.1943   309.7028   24.62007   50.29725  
120.858    333.9203   0          7.943541   7.822831   7.816028   7.868402   7.880477   7.83853    0.2146179  7.885645   7.83853    133.6853   306.7711   27.14919   53.22892  
