~Version
 VERS              .         2.0                           : CWLS LOG ASCII STANDARD - VERSION 2.0
 WRAP              .         NO                            : ONE LINE PER DEPTH STEP
 DLM               .         SPACE                         : DELIMITING CHARACTER(SPACE TAB OR COMMA)
~Well Information
#_______________________________________________________________________________
#
#PARAMETER_NAME    .UNIT     VALUE                         : DESCRIPTION
#_______________________________________________________________________________
STRT               .m        114                           : First reference value
STOP               .m        447.756                       : Last reference value
STEP               .m        0.1524                        : Step increment
NULL               .         -9999                         : Missing value
COMP               .                                       : Company
WELL               .         A                             : Well name
FLD                .                                       : Field
LOC                .                                       : Location
CNTY               .                                       : County
STAT               .                                       : State
CTRY               .                                       : Country
SRVC               .                                       : Service Company
DATE               .                                       : Date
API                .                                       : API number
~Parameter Information Block
#_______________________________________________________________________________
#
#PARAMETER_NAME    .UNIT     VALUE                         : DESCRIPTION
#_______________________________________________________________________________
SET                .         Inclination                   : 
TLFamily_AZI       .         Hole Azimuth                  : 
TLFamily_AZ_OF_P1  .                                       : 
TLFamily_CAL2      .         Caliper 2                     : 
TLFamily_CAL4      .         Caliper                       : 
TLFamily_CAL6      .         Caliper                       : 
TLFamily_CAL8      .         Caliper                       : 
TLFamily_CALX      .         Caliper 1                     : 
TLFamily_CALY      .         Caliper 2                     : 
TLFamily_DEV       .         Hole Deviation                : 
TLFamily_DMAX      .         Caliper                       : 
TLFamily_DMIN      .         Caliper                       : 
TLFamily_GR        .         Gamma Ray                     : 
TLFamily_HAZI      .         Hole Azimuth                  : 
TLFamily_MD        .         Measured Depth                : 
TLFamily_RB_OF_P1  .         Relative Bearing              : 
TLFamily_ROT       .         Relative Bearing              : 
~Curve Information
#_______________________________________________________________________________
#
#LOGNAME           .UNIT     LOG_ID                        : DESCRIPTION
#_______________________________________________________________________________
MD                 .m                                      :  
AZ_OF_P1           .deg                                    : Unrecognised 
AZI                .deg                                    : AZIMUTH OF FIRST PIXEL OF IMAGE ARRAY 
CAL2               .in                                     : Unrecognised 
CAL4               .in                                     : Unrecognised 
CAL6               .in                                     : Unrecognised 
CAL8               .in                                     : Unrecognised 
CALX               .in                                     : Unrecognised 
CALY               .in                                     : Unrecognised 
DEV                .deg                                    : Unrecognised 
DMAX               .in                                     : Unrecognised 
DMIN               .in                                     : Unrecognised 
GR                 .gAPI                                   : Gamma Ray 
HAZI               .deg                                    : HOLE AZIMUTH 
RB_OF_P1           .deg                                    : Unrecognised 
ROT                .deg                                    : RELATIVE BEARING OF FIRST PIXEL OF IMAGE ARRAY 
~Ascii
# ...
205.1352   63.36151   0          8.183429   7.683441   7.756907   7.923509   8.150809   7.82134    0.2930773  8.150809   7.799776   90.71455   253.4095   169.952    106.5905  
205.2876   62.88437   0          8.121463   8.038139   7.896705   7.97274    8.332998   7.993127   0.255282   8.332998   7.976577   88.79083   253.1496   169.7347   106.8504  
205.44     62.82028   0          7.663228   7.745255   7.930583   7.36903    8.141502   7.965981   0.3105075  8.175815   7.557143   88.22201   254.0019   168.8184   105.9981  
205.5924   61.59347   0          7.645621   7.176523   7.85093    7.311291   7.758257   7.93198    0.344804   7.93198    7.243907   89.13131   257.6348   163.9582   102.3652  
205.7448   60.26746   0          7.550562   7.368693   7.853177   7.375747   7.746408   7.817479   0.3149962  7.817479   7.37222    90.29988   257.0188   163.2487   102.9812  
205.8972   58.86517   0          7.84106    7.551453   7.690708   7.64053    7.810221   7.784415   0.3291069  7.811879   7.595992   91.33674   261.208    157.6576   98.79197  
206.0496   58.08824   0          7.857348   7.484172   7.84666    7.718094   7.820017   7.767116   0.2856299  7.852004   7.601133   92.0416    258.9603   159.1279   101.0397  
206.202    57.15609   0          7.273943   7.44729    7.837021   7.744586   7.806561   7.747951   0.2962722  7.808885   7.555482   92.29518   261.9849   155.1712   98.01509  
206.3544   57.74954   0          7.413529   7.439346   7.820551   7.908738   7.792349   7.929931   0.338507   7.929931   7.535933   92.2601    262.9141   154.8353   97.08592  
206.5068   58.83994   0          8.107528   7.58001    7.855995   7.881969   7.977982   7.913532   0.3389889  7.988401   7.730989   92.82569   261.8755   156.9646   98.12447  
206.6592   58.08532   0          7.958842   7.390212   7.919386   7.721362   7.751559   7.9046     0.3227377  7.939114   7.555787   94.04744   263.7086   154.3767   96.2914   
206.8116   58.00788   0          7.98087    7.492537   7.930668   7.62855    7.693392   7.917188   0.3239227  7.955769   7.560543   95.28703   260.6561   157.3517   99.34386  
206.964    58.08213   0          8.102096   7.356896   7.856672   7.713204   7.723243   7.868907   0.3280001  7.979384   7.53505    94.31186   261.4251   156.657    98.57485  
207.1164   59.00601   0          8.116619   7.39594    7.846666   7.739726   7.724432   7.815885   0.3236912  7.981643   7.567832   92.07258   265.961    153.0447   94.03903  
207.2688   60.71177   0          8.020173   7.367658   7.75526    7.898236   7.983133   7.939328   0.3003712  8.031615   7.632947   90.37047   269.8134   150.8984   90.18661  
207.4212   59.72153   0          8.02235    7.454324   7.939997   7.924297   8.119762   7.940594   0.3100573  8.119762   7.689311   89.83315   270.5421   149.1795   89.45795  
207.5736   60.13071   0          7.898749   7.624113   7.88657    7.726843   8.022264   7.917892   0.284559   8.022264   7.675478   91.12605   276.827    143.3038   83.17303  
207.726    61.1201    0          7.774848   7.716452   7.924117   7.967671   7.985323   7.853637   0.3189878  7.985323   7.774519   91.90248   280.9899   140.1296   79.01009  
207.8784   62.47357   0          7.822388   7.759933   7.948577   7.771742   7.931777   7.696028   0.300301   7.931777   7.678336   90.96877   277.1384   145.3379   82.86165  
208.0308   63.73742   0          7.816378   7.489202   7.477676   7.855779   7.76363    7.683778   0.2769758  7.765347   7.623898   91.1199    271.3668   152.3707   88.63324  
208.1832   64.40646   0          7.696132   7.323036   7.558864   7.910345   7.72401    7.711488   0.2462727  7.724946   7.596307   92.5377    275.6858   148.7208   84.31417  
208.3356   65.15096   0          7.869732   7.35466    7.61585    7.737267   7.761767   7.74627    0.2662733  7.776634   7.545964   93.48318   273.9051   151.2461   86.09487  
208.488    67.45078   0          7.885397   7.561197   7.847346   7.900917   8.036811   7.783918   0.3070199  8.041821   7.731057   93.15554   278.6648   148.7865   81.33524  
208.6404   69.62212   0          7.728294   7.413061   7.753396   7.747377   7.960371   7.670138   0.3002153  7.960371   7.580219   92.48477   276.6434   152.9766   83.35661  
208.7928   71.82773   0          7.633736   7.518589   7.531722   7.735245   7.788977   7.638463   0.2998842  7.788977   7.572495   92.49662   270.5718   161.2549   89.42818  
208.9452   73.06157   0          7.584273   7.308349   7.458426   7.741549   7.679865   7.695432   0.3213184  7.69834    7.510647   92.51823   272.7522   160.3092   87.24779  
209.0976   73.43213   0          7.564288   7.26304    7.420002   7.665023   7.624653   7.661891   0.3367594  7.662045   7.463273   92.30214   271.6601   161.7728   88.33991  
209.25     73.28764   0          7.837209   7.548763   7.515272   7.709692   7.861528   7.811238   0.301492   7.865211   7.629227   93.09689   280.7547   152.5307   79.24531  
209.4024   77.59184   0          8.073229   7.427127   7.84939    7.799387   8.03389    7.811419   0.3371283  8.034296   7.613257   95.59688   271.9688   165.6461   88.03123  
209.5548   79.75703   0          8.049718   7.601383   7.807748   7.885978   7.944637   7.805326   0.3274235  7.952304   7.743681   96.14314   278.7092   161.0482   81.29085  
209.7072   80.44305   0          7.972634   7.339327   7.741587   7.792659   7.955956   7.716746   0.2582023  7.955956   7.565993   93.98763   282.6034   157.8398   77.39664  
209.8596   80.08109   0          7.798135   7.314963   7.708725   7.374371   7.73793    7.71465    0.2363286  7.77654    7.344667   92.57207   291.1336   148.9474   68.8664   
210.012    79.26436   0          7.526155   7.292885   7.746145   7.327736   7.355817   7.73326    0.2490316  7.73326    7.310311   91.85645   290.7649   148.4995   69.23515  
210.1644   78.40748   0          7.438583   7.077389   7.65882    7.568295   7.342545   7.699586   0.2700582  7.699586   7.322842   90.56721   289.5561   148.8515   70.44388  
210.3168   78.78226   0          7.423162   7.244753   7.759619   7.328394   7.374957   7.713504   0.3247429  7.718559   7.286573   88.25982   287.6974   151.0849   72.30256  
210.4692   77.62842   0          7.702807   7.272679   7.796922   7.698177   7.500469   7.776013   0.3197373  7.785281   7.447817   85.21507   288.8237   148.8047   71.1763   
210.6216   77.01224   0          7.523623   7.327273   7.671539   7.803576   7.546038   7.716071   0.3193623  7.716071   7.529037   82.5573    283.596    153.4164   76.40398  
210.774    76.84494   0          7.513578   7.083438   7.591916   7.688595   7.486834   7.584961   0.3073614  7.584961   7.386016   80.87617   280.259    156.5853   79.74102  
210.9264   77.62006   0          7.6922     7.124884   7.616009   7.683836   7.711966   7.595074   0.3059149  7.723241   7.40436    79.52363   284.4821   153.1381   75.51786  
211.0788   79.06858   0          8.038258   7.239396   7.689219   7.695989   7.825124   7.646649   0.3205147  7.863739   7.467692   79.19157   283.8452   155.2226   76.15479  
211.2312   79.78566   0          7.921038   7.260274   7.634521   7.664426   7.794452   7.715125   0.3174159  7.79623    7.46235    80.78496   281.23     158.5558   78.77002  
211.3836   80.40485   0          7.798719   7.261773   7.640569   7.751209   7.777531   7.757438   0.3369579  7.777531   7.506491   83.52786   278.6083   161.7976   81.39172  
211.536    81.16409   0          7.574181   7.167358   7.624364   7.702881   7.670928   7.695908   0.3687858  7.695908   7.43512    86.71022   276.9955   164.1686   83.00453  
211.6884   82.76407   0          7.486196   7.154178   7.565962   7.581281   7.717197   7.689361   0.3608103  7.72376    7.36773    90.70399   276.1634   166.6001   83.83659  
211.8408   85.28455   0          7.43653    6.993966   7.558527   7.238989   7.540155   7.651748   0.3922432  7.651748   7.116477   92.61235   272.9808   172.3042   87.01922  
211.9932   87.80256   0          7.330607   6.906483   7.523026   7.226827   7.402527   7.598357   0.3313949  7.598357   7.066655   92.46753   269.6029   178.1987   90.39713  
