~Version
 VERS              .         2.0                           : CWLS LOG ASCII STANDARD - VERSION 2.0
 WRAP              .         NO                            : ONE LINE PER DEPTH STEP
 DLM               .         SPACE                         : DELIMITING CHARACTER(SPACE TAB OR COMMA)
~Well Information
#_______________________________________________________________________________
#
#PARAMETER_NAME    .UNIT     VALUE                         : DESCRIPTION
#_______________________________________________________________________________
STRT               .m        114                           : First reference value
STOP               .m        447.756                       : Last reference value
STEP               .m        0.1524                        : Step increment
NULL               .         -9999                         : Missing value
COMP               .                                       : Company
WELL               .         A                             : Well name
FLD                .                                       : Field
LOC                .                                       : Location
CNTY               .                                       : County
STAT               .                                       : State
CTRY               .                                       : Country
SRVC               .                                       : Service Company
DATE               .                                       : Date
API                .                                       : API number
~Parameter Information Block
#_______________________________________________________________________________
#
#PARAMETER_NAME    .UNIT     VALUE                         : DESCRIPTION
#_______________________________________________________________________________
SET                .         Inclination                   : 
TLFamily_AZI       .         Hole Azimuth                  : 
TLFamily_AZ_OF_P1  .                                       : 
TLFamily_CAL2      .         Caliper 2                     : 
TLFamily_CAL4      .         Caliper                       : 
TLFamily_CAL6      .         Caliper                       : 
TLFamily_CAL8      .         Caliper                       : 
TLFamily_CALX      .         Caliper 1                     : 
TLFamily_CALY      .         Caliper 2                     : 
TLFamily_DEV       .         Hole Deviation                : 
TLFamily_DMAX      .         Caliper                       : 
TLFamily_DMIN      .         Caliper                       : 
TLFamily_GR        .         Gamma Ray                     : 
TLFamily_HAZI      .         Hole Azimuth                  : 
TLFamily_MD        .         Measured Depth                : 
TLFamily_RB_OF_P1  .         Relative Bearing              : 
TLFamily_ROT       .         Relative Bearing              : 
~Curve Information
#_______________________________________________________________________________
#
#LOGNAME           .UNIT     LOG_ID                        : DESCRIPTION
#_______________________________________________________________________________
MD                 .m                                      :  
AZ_OF_P1           .deg                                    : Unrecognised 
AZI                .deg                                    : AZIMUTH OF FIRST PIXEL OF IMAGE ARRAY 
CAL2               .in                                     : Unrecognised 
CAL4               .in                                     : Unrecognised 
CAL6               .in                                     : Unrecognised 
CAL8               .in                                     : Unrecognised 
CALX               .in                                     : Unrecognised 
CALY               .in                                     : Unrecognised 
DEV                .deg                                    : Unrecognised 
DMAX               .in                                     : Unrecognised 
DMIN               .in                                     : Unrecognised 
GR                 .gAPI                                   : Gamma Ray 
HAZI               .deg                                    : HOLE AZIMUTH 
RB_OF_P1           .deg                                    : Unrecognised 
ROT                .deg                                    : RELATIVE BEARING OF FIRST PIXEL OF IMAGE ARRAY 
~Ascii
# ...
135.0312   327.3369   0          7.619612   7.79517    7.893366   7.678892   7.796269   7.827317   0.1237426  7.861288   7.713397   107.418    315.0503   12.2908    44.94971  
135.1836   325.8637   0          7.931045   7.813815   7.85381    7.74771    7.854046   7.779325   0.1004343  7.892427   7.77453    107.9364   310.6749   15.18745   49.32512  
135.336    324.8778   0          7.90816    7.741857   7.831961   7.767781   7.839094   7.740358   0.1082286  7.87006    7.690367   108.6492   315.1937   9.68614    44.80627  
135.4884   324.0114   0          7.807787   7.423659   7.620714   7.676095   7.894611   7.500909   0.1345249  7.896921   7.500909   109.486    318.0918   5.936107   41.90823  
135.6408   322.8164   0          7.975637   7.517656   7.494781   7.661819   7.951821   7.55744    0.1382255  7.951821   7.55744    110.4909   299.8213   22.99102   60.17871  
135.7932   321.7038   0          8.053509   7.760472   7.825623   7.714677   7.926175   7.764037   0.1171415  7.943397   7.734282   109.9567   307.915    13.79102   52.08502  
135.9456   320.845    0          7.935716   7.747009   7.840558   7.761134   7.918993   7.772987   0.1061637  7.925016   7.73181    110.0612   308.6005   12.24684   51.39949  
136.098    319.9195   0          7.85805    7.966543   7.998181   7.794227   7.736899   7.72907    0.1207216  7.928116   7.72907    111.8617   297.7852   22.13554   62.2148   
136.2504   319.5227   0          7.814669   7.79405    7.728876   7.826027   7.492488   7.60184    0.08628356 7.810038   7.492488   112.715    310.8623   8.660402   49.13771  
136.4028   319.1105   0          7.808196   7.750747   7.528247   7.74192    7.445191   7.515405   0.08779773 7.746334   7.445191   112.1593   293.7238   25.38331   66.27621  
136.5552   319.6014   0          7.800154   7.707617   7.14528    7.683219   7.43946    7.466804   0.09214274 7.695418   7.401328   108.7393   261.484    58.11206   98.51601  
136.7076   320.29     0          7.797108   7.602179   6.710715   7.664722   7.501552   7.4244     0.1015258  7.633451   7.253911   102.5037   289.3185   30.99347   70.68147  
136.86     320.3817   0          7.636497   7.573858   5.536192   7.633859   7.579857   7.339753   0.1053517  7.603858   6.586344   96.74488   307.309    13.06675   52.69099  
137.0124   320.0323   0          7.466819   7.395402   7.023176   7.737826   7.647581   7.616505   0.1256925  7.647581   7.244998   93.89648   307.1582   12.86656   52.84178  
137.1648   322.0512   0          7.551493   7.300796   7.103644   7.598429   7.702825   7.608049   0.1464783  7.702825   7.327569   94.43739   307.2119   14.83974   52.78815  
137.3172   321.8284   0          7.587448   7.552028   7.116934   7.330309   7.75976    7.52032    0.151284   7.75976    7.35219    97.73248   312.1536   9.679094   47.84637  
137.4696   321.914    0          7.780189   7.514152   7.049661   7.334362   7.75958    7.590644   0.1081809  7.75958    7.38106    104.2964   325.3342   356.5792   34.66578  
137.622    322.9055   0          7.953068   7.302762   7.370014   7.302827   7.720819   7.682882   0.09509671 7.738324   7.302794   112.4783   323.112    359.7903   36.88797  
137.7744   323.1      0          7.92901    7.617856   7.59143    7.358152   7.587456   7.675694   0.1313485  7.765776   7.488004   118.5679   326.4533   356.6463   33.54666  
137.9268   323.6581   0          7.216835   7.800472   7.501603   7.272095   7.486984   7.392199   0.1580697  7.536283   7.3345     117.3685   308.4262   15.21601   51.57382  
138.0792   324.3748   0          7.407854   7.636582   7.223582   7.182737   7.376939   6.888714   0.1765999  7.40966    6.888714   110.043    292.3965   31.97895   67.60355  
138.2316   325.0669   0          7.207993   6.830379   6.752574   7.016144   7.199349   6.940172   0.2077704  7.199349   6.844858   100.823    299.893    25.16986   60.10702  
138.384    327.9482   0          6.651751   7.166563   6.98478    7.015816   7.310435   7.343183   0.2136286  7.344483   6.814465   95.54475   312.3914   15.55612   47.60859  
138.5364   328.7045   0          7.558709   7.566574   7.602015   7.239465   7.717377   7.703869   0.2111898  7.760538   7.403019   94.64473   325.4758   3.224709   34.5242   
138.6888   330.2906   0          7.232923   7.652501   7.420471   7.39268    7.520906   7.620362   0.1882947  7.620362   7.307787   94.31958   326.5549   3.736372   33.44506  
138.8412   331.2074   0          7.587568   7.504014   7.718228   7.706942   7.822019   7.699674   0.162039   7.822019   7.605478   94.81024   320.312    10.89545   39.68806  
138.9936   331.4124   0          7.182115   7.350279   7.223609   7.48858    7.722831   7.367697   0.1870277  7.722831   7.202114   94.77671   318.6108   12.80163   41.38916  
139.146    332.0123   0          7.321027   7.273074   7.206992   7.232826   7.609204   7.24959    0.1987262  7.609204   7.200647   96.50017   314.1862   17.82575   45.81385  
139.2984   332.722    0          7.904467   7.265914   7.339348   7.371902   7.713143   7.576815   0.2010779  7.713143   7.318908   101.1629   315.5887   17.13832   44.41126  
139.4508   331.4757   0          7.688645   7.77545    7.613286   7.532007   7.499414   7.689057   0.2179287  7.710397   7.474533   108.733    308.2189   23.25645   51.78109  
139.6032   331.6905   0          7.684204   7.742857   6.980601   7.597208   7.618852   7.76111    0.1879096  7.76111    7.332402   113.0261   306.2639   25.42495   53.73615  
139.7556   332.2888   0          7.780956   7.873479   6.187909   7.452157   7.557664   7.602753   0.222437   7.695334   6.984432   109.5248   308.4654   23.82231   51.5346   
139.908    331.1691   0          7.736499   8.247268   6.987921   7.263267   7.676233   7.57164    0.2231668  7.765987   7.360064   100.118    305.8323   25.33468   54.16772  
140.0604   334.9224   0          7.611705   7.411756   7.442419   7.327873   7.673244   7.325254   0.2331937  7.673244   7.325254   91.05647   305.2926   29.62871   54.70743  
140.2128   337.1791   0          7.748866   7.204891   7.100513   7.180526   7.605322   7.164595   0.231171   7.605322   7.151963   88.03774   300.9294   36.24991   59.07054  
140.3652   337.7927   0          7.875215   7.593331   7.274949   7.399373   7.702632   7.538212   0.2946034  7.702632   7.496352   88.57673   305.1518   32.64093   54.84821  
140.5176   338.3719   0          7.575449   7.743412   7.395308   7.415388   7.838093   7.759161   0.283999   7.8476     7.435723   90.30131   306.1398   32.23072   53.86017  
140.67     339.8364   0          6.610354   7.795944   7.327805   7.584514   7.778764   7.851781   0.3106056  7.851781   6.969079   90.24998   312.6567   27.18603   47.34328  
140.8224   339.6381   0          6.83791    7.605386   7.168201   7.589796   7.71587    7.762651   0.3367076  7.792451   7.003056   88.23505   318.6572   20.98093   41.34284  
140.9748   337.9861   0          7.237666   7.790497   7.339149   7.428366   7.573854   7.977965   0.3064563  7.977965   7.288407   87.55175   314.2638   23.72429   45.73619  
141.1272   337.6501   0          7.15347    7.635302   7.361967   7.431641   7.519039   7.787093   0.2528263  7.787093   7.257719   89.53269   318.6241   19.0256    41.37589  
141.2796   338.0068   0          6.794139   7.357318   7.104858   7.256779   7.111683   7.474398   0.2019483  7.474398   6.949499   92.629     310.6866   27.31782   49.31335  
141.432    338.6941   0          6.785018   7.164039   6.944383   7.231051   6.837585   7.423034   0.2182597  7.423034   6.827264   93.93513   302.3896   36.30629   57.61038  
141.5844   338.7001   0          7.230163   7.044914   7.059193   7.219013   7.031958   7.578791   0.2344462  7.578791   7.031958   92.21185   297.1604   41.53689   62.83963  
141.7368   336.9926   0          7.393503   7.584435   7.380456   7.53538    7.355722   7.7141     0.2319548  7.7141     7.355722   88.76304   287.3693   49.6251    72.63072  
141.8892   335.8595   0          7.634806   8.295678   7.960232   7.48509    7.820087   7.935232   0.2244072  7.935232   7.790975   86.73785   289.888    45.96946   70.11201  
