~Version
 VERS              .         2.0                           : CWLS LOG ASCII STANDARD - VERSION 2.0
 WRAP              .         NO                            : ONE LINE PER DEPTH STEP
 DLM               .         SPACE                         : DELIMITING CHARACTER(SPACE TAB OR COMMA)
~Well Information
#_______________________________________________________________________________
#
#PARAMETER_NAME    .UNIT     VALUE                         : DESCRIPTION
#_______________________________________________________________________________
STRT               .m        114                           : First reference value
STOP               .m        447.756                       : Last reference value
STEP               .m        0.1524                        : Step increment
NULL               .         -9999                         : Missing value
COMP               .                                       : Company
WELL               .         A                             : Well name
FLD                .                                       : Field
LOC                .                                       : Location
CNTY               .                                       : County
STAT               .                                       : State
CTRY               .                                       : Country
SRVC               .                                       : Service Company
DATE               .                                       : Date
API                .                                       : API number
~Parameter Information Block
#_______________________________________________________________________________
#
#PARAMETER_NAME    .UNIT     VALUE                         : DESCRIPTION
#_______________________________________________________________________________
SET                .         Inclination                   : 
TLFamily_AZI       .         Hole Azimuth                  : 
TLFamily_AZ_OF_P1  .                                       : 
TLFamily_CAL2      .         Caliper 2                     : 
TLFamily_CAL4      .         Caliper                       : 
TLFamily_CAL6      .         Caliper                       : 
TLFamily_CAL8      .         Caliper                       : 
TLFamily_CALX      .         Caliper 1                     : 
TLFamily_CALY      .         Caliper 2                     : 
TLFamily_DEV       .         Hole Deviation                : 
TLFamily_DMAX      .         Caliper                       : 
TLFamily_DMIN      .         Caliper                       : 
TLFamily_GR        .         Gamma Ray                     : 
TLFamily_HAZI      .         Hole Azimuth                  : 
TLFamily_MD        .         Measured Depth                : 
TLFamily_RB_OF_P1  .         Relative Bearing              : 
TLFamily_ROT       .         Relative Bearing              : 
~Curve Information
#_______________________________________________________________________________
#
#LOGNAME           .UNIT     LOG_ID                        : DESCRIPTION
#_______________________________________________________________________________
MD                 .m                                      :  
AZ_OF_P1           .deg                                    : Unrecognised 
AZI                .deg                                    : AZIMUTH OF FIRST PIXEL OF IMAGE ARRAY 
CAL2               .in                                     : Unrecognised 
CAL4               .in                                     : Unrecognised 
CAL6               .in                                     : Unrecognised 
CAL8               .in                                     : Unrecognised 
CALX               .in                                     : Unrecognised 
CALY               .in                                     : Unrecognised 
DEV                .deg                                    : Unrecognised 
DMAX               .in                                     : Unrecognised 
DMIN               .in                                     : Unrecognised 
GR                 .gAPI                                   : Gamma Ray 
HAZI               .deg                                    : HOLE AZIMUTH 
RB_OF_P1           .deg                                    : Unrecognised 
ROT                .deg                                    : RELATIVE BEARING OF FIRST PIXEL OF IMAGE ARRAY 
~Ascii
# ...
352.3536   310.2426   0          7.034921   7.260661   5.731188   7.019517   6.984804   6.963468   0.5993433  7.14009    6.383054   88.13055   340.364    329.8785   19.63601  
352.506    310.4251   0          6.999788   7.244261   5.674755   6.996663   6.926677   6.935799   0.586499   7.120462   6.337271   84.6501    333.6052   336.8202   26.39483  
352.6584   310.6292   0          6.988948   7.21399    6.104308   6.643953   6.864195   6.884791   0.5692372  6.928972   6.546628   79.93992   333.9239   336.7053   26.07612  
352.8108   312.0153   0          7.009628   7.196212   6.43871    6.41869    6.830803   6.878967   0.6122893  6.878967   6.706501   77.12361   334.0949   337.9204   25.90513  
352.9632   313.7137   0          7.064048   6.244085   6.452995   6.301853   6.828786   6.95349    0.6334555  6.95349    6.272969   77.85259   332.9077   340.806    27.0923   
353.1156   314.0504   0          7.096428   5.878906   6.561761   6.281157   6.89495    7.033483   0.6510771  7.033483   6.080031   79.94019   332.6429   341.4074   27.35709  
353.268    314.191    0          7.137736   6.340617   6.692772   6.235165   7.023053   7.277331   0.6204951  7.277331   6.287891   81.43204   333.1578   341.0327   26.84223  
353.4204   315.8024   0          7.215603   7.39843    7.282324   6.178885   7.217299   7.451436   0.5911815  7.465373   6.788657   81.07866   331.5621   344.2406   28.4379   
353.5728   316.3291   0          7.187766   6.999101   7.677356   6.135566   7.21197    7.389655   0.5365604  7.43256    6.567333   79.33237   333.792    342.5372   26.20801  
353.7252   316.6796   0          7.130018   6.195086   7.485521   6.048141   7.136155   6.962772   0.5006688  7.307769   6.121614   78.14314   328.4744   348.205    31.52563  
353.8776   315.8565   0          7.05337    5.853911   7.289092   5.891041   7.051765   6.636473   0.4888352  7.171231   5.872476   78.5234    325.9346   349.9219   34.06543  
354.03     314.9901   0          6.959764   5.558399   7.232193   5.760899   7.130814   6.616472   0.459272   7.130814   5.659649   80.6461    324.4656   350.5244   35.53439  
354.1824   316.5034   0          6.993665   5.619935   7.309548   5.835819   7.181419   6.770273   0.4324065  7.181419   5.727877   82.90067   324.5236   351.9798   35.47644  
354.3348   317.5248   0          7.067399   5.844037   7.311276   5.994855   7.161729   6.825651   0.4232163  7.186777   5.919446   84.64936   324.942    352.5828   35.05801  
354.4872   316.6292   0          7.066071   6.250891   6.606988   6.445162   6.906324   6.846016   0.4694279  6.915537   6.348027   85.29478   323.3147   353.3145   36.68526  
354.6396   317.6517   0          7.015312   6.410452   6.509069   6.471427   6.838125   6.848341   0.5979766  6.862565   6.440939   86.20073   324.535    353.1167   35.46497  
354.792    319.1203   0          7.00262    6.394364   6.540472   6.393388   6.697565   6.870801   0.6249168  6.870801   6.393877   87.06212   324.6347   354.4849   35.36526  
354.9444   321.0325   0          6.977577   6.406881   6.564092   6.390413   6.6622     6.918559   0.6201374  6.918559   6.398647   85.66373   328.8453   352.1875   31.15466  
355.0968   322.8621   0          6.965017   6.391501   6.662264   6.395921   6.653679   6.91841    0.5875963  6.91841    6.393712   83.55785   329.3658   353.4959   30.63421  
355.2492   324.1563   0          6.968967   6.440067   6.703664   6.434647   6.65776    6.898132   0.5766882  6.898132   6.437357   80.90231   330.6457   353.5105   29.35434  
355.4016   325.6804   0          7.008106   6.590151   6.718548   6.472565   6.652594   6.933403   0.5857244  6.933403   6.531358   79.49584   324.4883   1.192413   35.5117   
355.554    326.9992   0          7.015071   6.816854   6.733407   6.520215   6.645662   7.006475   0.4982409  7.006475   6.623518   78.7377    325.9646   1.034508   34.03542  
355.7064   328.8575   0          7.085833   7.230106   6.710793   6.631597   6.660936   7.215256   0.406225   7.215256   6.660936   78.2295    327.118    1.735724   32.88203  
355.8588   330.4353   0          7.226676   7.484997   6.811578   6.696376   6.810028   7.397995   0.2945275  7.397995   6.810028   77.76815   336.479    353.9561   23.52104  
356.0112   331.0426   0          7.442883   7.46506    7.300062   6.783873   7.089893   7.464037   0.222088   7.464037   7.073351   76.28404   323.2847   7.756879   36.71529  
356.1636   331.2358   0          7.667113   7.3851     7.030019   6.863282   7.544942   7.464037   0.2196816  7.612291   7.124191   74.07292   310.4664   20.76999   49.53357  
356.316    331.0365   0          7.570557   7.50692    7.068569   6.757984   7.728212   7.446608   0.2148184  7.728212   7.132452   72.3746    320.8644   10.17116   39.13562  
356.4684   331.4662   0          7.538254   7.519986   7.081419   6.687422   7.557386   7.396124   0.1973746  7.557386   7.103704   72.47122   311.5757   19.8923    48.42434  
356.6208   332.23     0          7.530993   7.413292   6.933199   6.673481   7.40403    7.32775    0.2060263  7.40403    7.043386   73.32987   307.7737   24.45617   52.22635  
356.7732   333.211    0          7.501449   7.308945   6.558311   6.66175    7.108155   7.209386   0.2328057  7.215764   6.985347   72.93807   305.8864   27.32466   54.11356  
356.9256   333.7971   0          7.33582    7.087717   5.908154   6.606893   6.781439   7.06749    0.2096489  7.06749    6.621986   69.90805   304.5827   29.21455   55.41732  
357.078    333.9155   0          7.000731   6.841223   5.622516   6.59481    6.712739   6.969288   0.2058764  6.969288   6.311623   66.07455   310.9271   22.98375   49.07287  
357.2304   334.836    0          6.840501   6.756179   5.601789   6.618611   6.704185   6.945933   0.2600013  6.945933   6.221145   63.80573   332.7178   2.123775   27.28222  
357.3828   336.4457   0          6.797991   6.742834   5.571428   6.62177    6.723723   6.93736    0.2863525  6.93736    6.18471    64.19081   329.4447   7.003551   30.55525  
357.5352   337.649    0          6.776564   6.747213   5.576674   6.558273   6.745145   6.933625   0.2686126  6.933625   6.176619   66.97116   330.8437   6.805524   29.15629  
357.6876   339.43     0          6.760887   6.750602   5.555306   6.558453   6.724149   6.933325   0.2852095  6.933325   6.158096   69.38812   332.7751   6.653759   27.22486  
357.84     341.0547   0          6.720564   6.757391   5.526788   6.573419   6.695513   6.939163   0.3014085  6.939163   6.123676   69.27725   335.5866   5.467958   24.41335  
357.9924   342.7429   0          6.719686   6.726366   5.527946   6.565947   6.683179   6.946075   0.2927424  6.946075   6.123816   67.94305   331.7812   10.96158   28.21879  
358.1448   343.8633   0          6.716017   6.726286   5.558423   6.563028   6.689734   6.950577   0.2911188  6.950577   6.13722    65.27217   327.1377   16.72544   32.86227  
358.2972   345.4077   0          6.709642   6.721      5.559423   6.557773   6.684014   6.954666   0.303515   6.954666   6.134533   62.70555   323.7437   21.66147   36.25636  
358.4496   346.6082   0          6.706591   6.728194   5.560007   6.561642   6.709704   6.983699   0.3265046  6.983699   6.133299   62.02291   315.7417   30.86678   44.25827  
358.602    347.8218   0          6.675311   6.79917    5.574436   6.56422    6.72803    6.993991   0.3049507  6.993991   6.124873   63.57775   314.6993   33.12263   45.30066  
358.7544   349.4418   0          6.653184   6.851923   5.561779   6.559734   6.715714   7.01699    0.2981319  7.01699    6.107482   66.20071   318.7737   30.66376   41.2263   
358.9068   351.2554   0          6.655746   6.836942   5.544126   6.54723    6.684752   7.042577   0.2448824  7.042577   6.099936   67.33105   302.7989   48.47118   57.20111  
359.0592   353.3229   0          6.661246   6.842538   5.500221   6.532804   6.705582   7.080602   0.1814937  7.080602   6.080734   67.92809   307.2562   46.06345   52.7438   
359.2116   354.7493   0          6.646807   6.869636   5.473561   6.524061   6.699621   7.105812   0.1935033  7.105812   6.060184   68.00286   295.0997   59.6577    64.90027  
