~Version
 VERS              .         2.0                           : CWLS LOG ASCII STANDARD - VERSION 2.0
 WRAP              .         NO                            : ONE LINE PER DEPTH STEP
 DLM               .         SPACE                         : DELIMITING CHARACTER(SPACE TAB OR COMMA)
~Well Information
#_______________________________________________________________________________
#
#PARAMETER_NAME    .UNIT     VALUE                         : DESCRIPTION
#_______________________________________________________________________________
STRT               .m        114                           : First reference value
STOP               .m        447.756                       : Last reference value
STEP               .m        0.1524                        : Step increment
NULL               .         -9999                         : Missing value
COMP               .                                       : Company
WELL               .         A                             : Well name
FLD                .                                       : Field
LOC                .                                       : Location
CNTY               .                                       : County
STAT               .                                       : State
CTRY               .                                       : Country
SRVC               .                                       : Service Company
DATE               .                                       : Date
API                .                                       : API number
~Parameter Information Block
#_______________________________________________________________________________
#
#PARAMETER_NAME    .UNIT     VALUE                         : DESCRIPTION
#_______________________________________________________________________________
SET                .         Inclination                   : 
TLFamily_AZI       .         Hole Azimuth                  : 
TLFamily_AZ_OF_P1  .                                       : 
TLFamily_CAL2      .         Caliper 2                     : 
TLFamily_CAL4      .         Caliper                       : 
TLFamily_CAL6      .         Caliper                       : 
TLFamily_CAL8      .         Caliper                       : 
TLFamily_CALX      .         Caliper 1                     : 
TLFamily_CALY      .         Caliper 2                     : 
TLFamily_DEV       .         Hole Deviation                : 
TLFamily_DMAX      .         Caliper                       : 
TLFamily_DMIN      .         Caliper                       : 
TLFamily_GR        .         Gamma Ray                     : 
TLFamily_HAZI      .         Hole Azimuth                  : 
TLFamily_MD        .         Measured Depth                : 
TLFamily_RB_OF_P1  .         Relative Bearing              : 
TLFamily_ROT       .         Relative Bearing              : 
~Curve Information
#_______________________________________________________________________________
#
#LOGNAME           .UNIT     LOG_ID                        : DESCRIPTION
#_______________________________________________________________________________
MD                 .m                                      :  
AZ_OF_P1           .deg                                    : Unrecognised 
AZI                .deg                                    : AZIMUTH OF FIRST PIXEL OF IMAGE ARRAY 
CAL2               .in                                     : Unrecognised 
CAL4               .in                                     : Unrecognised 
CAL6               .in                                     : Unrecognised 
CAL8               .in                                     : Unrecognised 
CALX               .in                                     : Unrecognised 
CALY               .in                                     : Unrecognised 
DEV                .deg                                    : Unrecognised 
DMAX               .in                                     : Unrecognised 
DMIN               .in                                     : Unrecognised 
GR                 .gAPI                                   : Gamma Ray 
HAZI               .deg                                    : HOLE AZIMUTH 
RB_OF_P1           .deg                                    : Unrecognised 
ROT                .deg                                    : RELATIVE BEARING OF FIRST PIXEL OF IMAGE ARRAY 
~Ascii
# ...
177.0936   28.66554   0          7.323971   7.779299   7.694396   7.953887   7.718265   7.926088   0.3238771  7.9283     7.509183   108.3154   253.4412   135.2244   106.5588  
177.246    28.48367   0          7.487232   7.940725   7.738943   7.944028   7.948516   7.89215    0.3262409  7.959851   7.613087   109.5861   255.243    133.2408   104.757   
177.3984   28.30225   0          7.6927     8.099502   7.603431   7.890373   7.915574   7.893128   0.3217072  7.994937   7.648066   110.2519   253.6883   134.614    106.3117  
177.5508   28.35468   0          7.58306    8.005804   7.529652   7.826313   7.94488    7.920888   0.2862477  7.950559   7.556356   111.446    252.259    136.0952   107.741   
177.7032   29.39247   0          7.906151   8.011732   7.649496   7.977696   7.928028   7.95796    0.2911409  7.99488    7.777823   112.9003   261.4071   127.9872   98.59285  
177.8556   29.27569   0          7.898401   8.056102   7.715586   7.858314   7.990619   7.994791   0.2628219  7.996758   7.806993   113.3757   258.6288   130.6469   101.3712  
178.008    29.69273   0          8.026961   8.026044   7.823895   7.709869   7.997653   7.991771   0.260351   7.997653   7.857536   112.1853   259.0785   130.6142   100.9215  
178.1604   30.00297   0          7.788055   7.988871   7.978461   7.934924   8.026047   7.981853   0.2647493  8.026047   7.883258   110.847    259.1041   130.8988   100.8959  
178.3128   30.61543   0          7.863334   7.84595    7.973949   7.960077   8.068261   7.955847   0.2887435  8.068261   7.901988   110.0635   255.4423   135.1732   104.5577  
178.4652   30.91931   0          8.058994   7.859241   7.822891   7.896176   8.104226   7.852164   0.313697   8.104226   7.847059   108.2949   253.2266   137.6927   106.7734  
178.6176   30.97614   0          8.037507   7.625091   7.772371   7.851672   8.09469    7.844879   0.3388876  8.09469    7.738381   104.6995   258.9037   132.0725   101.0964  
178.77     30.59635   0          8.073358   7.499284   7.769097   7.95178    8.07542    7.817729   0.3626342  8.07542    7.725532   97.85538   252.9883   137.6077   107.0117  
178.9224   30.78395   0          7.444833   7.760971   7.820159   7.977437   8.033093   7.899341   0.3630601  8.033093   7.632496   87.69847   252.452    138.3321   107.548   
179.0748   31.43542   0          7.314006   7.68221    7.814116   8.080755   8.089952   8.008805   0.3441792  8.089952   7.564061   77.28698   254.808    136.6281   105.192   
179.2272   30.76175   0          7.062957   7.611913   7.907826   8.012999   8.09216    8.022333   0.3788723  8.09216    7.485392   69.01409   259.4048   131.3567   100.5953  
179.3796   30.47244   0          7.113317   7.575746   7.794633   8.108298   7.442023   7.983158   0.3843444  7.988087   7.333501   65.82079   258.2741   132.1983   101.7259  
179.532    31.1501    0          7.274727   7.509936   7.738031   8.082333   7.19553    7.96665    0.4161652  7.96665    7.19553    68.67158   257.6852   133.4649   102.3147  
179.6844   31.80344   0          7.428202   7.577313   7.629393   7.995677   7.116821   7.875978   0.4303885  7.875978   7.116821   75.21217   254.5313   137.2722   105.4687  
179.8368   32.48605   0          7.631035   7.607287   7.568609   8.000232   7.172711   7.835135   0.4261367  7.835135   7.172711   82.17342   255.9245   136.5616   104.0755  
179.9892   32.04187   0          7.787083   7.614637   7.496829   7.984877   7.308306   7.843524   0.4265973  7.843524   7.308306   86.71423   253.5571   138.4847   106.4429  
180.1416   31.28307   0          7.706187   7.699148   7.479311   7.722085   7.461925   7.861704   0.4101463  7.861704   7.461925   88.01183   253.2947   137.9884   106.7053  
180.294    31.98988   0          7.82677    7.633135   7.46802    7.778348   7.60533    7.978626   0.3918167  7.978626   7.60533    90.38563   247.9929   143.9973   112.0071  
180.4464   31.99243   0          7.868862   7.661191   7.306534   7.891421   7.79057    7.989663   0.3564513  7.989663   7.587698   93.95608   246.8096   145.1828   113.1904  
180.5988   31.58413   0          7.72498    7.61024    7.843005   7.852891   7.776978   7.965154   0.3007367  7.965154   7.728464   94.85881   250.4379   141.1462   109.5621  
180.7512   30.83367   0          7.666606   7.60094    7.774148   7.659498   7.755725   7.920306   0.3086586  7.920306   7.630219   93.04099   253.7367   137.0969   106.2633  
180.9036   31.61394   0          7.498211   7.611454   7.804552   7.550268   7.822895   7.935939   0.3003871  7.935939   7.579322   89.991     258.7441   132.8708   101.2559  
181.056    31.70501   0          7.533106   7.787363   7.882237   7.6131     7.761855   7.897391   0.2855846  7.897391   7.681421   89.50912   253.4704   138.2346   106.5296  
181.2084   32.13449   0          7.462293   7.436143   7.94401    7.809044   7.806035   7.949286   0.3097231  7.950575   7.622594   89.79202   251.5652   140.5691   108.4348  
181.3608   32.44197   0          7.632407   7.775489   7.937084   7.85669    7.935284   7.872544   0.3161804  7.935284   7.775352   88.55251   253.9586   138.483    106.0413  
181.5132   33.08558   0          7.49861    7.605617   7.88697    7.799846   7.816374   7.812599   0.3245416  7.816374   7.692293   87.73415   246.559    146.5271   113.441   
181.6656   32.79812   0          7.092559   7.507738   7.926081   7.572896   7.714242   7.734604   0.3324671  7.741679   7.50932    87.54633   241.4859   151.3122   118.5141  
181.818    32.1098    0          6.984995   7.500472   7.863745   7.453603   7.678325   7.534771   0.3470089  7.678325   7.42437    86.93688   244.0309   148.0788   115.9691  
181.9704   32.08681   0          6.999157   7.654212   7.81868    7.187302   7.710724   7.524888   0.3804329  7.710724   7.408918   86.75106   243.1554   148.9313   116.8446  
182.1228   32.31084   0          7.393105   7.699602   7.745216   7.236339   7.663804   7.539379   0.4060104  7.670307   7.46797    87.24649   240.997    151.3138   119.003   
182.2752   32.64091   0          7.578134   7.421513   7.690176   7.501098   7.608965   7.505946   0.4059662  7.634155   7.461305   87.72717   242.8687   149.7722   117.1313  
182.4276   32.64519   0          7.519957   7.336962   7.683972   7.306828   7.590075   7.465142   0.3875408  7.674774   7.321895   88.71008   242.5542   150.091    117.4458  
182.58     31.50768   0          7.381552   7.034524   7.236555   7.444769   7.61023    7.501884   0.4594899  7.61023    7.239646   88.78732   244.7534   146.7542   115.2466  
182.7324   31.15102   0          7.492573   7.052276   7.405394   7.331204   7.532132   7.516346   0.4351379  7.540373   7.19174    87.60021   249.7485   141.4023   110.2515  
182.8848   32.22454   0          7.406029   7.084829   7.651051   7.112941   7.41834    7.549137   0.4768133  7.550644   7.098885   86.90459   253.9987   138.2257   106.0013  
183.0372   34.4573    0          7.54726    6.970905   7.721743   7.109375   7.461601   7.616065   0.4846438  7.638657   7.04014    87.49968   256.3482   138.1093   103.6518  
183.1896   34.26886   0          7.622387   6.825329   7.793317   7.199438   7.598541   7.618023   0.4592739  7.707852   7.012383   90.85439   254.8114   139.4578   105.1886  
183.342    33.50312   0          7.744727   7.455271   7.596933   7.213336   7.593701   7.675367   0.4135528  7.706082   7.334303   93.95567   256.1594   137.3438   103.8406  
183.4944   33.32756   0          7.765891   7.771573   7.7177     7.186522   7.551612   7.675489   0.4012451  7.746496   7.479048   95.21478   263.5061   129.8213   96.49391  
183.6468   32.86569   0          7.756993   7.995889   7.415492   7.598686   7.716977   7.491808   0.3719768  7.797288   7.491808   95.03376   264.7088   128.1568   95.29115  
183.7992   33.31072   0          7.80234    7.76707    7.396111   7.425897   7.702655   7.529379   0.2993841  7.702885   7.529379   93.17864   261.5815   131.729    98.41846  
183.9516   33.63099   0          7.768307   7.743135   7.628159   7.250593   7.755026   7.584164   0.2778347  7.755026   7.496864   92.02148   265.0963   128.5347   94.90367  
