~Version
 VERS              .         2.0                           : CWLS LOG ASCII STANDARD - VERSION 2.0
 WRAP              .         NO                            : ONE LINE PER DEPTH STEP
 DLM               .         SPACE                         : DELIMITING CHARACTER(SPACE TAB OR COMMA)
~Well Information
#_______________________________________________________________________________
#
#PARAMETER_NAME    .UNIT     VALUE                         : DESCRIPTION
#_______________________________________________________________________________
STRT               .m        114                           : First reference value
STOP               .m        447.756                       : Last reference value
STEP               .m        0.1524                        : Step increment
NULL               .         -9999                         : Missing value
COMP               .                                       : Company
WELL               .         A                             : Well name
FLD                .                                       : Field
LOC                .                                       : Location
CNTY               .                                       : County
STAT               .                                       : State
CTRY               .                                       : Country
SRVC               .                                       : Service Company
DATE               .                                       : Date
API                .                                       : API number
~Parameter Information Block
#_______________________________________________________________________________
#
#PARAMETER_NAME    .UNIT     VALUE                         : DESCRIPTION
#_______________________________________________________________________________
SET                .         Inclination                   : 
TLFamily_AZI       .         Hole Azimuth                  : 
TLFamily_AZ_OF_P1  .                                       : 
TLFamily_CAL2      .         Caliper 2                     : 
TLFamily_CAL4      .         Caliper                       : 
TLFamily_CAL6      .         Caliper                       : 
TLFamily_CAL8      .         Caliper                       : 
TLFamily_CALX      .         Caliper 1                     : 
TLFamily_CALY      .         Caliper 2                     : 
TLFamily_DEV       .         Hole Deviation                : 
TLFamily_DMAX      .         Caliper                       : 
TLFamily_DMIN      .         Caliper                       : 
TLFamily_GR        .         Gamma Ray                     : 
TLFamily_HAZI      .         Hole Azimuth                  : 
TLFamily_MD        .         Measured Depth                : 
TLFamily_RB_OF_P1  .         Relative Bearing              : 
TLFamily_ROT       .         Relative Bearing              : 
~Curve Information
#_______________________________________________________________________________
#
#LOGNAME           .UNIT     LOG_ID                        : DESCRIPTION
#_______________________________________________________________________________
MD                 .m                                      :  
AZ_OF_P1           .deg                                    : Unrecognised 
AZI                .deg                                    : AZIMUTH OF FIRST PIXEL OF IMAGE ARRAY 
CAL2               .in                                     : Unrecognised 
CAL4               .in                                     : Unrecognised 
CAL6               .in                                     : Unrecognised 
CAL8               .in                                     : Unrecognised 
CALX               .in                                     : Unrecognised 
CALY               .in                                     : Unrecognised 
DEV                .deg                                    : Unrecognised 
DMAX               .in                                     : Unrecognised 
DMIN               .in                                     : Unrecognised 
GR                 .gAPI                                   : Gamma Ray 
HAZI               .deg                                    : HOLE AZIMUTH 
RB_OF_P1           .deg                                    : Unrecognised 
ROT                .deg                                    : RELATIVE BEARING OF FIRST PIXEL OF IMAGE ARRAY 
~Ascii
# ...
156.0624   356.2924   0          7.577664   7.662941   7.225101   7.558995   7.163434   7.576208   0.4220539  7.658129   7.163434   92.61846   279.1404   77.15215   80.85962  
156.2148   357.0403   0          7.413005   7.589709   7.018092   7.607525   7.63571    7.629808   0.4539475  7.643415   7.215549   92.48829   280.1895   76.85086   79.81052  
156.3672   357.8432   0          7.641343   7.28131    7.42875    7.576865   7.593384   7.637832   0.4656485  7.71886    7.305703   92.18694   281.0088   76.8338    78.99119  
156.5196   0.6018561  0          7.269329   7.250741   7.795562   7.449996   7.45148    7.59409    0.4895975  7.59409    7.350368   91.26754   278.3611   82.24236   81.63896  
156.672    0.5663462  0          7.273431   7.151721   7.815868   7.703405   7.744087   7.830658   0.4695522  7.830658   7.427563   89.3325    276.3641   84.2021    83.63593  
156.8244   1.185927   0          7.33114    7.501976   7.838802   7.660648   7.724255   7.79781    0.4833631  7.79781    7.543747   89.15594   279.024    82.162     80.97597  
156.9768   1.84756    0          7.192163   6.803744   7.343237   7.301499   7.217724   7.475236   0.5064705  7.475236   7.016904   90.81853   280.24     81.60755   79.76003  
157.1292   2.796031   0          7.370059   6.903867   7.508609   7.545866   7.623389   7.697498   0.4829715  7.697498   7.188004   92.48819   280.4554   82.34027   79.54462  
157.2816   2.723576   0          7.818297   7.627694   7.866105   7.834537   7.739347   7.869039   0.4947408  7.891349   7.707887   93.4875    276.3573   86.36637   83.64272  
157.434    2.057056   0          7.916859   7.292915   7.795413   7.921546   7.747217   7.854456   0.4668538  7.875446   7.60723    93.59717   275.7787   86.27831   84.22126  
157.5864   1.785909   0          7.78552    6.517563   7.743336   7.870183   7.498592   7.666226   0.4498477  7.764428   7.193873   93.19383   284.6671   77.11847   75.33286  
157.7388   2.913533   0          7.560894   6.880356   7.607335   7.576511   7.680811   7.709033   0.4807458  7.729683   7.228434   92.90175   290.2491   72.66463   69.75092  
157.8912   7.866591   0          7.493426   7.37398    7.149623   7.684499   7.343598   7.707239   0.4909995  7.707239   7.296319   92.47858   287.7649   80.10315   72.23511  
158.0436   10.36489   0          7.302386   6.971416   6.76661    7.38793    7.094256   7.497956   0.4953874  7.497956   7.034498   94.14218   283.6208   86.74444   76.37924  
158.196    13.01047   0          6.748021   6.903633   6.524447   6.63016    7.172017   7.404102   0.5030242  7.404102   6.636234   97.28869   285.1114   87.89246   74.8886   
158.3484   15.32274   0          6.78581    6.933621   6.987586   6.736325   7.570527   7.489583   0.5076474  7.570527   6.77555    99.22834   278.287    97.03637   81.71297  
158.5008   15.26077   0          6.908569   6.709392   7.612978   7.131551   7.868262   7.604073   0.5262978  7.868262   6.920472   99.03576   274.9025   100.3584   85.09749  
158.6532   12.37835   0          7.24078    6.813587   7.738312   7.229284   7.87148    7.659145   0.4988507  7.87148    7.021435   98.27763   270.3203   102.0581   89.67968  
158.8056   11.03912   0          7.320805   6.774767   7.624131   7.355748   7.566882   7.682487   0.5096992  7.682487   7.065258   99.86665   272.9535   98.08602   87.04653  
158.958    10.29714   0          7.171286   6.931759   7.514443   7.275047   7.642125   7.637535   0.5088315  7.679397   7.103403   101.5417   271.4309   98.86626   88.56905  
159.1104   10.71456   0          7.948527   6.921368   7.42556    7.699602   7.73419    7.704038   0.5052916  7.735356   7.310485   101.4472   273.5196   97.19519   86.48038  
159.2628   12.20035   0          7.773545   6.985147   7.788192   7.507971   7.755847   7.684906   0.5006434  7.802052   7.24656    98.85181   275.1283   97.07159   84.87167  
159.4152   11.26967   0          7.682725   7.617162   7.691331   7.481768   7.719437   7.446293   0.4984623  7.721395   7.446293   96.26073   273.8826   97.38665   86.11736  
159.5676   10.05071   0          7.258333   7.677576   7.498863   7.647141   7.704864   7.328811   0.483492   7.704864   7.328811   95.51521   271.9341   98.11638   88.0659   
159.72     9.552745   0          7.884717   7.894163   7.755986   7.534278   7.804249   7.566525   0.5143302  7.821438   7.559268   95.78552   272.1846   97.36815   87.81542  
159.8724   8.726351   0          8.141855   8.088029   7.703452   7.573418   7.850061   7.886222   0.4709649  7.922654   7.830723   94.54787   270.5616   98.16444   89.43842  
160.0248   7.219192   0          7.846779   7.85161    7.800528   7.807061   7.810849   7.870665   0.4210252  7.870665   7.807899   91.31599   269.7735   97.44563   90.22648  
160.1772   6.211013   0          7.83584    7.786516   7.788283   7.804192   7.670608   7.863564   0.412614   7.863564   7.670608   88.63726   271.7827   94.42875   88.21729  
160.3296   5.216499   0          7.416816   7.762513   7.884728   7.758116   7.647854   7.860325   0.4234515  7.860325   7.526179   86.99171   268.5724   96.64381   91.42763  
160.482    4.820422   0          6.645267   7.8842     7.879518   7.730839   7.715233   7.878499   0.4524195  7.878499   7.262392   85.90037   271.6652   93.15517   88.33478  
160.6344   5.837853   0          7.865066   7.829136   7.711858   7.707411   7.809291   7.841644   0.4588833  7.850803   7.722625   85.2419    268.3023   97.53555   91.69768  
160.7868   6.240475   0          7.533419   7.757692   7.564454   7.769442   7.782929   7.813577   0.4438645  7.813577   7.548936   86.2484    264.0854   102.155    95.91457  
160.9392   7.035934   0          7.566885   7.665635   7.599501   7.761149   7.753257   7.814887   0.425411   7.814887   7.583193   88.62273   264.6926   102.3431   95.30738  
161.0916   8.498422   0          8.015173   7.972013   7.734063   7.704792   7.774633   7.93117    0.4287846  7.93117    7.772223   90.49242   264.6104   103.8881   95.38958  
161.244    9.028711   0          8.007215   7.949049   7.634213   7.781524   7.94483    7.929621   0.4272135  7.945741   7.820714   90.08768   263.8069   105.2218   96.19314  
161.3964   9.812545   0          8.040373   8.000346   7.853562   7.864027   7.936335   7.956511   0.4290354  7.956511   7.928783   88.89958   265.2246   104.588    94.77543  
161.5488   10.54025   0          8.013742   7.974217   7.841324   7.89349    7.900634   7.890846   0.4242916  7.935319   7.890846   89.52255   264.0847   106.4555   95.91524  
161.7012   10.8378    0          8.109191   8.040781   7.780759   7.860184   7.856928   7.978288   0.3999704  7.978288   7.856928   91.60301   260.2056   110.6321   99.79437  
161.8536   11.01358   0          8.057804   7.987583   7.785264   7.850308   7.901918   8.027958   0.4450606  8.027958   7.887101   92.58142   258.4809   112.5327   101.5191  
162.006    11.31608   0          8.090776   7.926151   7.889319   7.949574   7.974293   8.094843   0.4344932  8.094843   7.931472   91.68865   254.9009   116.4153   105.0991  
162.1584   11.81591   0          8.120021   8.125976   8.009758   8.107267   8.000822   8.178855   0.4267961  8.178855   7.998354   89.75945   248.3382   123.4779   111.6618  
162.3108   12.89612   0          8.124635   8.104973   7.945462   8.191858   8.066545   8.233953   0.4257458  8.233953   8.035048   88.80121   249.3226   123.5737   110.6774  
162.4632   13.64217   0          8.097192   8.090755   7.885413   8.105628   8.043466   8.334383   0.4394407  8.334383   7.991302   89.44324   252.7842   120.858    107.2158  
162.6156   13.60719   0          8.155482   8.001266   7.944226   8.08662    8.058039   8.029656   0.4401666  8.058039   8.024734   90.70308   253.8265   119.7807   106.1735  
162.768    13.67895   0          8.180781   8.143489   7.913443   8.071115   8.099713   7.935829   0.4430352  8.110336   7.935829   92.2156    257.9376   115.7402   102.0624  
162.9204   14.20528   0          8.143108   8.219282   7.770822   8.106473   8.137808   8.061859   0.4221362  8.162877   7.956965   92.38939   267.5294   106.6767   92.4706   
