~Version
 VERS              .         2.0                           : CWLS LOG ASCII STANDARD - VERSION 2.0
 WRAP              .         NO                            : ONE LINE PER DEPTH STEP
 DLM               .         SPACE                         : DELIMITING CHARACTER(SPACE TAB OR COMMA)
~Well Information
#_______________________________________________________________________________
#
#PARAMETER_NAME    .UNIT     VALUE                         : DESCRIPTION
#_______________________________________________________________________________
STRT               .m        114                           : First reference value
STOP               .m        447.756                       : Last reference value
STEP               .m        0.1524                        : Step increment
NULL               .         -9999                         : Missing value
COMP               .                                       : Company
WELL               .         A                             : Well name
FLD                .                                       : Field
LOC                .                                       : Location
CNTY               .                                       : County
STAT               .                                       : State
CTRY               .                                       : Country
SRVC               .                                       : Service Company
DATE               .                                       : Date
API                .                                       : API number
~Parameter Information Block
#_______________________________________________________________________________
#
#PARAMETER_NAME    .UNIT     VALUE                         : DESCRIPTION
#_______________________________________________________________________________
SET                .         Inclination                   : 
TLFamily_AZI       .         Hole Azimuth                  : 
TLFamily_AZ_OF_P1  .                                       : 
TLFamily_CAL2      .         Caliper 2                     : 
TLFamily_CAL4      .         Caliper                       : 
TLFamily_CAL6      .         Caliper                       : 
TLFamily_CAL8      .         Caliper                       : 
TLFamily_CALX      .         Caliper 1                     : 
TLFamily_CALY      .         Caliper 2                     : 
TLFamily_DEV       .         Hole Deviation                : 
TLFamily_DMAX      .         Caliper                       : 
TLFamily_DMIN      .         Caliper                       : 
TLFamily_GR        .         Gamma Ray                     : 
TLFamily_HAZI      .         Hole Azimuth                  : 
TLFamily_MD        .         Measured Depth                : 
TLFamily_RB_OF_P1  .         Relative Bearing              : 
TLFamily_ROT       .         Relative Bearing              : 
~Curve Information
#_______________________________________________________________________________
#
#LOGNAME           .UNIT     LOG_ID                        : DESCRIPTION
#_______________________________________________________________________________
MD                 .m                                      :  
AZ_OF_P1           .deg                                    : Unrecognised 
AZI                .deg                                    : AZIMUTH OF FIRST PIXEL OF IMAGE ARRAY 
CAL2               .in                                     : Unrecognised 
CAL4               .in                                     : Unrecognised 
CAL6               .in                                     : Unrecognised 
CAL8               .in                                     : Unrecognised 
CALX               .in                                     : Unrecognised 
CALY               .in                                     : Unrecognised 
DEV                .deg                                    : Unrecognised 
DMAX               .in                                     : Unrecognised 
DMIN               .in                                     : Unrecognised 
GR                 .gAPI                                   : Gamma Ray 
HAZI               .deg                                    : HOLE AZIMUTH 
RB_OF_P1           .deg                                    : Unrecognised 
ROT                .deg                                    : RELATIVE BEARING OF FIRST PIXEL OF IMAGE ARRAY 
~Ascii
# ...
310.2912   154.2205   0          6.560866   6.933593   5.811536   6.288805   6.423049   6.363992   0.4186718  6.611199   6.186201   50.88496   305.353    208.8692   54.64703  
310.4436   155.8276   0          6.615115   6.907866   5.75726    6.603666   6.475631   6.450172   0.4036031  6.755766   6.186187   52.106     303.7213   212.1061   56.27874  
310.596    157.3374   0          6.621332   6.992966   5.714968   6.929341   6.494122   6.492212   0.3991207  6.961154   6.16815    53.27418   300.733    216.6041   59.26704  
310.7484   157.8619   0          6.618696   6.957697   5.941145   7.220579   6.526252   6.560319   0.3533808  7.089138   6.279921   54.24141   297.3775   220.4844   62.62247  
310.9008   158.1493   0          6.784911   7.101676   6.192973   7.315433   6.582144   6.716471   0.3253556  7.208554   6.488731   53.66417   298.5671   219.5821   61.43286  
311.0532   160.2254   0          6.940949   7.369028   6.63261    7.382085   6.696777   6.98984    0.3249129  7.375556   6.696777   53.8605    300.9955   219.23     59.00449  
311.2056   161.7618   0          7.079473   7.726104   7.119628   7.363151   6.930713   7.069747   0.3215092  7.544628   6.930713   54.70766   308.4435   213.3219   51.55656  
311.358    160.4023   0          7.232115   7.763377   7.085326   7.272195   6.963665   7.103935   0.3570332  7.517786   6.963665   54.93253   313.232    207.17     46.76803  
311.5104   161.2908   0          7.259705   7.426034   7.016512   6.991021   6.89045    7.309007   0.4207473  7.309007   6.882226   53.07955   306.9477   214.3421   53.05228  
311.6628   163.4328   0          6.713618   6.916304   6.380752   7.091077   6.796877   7.174162   0.4258952  7.174162   6.547185   50.6285    299.2579   224.1743   60.74212  
311.8152   165.845    0          6.599167   6.804001   6.154341   7.1161     6.421642   6.596263   0.3645076  6.960051   6.370534   50.02394   293.7502   232.0959   66.24974  
311.9676   169.1088   0          6.685361   6.772228   6.18717    6.542378   6.357323   6.582925   0.2915705  6.657304   6.357323   50.10804   293.1168   235.9898   66.88322  
312.12     170.941    0          6.650474   6.840388   5.697266   6.433557   6.318415   6.565642   0.2530958  6.636972   6.17387    51.073     299.5622   231.3803   60.43782  
312.2724   172.8595   0          6.691084   6.936452   5.5923     6.502312   6.315951   6.580318   0.251879   6.719382   6.141693   51.34454   296.5251   236.3344   63.47489  
312.4248   173.8291   0          6.757268   7.01062    5.512266   6.581539   6.32038    6.598243   0.2999671  6.79608    6.134767   51.58485   295.2994   238.5297   64.7006   
312.5772   174.2751   0          6.812833   7.119423   5.592066   6.584175   6.304711   6.638443   0.3183213  6.851799   6.20245    52.57943   298.2816   235.9937   61.71845  
312.7296   174.4502   0          6.859288   7.214396   5.530656   6.983505   6.341513   6.707087   0.3209941  7.098951   6.194972   52.43643   299.362    235.0883   60.63803  
312.882    174.4508   0          6.964694   7.370098   5.519411   6.52517    6.501603   6.719787   0.3699284  6.947634   6.242052   51.09483   304.3743   230.0789   55.6257   
313.0344   173.5912   0          6.950361   7.468577   5.49294    6.392634   6.833091   6.729843   0.4360386  6.930605   6.221651   50.82644   318.3346   215.2531   41.66545  
313.1868   171.9619   0          6.902316   7.212452   6.019666   6.629488   6.878008   6.621913   0.4686809  6.920969   6.460991   53.02974   317.4403   214.5228   42.55969  
313.3392   170.2404   0          6.920933   7.062811   6.172601   6.685728   6.708432   6.564515   0.4852461  6.874269   6.452684   57.27171   313.5824   216.6578   46.41759  
313.4916   169.3545   0          6.816973   6.934153   5.517028   6.688681   6.394379   6.515811   0.4548998  6.811417   6.167001   60.39803   304.3564   224.9969   55.64355  
313.644    168.8376   0          6.772985   6.51438    5.747415   6.614806   6.29935    6.550715   0.4080443  6.580115   6.256208   60.75076   294.4091   234.4288   65.59084  
313.7964   168.6855   0          6.68447    6.409448   5.84153    6.449105   6.207771   6.5524     0.3939664  6.5524     6.207771   59.85289   286.6563   242.0291   73.34368  
313.9488   169.0533   0          6.664686   6.403027   5.724074   6.519715   6.237493   6.604327   0.3945238  6.604327   6.18541    58.21418   284.9432   244.1101   75.05676  
314.1012   169.2227   0          6.616717   6.412547   5.524781   6.653035   6.270927   6.709614   0.3647156  6.709614   6.070749   56.6172    292.3053   236.9176   67.69472  
314.2536   169.096    0          6.619144   6.353325   5.414594   6.56332    6.266111   6.739918   0.341027   6.739918   6.016869   55.60869   297.6274   231.4687   62.37263  
314.406    167.6725   0          6.642744   6.285191   5.77154    6.553503   6.290618   6.758084   0.3585722  6.758084   6.207142   54.26268   297.1491   230.5234   62.85087  
314.5584   165.4888   0          6.659107   6.22808    5.729497   6.632001   6.35715    6.663059   0.3669769  6.663059   6.194302   53.61694   297.1884   228.3004   62.81163  
314.7108   165.0342   0          6.660757   6.158557   5.844497   6.720507   6.411629   6.616198   0.3921617  6.616198   6.252627   53.69688   295.3797   229.6543   64.62026  
314.8632   165.5143   0          6.652987   6.104675   5.708714   6.65323    6.545099   6.530779   0.3958028  6.587445   6.180851   52.14652   291.6263   233.8886   68.37373  
315.0156   164.723    0          6.610646   6.040854   5.669378   6.52171    6.882855   6.571659   0.4155096  6.882855   6.121721   49.72523   283.7068   241.015    76.2932   
315.168    164.7079   0          6.665416   6.043231   5.848654   6.083734   7.07129    6.634413   0.4325516  7.07129    6.063483   47.08067   278.1707   246.5372   81.82929  
315.3204   164.8566   0          6.688385   6.019976   6.088595   6.071258   7.102136   6.581806   0.4414837  7.102136   6.045617   46.76736   274.5161   250.3405   85.48389  
315.4728   164.2171   0          6.686402   6.02853    6.23889    6.154263   7.095887   6.452726   0.4427235  7.095887   6.091396   49.2516    274.7013   249.5159   85.29874  
315.6252   163.6311   0          6.721809   6.038039   6.418359   6.653441   7.212546   6.369576   0.4444094  7.212546   6.319342   51.50596   277.91     245.7208   82.08997  
315.7776   165.7758   0          6.876798   6.036984   6.595546   6.91131    7.187668   6.371664   0.4113613  7.187668   6.371664   52.80707   279.6539   246.1206   80.34612  
315.93     166.9422   0          6.912304   6.04165    6.643326   7.045933   7.210712   6.453416   0.3861602  7.210712   6.453416   53.201     288.0112   238.932    71.98882  
316.0824   168.35     0          6.939438   6.131849   6.639199   7.201958   7.272438   6.489435   0.3990076  7.272438   6.489435   54.30791   294.7894   233.5611   65.21063  
316.2348   170.1387   0          7.009687   6.946606   6.707797   7.53075    7.328395   6.570991   0.4411878  7.349757   6.570991   55.78484   294.9876   235.1513   65.01236  
316.3872   173.2215   0          7.017159   7.377906   7.149429   7.537209   7.45078    6.727549   0.4821159  7.458637   6.727549   56.03674   294.8365   238.3853   65.16344  
316.5396   176.4275   0          6.996256   7.615185   7.304078   7.309258   7.458886   6.729019   0.4978033  7.467762   6.729019   55.46327   296.5396   239.8879   63.46039  
316.692    178.4396   0          7.042237   7.434865   7.319579   7.282677   7.418095   6.688486   0.5397369  7.418095   6.688486   55.29941   300.6918   237.7479   59.30818  
316.8444   179.1028   0          7.066674   7.306452   7.386591   7.366933   7.508448   6.760783   0.5816413  7.508448   6.760783   56.15015   299.7335   239.3694   60.26653  
316.9968   178.7674   0          7.039877   7.285959   5.889481   7.446732   7.569958   7.369744   0.5739849  7.569958   6.449886   56.92666   298.0595   240.7081   61.94054  
317.1492   177.7578   0          6.964985   7.252496   5.731648   7.598558   7.53061    7.533469   0.5890594  7.577363   6.348316   56.60046   297.1184   240.6394   62.88158  
