~Version
 VERS              .         2.0                           : CWLS LOG ASCII STANDARD - VERSION 2.0
 WRAP              .         NO                            : ONE LINE PER DEPTH STEP
 DLM               .         SPACE                         : DELIMITING CHARACTER(SPACE TAB OR COMMA)
~Well Information
#_______________________________________________________________________________
#
#PARAMETER_NAME    .UNIT     VALUE                         : DESCRIPTION
#_______________________________________________________________________________
STRT               .m        114                           : First reference value
STOP               .m        447.756                       : Last reference value
STEP               .m        0.1524                        : Step increment
NULL               .         -9999                         : Missing value
COMP               .                                       : Company
WELL               .         A                             : Well name
FLD                .                                       : Field
LOC                .                                       : Location
CNTY               .                                       : County
STAT               .                                       : State
CTRY               .                                       : Country
SRVC               .                                       : Service Company
DATE               .                                       : Date
API                .                                       : API number
~Parameter Information Block
#_______________________________________________________________________________
#
#PARAMETER_NAME    .UNIT     VALUE                         : DESCRIPTION
#_______________________________________________________________________________
SET                .         Inclination                   : 
TLFamily_AZI       .         Hole Azimuth                  : 
TLFamily_AZ_OF_P1  .                                       : 
TLFamily_CAL2      .         Caliper 2                     : 
TLFamily_CAL4      .         Caliper                       : 
TLFamily_CAL6      .         Caliper                       : 
TLFamily_CAL8      .         Caliper                       : 
TLFamily_CALX      .         Caliper 1                     : 
TLFamily_CALY      .         Caliper 2                     : 
TLFamily_DEV       .         Hole Deviation                : 
TLFamily_DMAX      .         Caliper                       : 
TLFamily_DMIN      .         Caliper                       : 
TLFamily_GR        .         Gamma Ray                     : 
TLFamily_HAZI      .         Hole Azimuth                  : 
TLFamily_MD        .         Measured Depth                : 
TLFamily_RB_OF_P1  .         Relative Bearing              : 
TLFamily_ROT       .         Relative Bearing              : 
~Curve Information
#_______________________________________________________________________________
#
#LOGNAME           .UNIT     LOG_ID                        : DESCRIPTION
#_______________________________________________________________________________
MD                 .m                                      :  
AZ_OF_P1           .deg                                    : Unrecognised 
AZI                .deg                                    : AZIMUTH OF FIRST PIXEL OF IMAGE ARRAY 
CAL2               .in                                     : Unrecognised 
CAL4               .in                                     : Unrecognised 
CAL6               .in                                     : Unrecognised 
CAL8               .in                                     : Unrecognised 
CALX               .in                                     : Unrecognised 
CALY               .in                                     : Unrecognised 
DEV                .deg                                    : Unrecognised 
DMAX               .in                                     : Unrecognised 
DMIN               .in                                     : Unrecognised 
GR                 .gAPI                                   : Gamma Ray 
HAZI               .deg                                    : HOLE AZIMUTH 
RB_OF_P1           .deg                                    : Unrecognised 
ROT                .deg                                    : RELATIVE BEARING OF FIRST PIXEL OF IMAGE ARRAY 
~Ascii
# ...
247.1976   29.29899   0          7.905885   7.80908    7.960993   7.571812   7.731387   7.818067   0.1522724  7.936522   7.690164   71.09106   250.5244   138.7619   109.4756  
247.35     30.75972   0          7.924085   7.714267   7.803803   7.611681   7.727494   7.808091   0.1379186  7.863945   7.662973   68.72973   234.0038   156.757    125.9961  
247.5024   32.59052   0          7.892922   7.670426   7.964199   7.750745   7.865328   7.804208   0.1346294  7.92856    7.710586   69.141     247.2685   145.3099   112.7315  
247.6548   35.62976   0          7.837332   7.754784   7.981952   7.663992   7.823101   7.816777   0.138227   7.909642   7.709388   71.6217    264.5726   131.0559   95.42741  
247.8072   39.44023   0          7.838636   7.771433   8.017245   7.77981    7.756801   7.809939   0.1287179  7.92794    7.756801   75.33451   268.3427   131.0662   91.65732  
247.9596   46.22076   0          7.804503   7.796218   7.939968   7.742702   7.653589   7.608431   0.1028344  7.872236   7.588862   79.26228   265.2053   141.0101   94.79473  
248.112    51.68253   0          7.69372    7.7566     7.451831   7.540143   7.586349   7.440643   0.0792302  7.648371   7.432744   82.28001   273.3928   138.0714   86.60719  
248.2644   55.58711   0          7.502212   7.700074   7.006906   7.572697   7.526701   7.38841    0.05208072 7.636385   7.254559   84.68956   262.3133   153.5101   97.68668  
248.4168   58.68829   0          7.419676   7.696714   6.891276   7.573065   7.484426   7.387047   0.07587386 7.63489    7.155476   86.91142   237.692    180.9932   122.308   
248.5692   62.15455   0          7.404471   7.705896   6.846624   7.597425   7.465379   7.414656   0.1339645  7.651661   7.125547   88.10773   237.5521   184.6084   122.4479  
248.7216   65.19371   0          7.404815   7.740113   6.842987   7.509403   7.399918   7.446123   0.1436323  7.624758   7.1239     87.67574   242.3905   182.8035   117.6095  
248.874    68.79837   0          7.428115   7.776441   6.889275   7.526227   7.378882   7.449432   0.1835243  7.651334   7.158695   87.89792   248.6808   180.1151   111.3192  
249.0264   71.40868   0          7.412267   7.78665    6.829259   7.424809   7.290369   7.422767   0.1704307  7.60573    7.120763   88.08663   251.7371   179.6649   108.2629  
249.1788   74.53201   0          7.343443   7.708343   6.906584   7.330433   7.198853   7.424348   0.178023   7.519388   7.125014   88.5285    244.2928   190.2383   115.7072  
249.3312   76.7153    0          7.320308   7.739743   6.900393   7.2733     7.183158   7.433172   0.19569    7.506522   7.110351   89.06372   248.9653   187.7502   111.0347  
249.4836   76.39102   0          7.344958   7.73273    6.882463   7.323457   7.235321   7.461907   0.2069481  7.528094   7.11371    90.58228   246.3136   190.0774   113.6864  
249.636    76.90804   0          7.372237   7.759114   6.881427   7.315802   7.221928   7.426228   0.1992128  7.537458   7.126832   94.12948   252.6663   184.2424   107.3337  
249.7884   78.65465   0          7.400219   7.747691   6.888979   6.921165   7.197872   7.348866   0.2295127  7.366453   7.144599   96.687     244.2658   194.3925   115.7342  
249.9408   80.89085   0          7.400362   7.650287   6.980095   6.243894   7.166233   7.346441   0.2494267  7.346441   6.94709    92.53657   244.782    196.1087   115.218   
250.0932   83.03809   0          7.407233   7.606441   7.033679   6.192214   6.982163   7.355219   0.2889851  7.355219   6.899327   82.22863   246.1741   196.8649   113.8259  
250.2456   83.70537   0          7.547905   7.616568   7.052858   6.69442    6.797101   7.474776   0.2765174  7.474776   6.797101   70.97414   243.237    200.4685   116.763   
250.398    86.41697   0          7.701074   7.789165   7.184694   7.216568   6.883967   7.620224   0.2889544  7.620224   6.883967   64.12473   254.5083   191.9207   105.4917  
250.5504   86.54118   0          7.718724   7.847386   7.85084    7.546963   7.439195   7.793049   0.2895552  7.822008   7.439195   62.63546   251.0192   195.5219   108.9808  
250.7028   86.17326   0          7.685213   7.910705   8.122003   7.57403    7.78132    7.866477   0.2917684  7.903608   7.740629   60.72545   253.4516   192.7209   106.5484  
250.8552   85.7313    0          7.747031   7.830925   8.081393   7.784756   7.766631   7.742609   0.3151932  7.914212   7.711607   54.23391   261.3659   184.3653   98.63411  
251.0076   85.85706   0          7.636694   7.755427   8.014246   7.706603   7.634867   7.487226   0.3147261  7.825469   7.487226   46.44527   276.7782   169.0787   83.22183  
251.16     86.61462   0          7.702193   7.724482   7.938585   7.488517   7.570401   7.420996   0.3413193  7.820389   7.420996   41.8154    286.7257   159.889    73.27432  
251.3124   87.34802   0          7.696977   7.706225   7.890205   7.456296   7.389781   7.374459   0.326114   7.793591   7.373717   41.64405   291.9681   155.3798   68.03188  
251.4648   87.71467   0          7.672973   7.641832   7.856192   7.295282   7.316257   7.348016   0.354954   7.764582   7.316257   43.87132   297.6136   150.1004   62.38635  
251.6172   88.80666   0          7.725955   7.649034   7.829535   7.232195   7.28018    7.372831   0.3465837  7.777745   7.28018    45.38344   304.1279   144.6796   55.87209  
251.7696   91.01315   0          7.714931   7.637097   7.795749   7.217814   7.215254   7.383718   0.3441763  7.75534    7.215254   46.33582   304.6387   146.3745   55.36125  
251.922    93.54713   0          7.694608   7.606935   7.265479   7.216906   7.187768   7.374071   0.3051456  7.488874   7.187768   47.896     304.3046   149.2415   55.69542  
252.0744   95.88706   0          7.64329    7.73289    7.136473   7.169422   7.167057   7.332759   0.2433463  7.451156   7.167057   52.64212   301.4032   154.4836   58.59685  
252.2268   97.4256    0          7.628674   7.847266   7.205753   7.108641   7.155618   7.309855   0.2311466  7.477954   7.155618   57.38703   300.9969   156.4285   59.00309  
252.3792   99.46312   0          7.626368   8.132884   7.276103   7.088991   7.278922   7.53475    0.2818913  7.610938   7.278922   59.49648   302.4347   157.0255   57.56526  
252.5316   103.0598   0          7.604578   8.175909   7.547632   7.288972   7.408053   7.589822   0.3416646  7.73244    7.408053   60.88028   296.6217   166.4407   63.37828  
252.684    106.1811   0          7.66312    8.229886   7.583288   7.451748   7.457515   7.601863   0.3532345  7.840817   7.457515   63.16212   296.371    169.81     63.62899  
252.8364   108.2134   0          7.71284    8.10005    7.52593    7.458075   7.384689   7.599676   0.3678505  7.779063   7.384689   68.43951   298.9085   169.305    61.09145  
252.9888   108.9187   0          7.670987   8.099055   7.887914   7.402098   7.433003   7.591422   0.3194308  7.787329   7.433003   74.0723    294.9734   173.9453   65.02657  
253.1412   109.2174   0          7.704526   8.175496   8.003611   7.343032   7.669801   7.592873   0.3556791  7.854069   7.592873   78.11192   298.0506   171.1669   61.94945  
253.2936   109.2616   0          7.559217   7.973874   7.835789   7.416956   7.269156   7.546079   0.4152479  7.701944   7.26587    80.47948   298.9732   170.2883   61.02677  
253.446    109.5361   0          7.594184   7.866495   7.749301   7.461167   7.280534   7.486273   0.4135622  7.671743   7.280534   83.03358   300.7792   168.7568   59.22076  
253.5984   110.495    0          7.701332   7.865926   7.729202   7.547476   7.40211    7.494437   0.4220604  7.715267   7.40211    86.36153   298.743    171.7524   61.25702  
253.7508   111.8764   0          7.783435   7.875509   7.69049    7.619423   7.417211   7.512659   0.4091563  7.750498   7.417211   88.15868   301.0068   170.8696   58.99321  
253.9032   114.3289   0          8.044684   7.857568   7.85942    7.721013   7.635972   7.502253   0.4198427  7.952053   7.502253   90.01571   298.6841   175.6438   61.31585  
254.0556   115.4368   0          7.905475   7.826268   7.901721   7.623645   7.613985   7.413741   0.3899918  7.903598   7.413741   88.72331   299.6545   175.7823   60.34549  
