~Version
 VERS              .         2.0                           : CWLS LOG ASCII STANDARD - VERSION 2.0
 WRAP              .         NO                            : ONE LINE PER DEPTH STEP
 DLM               .         SPACE                         : DELIMITING CHARACTER(SPACE TAB OR COMMA)
~Well Information
#_______________________________________________________________________________
#
#PARAMETER_NAME    .UNIT     VALUE                         : DESCRIPTION
#_______________________________________________________________________________
STRT               .m        114                           : First reference value
STOP               .m        447.756                       : Last reference value
STEP               .m        0.1524                        : Step increment
NULL               .         -9999                         : Missing value
COMP               .                                       : Company
WELL               .         A                             : Well name
FLD                .                                       : Field
LOC                .                                       : Location
CNTY               .                                       : County
STAT               .                                       : State
CTRY               .                                       : Country
SRVC               .                                       : Service Company
DATE               .                                       : Date
API                .                                       : API number
~Parameter Information Block
#_______________________________________________________________________________
#
#PARAMETER_NAME    .UNIT     VALUE                         : DESCRIPTION
#_______________________________________________________________________________
SET                .         Inclination                   : 
TLFamily_AZI       .         Hole Azimuth                  : 
TLFamily_AZ_OF_P1  .                                       : 
TLFamily_CAL2      .         Caliper 2                     : 
TLFamily_CAL4      .         Caliper                       : 
TLFamily_CAL6      .         Caliper                       : 
TLFamily_CAL8      .         Caliper                       : 
TLFamily_CALX      .         Caliper 1                     : 
TLFamily_CALY      .         Caliper 2                     : 
TLFamily_DEV       .         Hole Deviation                : 
TLFamily_DMAX      .         Caliper                       : 
TLFamily_DMIN      .         Caliper                       : 
TLFamily_GR        .         Gamma Ray                     : 
TLFamily_HAZI      .         Hole Azimuth                  : 
TLFamily_MD        .         Measured Depth                : 
TLFamily_RB_OF_P1  .         Relative Bearing              : 
TLFamily_ROT       .         Relative Bearing              : 
~Curve Information
#_______________________________________________________________________________
#
#LOGNAME           .UNIT     LOG_ID                        : DESCRIPTION
#_______________________________________________________________________________
MD                 .m                                      :  
AZ_OF_P1           .deg                                    : Unrecognised 
AZI                .deg                                    : AZIMUTH OF FIRST PIXEL OF IMAGE ARRAY 
CAL2               .in                                     : Unrecognised 
CAL4               .in                                     : Unrecognised 
CAL6               .in                                     : Unrecognised 
CAL8               .in                                     : Unrecognised 
CALX               .in                                     : Unrecognised 
CALY               .in                                     : Unrecognised 
DEV                .deg                                    : Unrecognised 
DMAX               .in                                     : Unrecognised 
DMIN               .in                                     : Unrecognised 
GR                 .gAPI                                   : Gamma Ray 
HAZI               .deg                                    : HOLE AZIMUTH 
RB_OF_P1           .deg                                    : Unrecognised 
ROT                .deg                                    : RELATIVE BEARING OF FIRST PIXEL OF IMAGE ARRAY 
~Ascii
# ...
268.2288   232.8188   0          7.944103   7.974372   7.993967   7.523271   7.856277   8.004879   0.263429   8.004879   7.748822   50.56871   296.1666   296.653    63.83338  
268.3812   230.8562   0          7.857429   7.977462   7.993788   7.517641   7.832895   8.006427   0.2119008  8.006427   7.747551   50.28693   288.6364   302.2197   71.36356  
268.5336   230.2862   0          7.95678    7.974372   7.985933   7.534758   7.886395   8.031573   0.2081299  8.031573   7.754565   50.81195   286.2435   304.0428   73.75654  
268.686    229.8174   0          7.907403   7.976561   7.989394   7.527084   7.943235   7.906815   0.1878852  7.955746   7.751822   50.869     290.6465   299.1709   69.35347  
268.8384   229.9909   0          7.794551   7.987057   7.939285   7.49039    7.779328   7.900826   0.1836271  7.900826   7.738724   51.04783   296.0872   293.9037   63.91284  
268.9908   231.211    0          7.815888   7.919609   7.900669   7.521216   7.859641   7.775114   0.1876941  7.874039   7.720412   51.25848   294.0984   297.0988   65.90159  
269.1432   233.6117   0          7.853994   7.988004   7.859251   7.473537   7.996387   7.766828   0.1935448  7.996387   7.730771   50.74964   283.958    309.6595   76.04201  
269.2956   234.7971   0          7.961016   8.03087    7.867074   7.367147   7.963774   7.748133   0.2061746  7.963774   7.699008   50.56565   289.4376   305.3595   70.56244  
269.448    235.4896   0          7.38322    7.992391   7.852465   7.30871    7.907597   7.720458   0.228445   7.907597   7.613599   50.58056   286.5274   308.9619   73.47256  
269.6004   236.4679   0          7.456798   7.963791   7.800889   7.264432   7.881286   7.722359   0.2342047  7.881376   7.614112   51.67614   271.7041   324.7643   88.29588  
269.7528   237.1859   0          7.806824   7.666535   7.746119   7.25409    7.77435    7.832556   0.260525   7.846911   7.460312   52.75988   276.0623   321.1231   83.93767  
269.9052   237.306    0          7.607159   7.973167   7.752092   7.195514   7.71279    7.833067   0.3024904  7.833067   7.577804   53.95829   293.3576   303.9454   66.64243  
270.0576   236.9351   0          7.536662   8.051749   7.706687   7.151439   7.485418   7.754133   0.3456134  7.754133   7.485418   54.92374   285.0004   311.9344   74.99959  
270.21     237.4165   0          7.163013   8.024956   7.601213   6.970006   7.590476   7.628313   0.3489116  7.628313   7.382113   54.55291   272.7021   324.7145   87.2979   
270.3624   237.8626   0          7.102019   7.744699   7.211315   6.89302    7.32021    7.553093   0.3307493  7.553093   7.156667   53.67045   270.9149   326.9477   89.08508  
270.5148   240.2625   0          6.983481   7.583622   7.005582   6.682572   7.258369   7.535494   0.2912999  7.535494   6.994532   53.01601   268.1012   332.1678   91.89885  
270.6672   242.6536   0          7.025441   7.71519    7.271754   6.701101   7.423547   7.595525   0.3071161  7.595525   7.148597   52.58447   273.4133   329.2404   86.58668  
270.8196   242.974    0          7.381056   7.823132   7.329731   6.799479   7.651159   7.89011    0.3272564  7.89011    7.29685    50.85807   276.6692   326.3043   83.3308   
270.972    245.5124   0          7.996965   7.989476   7.540167   7.026083   7.879211   7.955713   0.3350621  7.955713   7.507779   47.73046   282.3546   323.1567   77.64545  
271.1244   248.5708   0          8.038688   7.974481   7.558791   7.262951   7.945306   7.937766   0.3548053  7.959329   7.618716   44.91369   286.298    322.2731   73.70196  
271.2768   250.5829   0          8.005205   8.017635   7.57992    7.333623   7.937521   8.058563   0.3723077  8.058563   7.675629   44.13294   287.8414   322.7417   72.15861  
271.4292   251.4584   0          7.942246   7.943607   7.578666   7.308796   7.874056   8.066393   0.299611   8.066393   7.626202   46.00816   291.8272   319.6313   68.17283  
271.5816   252.0227   0          7.931343   7.923368   7.502165   7.264382   7.7321     8.065027   0.3455981  8.065027   7.593875   49.69239   286.2809   325.7419   73.71908  
271.734    252.7962   0          8.027483   7.897405   7.468142   7.37925    7.947523   8.067011   0.3759392  8.067011   7.638328   54.2813    292.3709   320.4261   67.62912  
271.8864   253.7136   0          8.001304   7.881744   7.54161    7.291798   7.936463   8.066158   0.3983248  8.066158   7.586771   58.39701   292.6858   321.0277   67.31418  
272.0388   254.1163   0          7.95233    7.862519   7.579469   7.22917    7.944486   8.011558   0.3864805  8.011558   7.545845   59.46993   298.6255   315.491    61.37454  
272.1912   254.9051   0          7.925714   7.720883   7.459835   7.122584   7.845051   7.927754   0.3812674  7.927754   7.421734   59.65359   300.5366   314.3684   59.46341  
272.3436   255.6861   0          7.84004    7.630777   7.344464   6.926066   7.741026   7.871373   0.4004662  7.871373   7.278421   61.74442   300.2532   315.4329   59.74677  
272.496    256.533    0          7.764726   7.594524   7.268663   6.840084   7.745906   7.882354   0.4145832  7.882354   7.217304   63.30938   299.894    316.639    60.10602  
272.6484   257.8701   0          7.737764   7.609337   7.257586   6.853048   7.802169   7.885479   0.4130566  7.885479   7.231193   63.14832   298.2084   319.6617   61.79156  
272.8008   258.9856   0          7.741227   7.628507   7.249563   6.841433   7.822148   7.694481   0.4218211  7.822148   7.23497    60.88927   298.3304   320.6553   61.66966  
272.9532   259.5646   0          7.69829    7.631798   7.195223   6.745707   7.761806   7.274197   0.409776   7.761806   7.188753   59.00428   299.4863   320.0783   60.51367  
273.1056   259.459    0          6.750931   7.616204   7.073944   6.594646   7.72398    7.119327   0.4266919  7.72398    6.912437   58.96915   293.0744   326.3843   66.92561  
273.258    259.0475   0          6.467477   7.54616    6.827875   6.469206   7.676113   6.975339   0.4268092  7.676113   6.647676   58.87816   291.592    327.4554   68.40799  
273.4104   258.9712   0          6.482561   7.389738   6.738647   6.1447     7.231075   6.941798   0.4060598  7.231075   6.610604   59.50552   290.3423   328.6288   69.65768  
273.5628   260.1808   0          6.549091   7.270369   6.730986   6.111164   7.123516   6.937038   0.4188013  7.123516   6.640038   60.42902   292.9798   327.2014   67.02023  
273.7152   262.1409   0          6.551328   7.255206   6.636368   6.153103   7.107234   6.936646   0.4027296  7.107234   6.593848   61.03648   297.1917   324.949    62.80831  
273.8676   263.8215   0          6.546103   7.279648   6.69486    6.215995   7.117394   6.936646   0.4170991  7.117394   6.620481   60.63544   295.0304   328.7911   64.9696   
274.02     264.8994   0          6.547445   7.292552   6.88135    6.273601   7.156438   6.945458   0.4040153  7.156438   6.714397   59.7538    295.305    329.5944   64.695    
274.1724   265.5251   0          6.573927   7.320368   7.039057   6.32991    7.232641   6.982191   0.3805868  7.232641   6.806492   58.14788   295.7312   329.7939   64.26884  
274.3248   265.417    0          6.682682   7.401963   6.894709   6.350562   7.313363   7.041779   0.3831822  7.313363   6.788695   55.44252   298.1146   327.3024   61.88539  
274.4772   265.2021   0          6.927269   7.468065   6.632661   6.362723   7.489142   7.116473   0.38019    7.489142   6.779965   53.01972   298.921    326.2811   61.07902  
274.6296   265.6742   0          7.002481   7.530678   6.492135   6.343622   7.475909   7.119058   0.3646494  7.475909   6.747308   51.69452   301.2593   324.4142   58.74072  
274.782    268.6394   0          7.492126   7.508374   6.280486   6.368657   7.414796   7.105485   0.3779273  7.414796   6.886305   51.10215   307.3595   321.2799   52.6405   
274.9344   270.7446   0          7.406281   7.510199   6.176503   6.363032   7.403612   7.061498   0.3499719  7.403612   6.791392   52.10051   307.187    323.5577   52.81303  
275.0868   271.5279   0          6.994831   7.546398   6.091176   6.271612   7.398287   7.047162   0.384923   7.398287   6.543004   54.38114   308.304    323.2239   51.696    
