~Version
 VERS              .         2.0                           : CWLS LOG ASCII STANDARD - VERSION 2.0
 WRAP              .         NO                            : ONE LINE PER DEPTH STEP
 DLM               .         SPACE                         : DELIMITING CHARACTER(SPACE TAB OR COMMA)
~Well Information
#_______________________________________________________________________________
#
#PARAMETER_NAME    .UNIT     VALUE                         : DESCRIPTION
#_______________________________________________________________________________
STRT               .m        114                           : First reference value
STOP               .m        447.756                       : Last reference value
STEP               .m        0.1524                        : Step increment
NULL               .         -9999                         : Missing value
COMP               .                                       : Company
WELL               .         A                             : Well name
FLD                .                                       : Field
LOC                .                                       : Location
CNTY               .                                       : County
STAT               .                                       : State
CTRY               .                                       : Country
SRVC               .                                       : Service Company
DATE               .                                       : Date
API                .                                       : API number
~Parameter Information Block
#_______________________________________________________________________________
#
#PARAMETER_NAME    .UNIT     VALUE                         : DESCRIPTION
#_______________________________________________________________________________
SET                .         Inclination                   : 
TLFamily_AZI       .         Hole Azimuth                  : 
TLFamily_AZ_OF_P1  .                                       : 
TLFamily_CAL2      .         Caliper 2                     : 
TLFamily_CAL4      .         Caliper                       : 
TLFamily_CAL6      .         Caliper                       : 
TLFamily_CAL8      .         Caliper                       : 
TLFamily_CALX      .         Caliper 1                     : 
TLFamily_CALY      .         Caliper 2                     : 
TLFamily_DEV       .         Hole Deviation                : 
TLFamily_DMAX      .         Caliper                       : 
TLFamily_DMIN      .         Caliper                       : 
TLFamily_GR        .         Gamma Ray                     : 
TLFamily_HAZI      .         Hole Azimuth                  : 
TLFamily_MD        .         Measured Depth                : 
TLFamily_RB_OF_P1  .         Relative Bearing              : 
TLFamily_ROT       .         Relative Bearing              : 
~Curve Information
#_______________________________________________________________________________
#
#LOGNAME           .UNIT     LOG_ID                        : DESCRIPTION
#_______________________________________________________________________________
MD                 .m                                      :  
AZ_OF_P1           .deg                                    : Unrecognised 
AZI                .deg                                    : AZIMUTH OF FIRST PIXEL OF IMAGE ARRAY 
CAL2               .in                                     : Unrecognised 
CAL4               .in                                     : Unrecognised 
CAL6               .in                                     : Unrecognised 
CAL8               .in                                     : Unrecognised 
CALX               .in                                     : Unrecognised 
CALY               .in                                     : Unrecognised 
DEV                .deg                                    : Unrecognised 
DMAX               .in                                     : Unrecognised 
DMIN               .in                                     : Unrecognised 
GR                 .gAPI                                   : Gamma Ray 
HAZI               .deg                                    : HOLE AZIMUTH 
RB_OF_P1           .deg                                    : Unrecognised 
ROT                .deg                                    : RELATIVE BEARING OF FIRST PIXEL OF IMAGE ARRAY 
~Ascii
# ...
401.4264   148.508    0          6.921908   6.916994   7.276338   6.142783   6.952857   7.439627   0.4803921  7.439627   6.529888   54.43094   332.7731   175.7342   27.22694  
401.5788   149.1092   0          6.958119   6.851874   7.148898   6.111391   6.882599   7.299654   0.4819116  7.299654   6.481632   56.42957   337.058    172.0517   22.94197  
401.7312   149.8594   0          6.996344   6.795649   7.084084   6.27702    6.905276   7.375161   0.4888565  7.375161   6.536334   54.5455    340.6133   169.246    19.38665  
401.8836   150.0644   0          7.023816   6.983198   7.09995    6.502641   7.022099   7.474168   0.5126544  7.474168   6.742919   49.77626   344.8532   165.2111   15.14676  
402.036    150.1402   0          7.06741    7.073733   7.161316   6.658057   7.136611   7.600769   0.5255893  7.600769   6.865895   45.39771   341.2759   168.8645   18.72413  
402.1884   148.572    0          7.132652   7.220673   7.229404   7.148532   7.20101    7.626744   0.4828103  7.626744   7.170177   42.30994   337.1488   171.4234   22.85123  
402.3408   148.4967   0          7.075897   7.18049    7.216088   6.913712   6.9954     7.630734   0.4813102  7.630734   6.96271    40.0198    334.3306   174.1662   25.66941  
402.4932   151.1153   0          7.101832   7.11409    7.312537   6.635791   7.008006   7.630668   0.5350364  7.630668   6.87494    38.37441   335.2016   175.9135   24.79842  
402.6456   152.0899   0          7.074885   7.161157   7.293889   6.728257   7.01782    7.637146   0.5656666  7.637146   6.944706   36.91727   337.1518   174.9381   22.84825  
402.798    152.4461   0          7.093597   7.182637   7.229469   6.720958   7.029276   7.64505    0.553436   7.64505    6.951797   38.16187   336.905    175.541    23.095    
402.9504   152.6373   0          7.107072   7.211374   7.239264   6.919164   7.06726    7.693521   0.5626746  7.693521   7.05247    41.29311   338.3364   174.3009   21.66363  
403.1028   152.4224   0          7.103679   7.217968   7.271876   6.932033   7.065079   7.705251   0.5757108  7.705251   7.064441   43.4128    339.9646   172.4579   20.03542  
403.2552   152.1627   0          7.093827   7.177004   7.253705   6.86294    7.041512   7.586965   0.5876167  7.586965   7.019971   42.18948   338.4763   173.6865   21.52373  
403.4076   151.9157   0          7.105612   7.169507   7.196139   6.929049   7.028778   7.484964   0.555889   7.484964   7.028778   39.09403   344.1774   167.7383   15.82264  
403.56     152.3579   0          7.168427   7.202138   7.197244   6.881153   7.010744   7.49138    0.5581312  7.49138    7.010744   37.66639   342.5598   169.7981   17.44021  
403.7124   152.5265   0          7.181758   7.211535   7.200828   6.815721   6.94518    7.597409   0.6138552  7.597409   6.94518    37.72702   346.1663   166.3603   13.83372  
403.8648   152.6263   0          7.14725    7.249287   7.133142   7.064013   6.841496   7.570179   0.595905   7.570179   6.841496   37.92897   341.5242   171.102    18.47578  
404.0172   152.7176   0          7.096552   7.276245   7.155589   7.013687   6.860524   7.538482   0.5569344  7.538482   6.860524   36.79012   339.1877   173.5298   20.8123   
404.1696   152.3368   0          7.10234    7.183001   7.31834    6.748654   6.823439   7.573747   0.5616891  7.573747   6.823439   35.53066   336.9549   175.3819   23.04507  
404.322    151.5283   0          7.086103   7.116956   7.334169   6.567606   6.90873    7.58482    0.5803994  7.58482    6.842281   36.89601   338.7424   172.7859   21.25759  
404.4744   151.2259   0          7.059903   7.111072   7.390109   6.611248   7.036602   7.577649   0.5970291  7.577649   6.86116    41.41652   337.1003   174.1256   22.89967  
404.6268   151.6637   0          7.022549   7.076019   7.442043   6.48386    7.139343   7.549147   0.5807694  7.549147   6.779939   46.4747    338.3914   173.2723   21.60857  
404.7792   151.848    0          7.0949     7.052148   7.368451   6.483525   7.204746   7.595579   0.5376113  7.595579   6.767837   49.29228   336.4112   175.437    23.58877  
404.9316   151.3331   0          7.120468   7.037259   7.349732   6.935201   7.222998   7.577122   0.4766729  7.577122   6.98623    48.51958   334.7562   176.5769   25.24377  
405.084    151.5301   0          7.116124   7.060051   7.309051   7.215275   7.235272   7.480293   0.4597628  7.480293   7.137663   46.42416   342.3309   169.1992   17.66912  
405.2364   151.1801   0          7.09658    7.087644   7.289167   7.206771   7.307802   7.457258   0.4840449  7.457258   7.147207   46.12877   344.4037   166.7764   15.59626  
405.3888   151.7386   0          7.075039   7.182738   7.292279   7.147366   7.340953   7.498558   0.4904529  7.498558   7.165052   48.43321   343.9093   167.8289   16.09068  
405.5412   153.0208   0          7.015172   7.118061   7.347721   6.999366   7.36384    7.49288    0.510481   7.49288    7.058714   53.51468   341.156    171.865    18.84404  
405.6936   152.8308   0          7.0122     7.115993   7.296741   7.01427    7.15919    7.480992   0.5057823  7.480992   7.065131   58.83858   341.9521   170.8786   18.04787  
405.846    152.4267   0          7.012089   7.055784   7.250578   6.715168   6.753791   7.481029   0.5022237  7.481029   6.753791   62.15167   343.105    169.3216   16.89497  
405.9984   152.443    0          7.013959   6.94577    7.192146   6.494879   6.630629   7.48096    0.4916069  7.48096    6.630629   62.48092   341.9202   170.5225   18.0798   
406.1508   152.7355   0          7.017325   6.951205   7.189133   6.54741    6.652469   7.422836   0.484604   7.422836   6.652469   59.00141   338.3135   174.4223   21.68647  
406.3032   151.4187   0          7.09596    6.974734   7.097628   6.493624   6.628581   7.329849   0.4810079  7.329849   6.628581   52.36638   343.8672   167.5506   16.13282  
406.4556   151.8329   0          7.142492   6.938162   7.041376   6.4417     6.56226    7.302326   0.5000771  7.302326   6.56226    43.45277   343.9742   167.8587   16.02583  
406.608    151.9083   0          7.174996   7.017963   7.051352   6.488621   6.517458   7.283311   0.5048901  7.283311   6.517458   35.55375   345.8633   166.0452   14.13669  
406.7604   150.9678   0          7.154493   7.025796   7.054712   6.459788   6.553751   7.287158   0.4794013  7.287158   6.553751   31.10022   349.0369   161.931    10.96314  
406.9128   150.9922   0          7.120972   7.06126    7.029479   6.411468   6.639294   7.315171   0.48812    7.315171   6.636843   30.74616   350.221    160.7711   9.77903   
407.0652   150.969    0          7.126401   7.001581   6.950013   6.367196   6.71846    7.288598   0.4892849  7.288598   6.684389   36.15236   345.7992   165.17     14.20085  
407.2176   150.872    0          7.095814   6.924959   6.886881   6.234487   6.730547   7.275035   0.478818   7.275035   6.579723   45.19506   348.661    162.211    11.33899  
407.37     151.8849   0          7.064265   6.908751   6.855175   6.152123   6.850564   7.280148   0.4866192  7.280148   6.530437   54.25483   344.0395   167.8455   15.96054  
407.5224   151.203    0          7.106608   6.89187    6.928154   5.870647   6.90908    7.28351    0.4653413  7.28351    6.381259   57.99773   343.5516   167.6514   16.44842  
407.6748   151.2229   0          7.171589   6.883416   6.862755   6.387194   6.999641   7.257569   0.4598269  7.257569   6.635304   53.43285   344.0741   167.1494   15.9259   
407.8272   151.0899   0          7.233115   6.837283   6.739655   6.835123   7.012405   7.244447   0.4477956  7.244447   6.836203   45.59177   352.4496   158.6402   7.550407  
407.9796   151.8524   0          7.286122   6.95471    6.636158   6.658014   7.142019   7.183881   0.4408484  7.190921   6.806362   38.89912   345.9073   165.9453   14.09265  
408.132    154.2575   0          7.364009   6.970483   6.497516   6.310239   7.284862   7.369346   0.4321653  7.400525   6.640361   36.78308   340.2001   174.0566   19.79992  
408.2844   155.523    0          7.462237   6.950529   6.507814   6.088494   7.265636   7.37023    0.4070831  7.38543    6.519511   38.60942   324.1974   191.3256   35.80261  
