~Version
 VERS              .         2.0                           : CWLS LOG ASCII STANDARD - VERSION 2.0
 WRAP              .         NO                            : ONE LINE PER DEPTH STEP
 DLM               .         SPACE                         : DELIMITING CHARACTER(SPACE TAB OR COMMA)
~Well Information
#_______________________________________________________________________________
#
#PARAMETER_NAME    .UNIT     VALUE                         : DESCRIPTION
#_______________________________________________________________________________
STRT               .M        -11.2                         : First reference value
STOP               .M        461.2                         : Last reference value
STEP               .M        0.1                           : Step increment
NULL               .         -9999                         : Missing value
COMP               .                                       : Company
WELL               .         A                             : Well name
FLD                .                                       : Field
LOC                .                                       : Location
CNTY               .                                       : County
STAT               .                                       : State
CTRY               .                                       : Country
SRVC               .                                       : Service Company
DATE               .                                       : Date
API                .                                       : API number
~Parameter Information Block
#_______________________________________________________________________________
#
#PARAMETER_NAME    .UNIT     VALUE                         : DESCRIPTION
#_______________________________________________________________________________
SET                .         Logs                          : 
TLFamily_DEPT      .         Measured Depth                : 
TLFamily_DT        .         Compressional Slowness        : 
TLFamily_GR        .         Gamma Ray                     : 
TLFamily_ILD       .         Resistivity - Deep            : 
TLFamily_NPOR_LIM  .         Thermal Neutron Porosity Limestone: 
TLFamily_PEF       .         Photoelectric Factor          : 
TLFamily_RHO       .         Bulk Density                  : 
~Curve Information
#_______________________________________________________________________________
#
#LOGNAME           .UNIT     LOG_ID                        : DESCRIPTION
#_______________________________________________________________________________
DEPT               .M                                      : Logged depth 
DT                 .us/m                                   : Compressional Slowness 
GR                 .GAPI                                   : MGS Gamma Ray 
ILD                .OHMM                                   : Array Ind. One Res 85 
NPOR_LIM           .V/V                                    : Limestone Neutron Por. 
PEF                .B/E                                    : PE 
RHO                .K/M3                                   : Compensated Density 
~Ascii
# ...
39.8       -9999      44.315258  19671.279297 0.290599   10.289748  2029.386963
39.9       -9999      43.698441  19744.992188 0.285039   10.22738   2045.803589
40         -9999      43.46912   19831.890625 0.282125   10.165473  2062.983398
40.1       -9999      43.971252  19940.351563 0.282132   10.139286  2079.085938
40.2       -9999      44.922565  20032.955078 0.28333    10.116074  2097.834717
40.3       -9999      46.158676  20086.873047 0.284198   10.098575  2106.084717
40.4       -9999      47.451298  20078.380859 0.283094   10.07109   2111.475586
40.5       -9999      48.783577  20067.101563 0.281176   10.096057  2117.11792
40.6       -9999      49.303406  20031.095703 0.279732   10.111312  2121.104736
40.7       -9999      49.182262  19990.660156 0.280218   10.143549  2126.712891
40.8       -9999      49.131664  19938.107422 0.281825   10.148252  2129.399658
40.9       -9999      49.383785  19918.416016 0.282651   10.182341  2131.059326
41         -9999      50.073353  19893.386719 0.280777   10.193388  2126.836426
41.1       -9999      50.419117  19854.998047 0.275264   10.22529   2119.620361
41.2       -9999      50.693619  19846.679688 0.26758    10.257355  2108.930176
41.3       -9999      50.062828  19830.421875 0.26001    10.297484  2103.518555
41.4       -9999      48.948502  19850.439453 0.256121   10.306285  2103.372314
41.5       -9999      47.142185  19868.464844 0.256123   10.3443    2108.999512
41.6       -9999      46.308987  19954.792969 0.260307   10.378163  2111.097656
41.7       -9999      45.587368  20025.279297 0.265447   10.430747  2108.538818
41.8       -9999      44.894089  20118.273438 0.269979   10.440384  2101.9104 
41.9       -9999      43.88335   20167.162109 0.273247   10.461038  2090.937988
42         -9999      43.337608  20205.302734 0.277667   10.423322  2078.616699
42.1       -9999      42.749111  20188.007813 0.285703   10.369875  2069.399414
42.2       -9999      42.364918  20169.943359 0.29504    10.283731  2065.42334
42.3       -9999      42.526512  20158.359375 0.303452   10.240746  2062.334229
42.4       -9999      43.438526  20155.789063 0.305885   10.232193  2058.689697
42.5       -9999      43.723091  20157.978516 0.302439   10.229897  2055.572998
42.6       -9999      43.597111  20164.15625 0.29049    10.236058  2053.98877
42.7       -9999      43.631207  20171.814453 0.276605   10.259994  2051.81543
42.8       -9999      44.251522  20154.265625 0.263267   10.317827  2048.485107
42.9       -9999      44.80508   20126.621094 0.255736   10.335192  2048.07373
43         -9999      45.74345   20100.570313 0.252033   10.392256  2048.269043
43.1       -9999      46.260185  20106.285156 0.252719   10.489046  2046.235229
43.2       -9999      46.465229  20128.673828 0.256323   10.621038  2037.885132
43.3       -9999      45.517014  20176.642578 0.262439   10.71943   2047.310425
43.4       -9999      44.691383  20212.152344 0.26911    10.810203  2027.333984
43.5       -9999      43.799622  20222.210938 0.276708   10.881476  2009.921997
43.6       -9999      42.951336  20162.181641 0.284313   10.904718  1995.861206
43.7       -9999      41.969135  20070.935547 0.293404   10.921524  1988.157349
43.8       -9999      41.152306  19943.962891 0.300084   10.925885  1980.713623
43.9       -9999      40.578732  19815.583984 0.307039   10.905732  1969.282593
44         -9999      39.885311  19749.783203 0.310253   10.814497  1954.082153
44.1       -9999      39.821674  19792.710938 0.314282   10.772593  1943.403442
44.2       -9999      39.539955  19929.134766 0.314049   10.724258  1941.107544
44.3       -9999      40.290958  20069.75   0.314701   10.690329  1949.500122
44.4       -9999      41.424202  20174.199219 0.314808   10.659183  1965.834595
44.5       -9999      43.466576  20175.353516 0.318391   10.716265  1989.304443
44.6       -9999      44.787907  20073.929688 0.324025   10.774975  2013.06189
44.7       -9999      46.381638  19907.240234 0.328974   10.807261  2033.07373
44.8       -9999      47.402676  19773.636719 0.331213   10.757334  2044.71936
44.9       -9999      47.605885  19707.353516 0.32717    10.697766  2051.852295
45         -9999      46.100765  19700.099609 0.320578   10.592002  2055.015869
45.1       -9999      44.890339  19725.953125 0.310406   10.463517  2057.589111
45.2       -9999      44.137314  19744.449219 0.302654   10.308313  2059.414063
45.3       -9999      42.829243  19747.322266 0.296204   10.192861  2055.099121
45.4       -9999      42.292015  19775.646484 0.294036   10.122469  2051.692139
45.5       -9999      42.334881  19825.943359 0.292671   10.087707  2049.067383
45.6       -9999      43.408466  19884.177734 0.29265    10.114065  2050.77124
45.7       -9999      43.028446  19905.849609 0.29072    10.207385  2053.105225
45.8       -9999      43.387985  19970.998047 0.288466   10.377242  2055.278809
45.9       -9999      43.07082   19995.388672 0.287101   10.559338  2060.246338
46         -9999      44.1077    20020.228516 0.292961   10.743671  2041.489014
46.1       -9999      44.072369  19985.041016 0.30336    10.856007  2021.289307
46.2       -9999      45.128899  20013.601563 0.315201   10.904986  2006.776489
46.3       -9999      46.049465  20032.726563 0.323177   10.886411  2004.004639
46.4       -9999      47.244129  20099.175781 0.327883   10.840934  2010.78479
46.5       -9999      47.420601  20103.558594 0.326232   10.746698  2023.192993
46.6       -9999      47.391613  20144.445313 0.318933   10.655782  2032.903198
46.7       -9999      47.235603  20115.332031 0.308431   10.553196  2041.480469
46.8       -9999      47.399277  20087.509766 0.299862   10.489776  2045.514404
46.9       -9999      47.544472  20021.013672 0.293884   10.413471  2048.876221
47         -9999      47.775963  20030.796875 0.290731   10.350633  2052.125244
47.1       -9999      48.069435  20076.417969 0.289944   10.262877  2059.630371
47.2       -9999      47.063587  20136.605469 0.29114    10.243901  2066.079834
47.3       -9999      45.696377  20171.035156 0.289902   10.228557  2072.02002
47.4       -9999      44.349529  20192.974609 0.286626   10.225361  2074.482666
47.5       -9999      43.573757  20205.8125 0.27997    10.261247  2076.509521
47.6       -9999      42.401871  20160.160156 0.275535   10.374655  2071.568115
47.7       -9999      41.836376  20083.525391 0.273478   10.53389   2058.470459
47.8       -9999      40.59507   19983.355469 0.282423   10.686626  2029.681152
47.9       -9999      38.979664  19887.220703 0.303514   10.825642  1985.584351
48         -9999      36.587246  19758.46875 0.344441   10.96794   1924.347412
48.1       -9999      34.667343  19634.005859 0.396257   11.017548  1858.466187
48.2       -9999      32.733658  19590.5    0.456336   11.012584  1801.815674
48.3       -9999      31.569155  19639.685547 0.513162   10.871231  1760.711426
48.4       -9999      31.14159   19787.763672 0.56298    10.725961  1701.22522
48.5       -9999      31.566034  19963.234375 0.597624   10.565217  1619.02124
48.6       -9999      31.577179  20163.560547 0.620613   10.526506  1546.980103
48.7       -9999      32.0103    20286.326172 0.648268   10.496969  1518.521973
48.8       -9999      33.053383  20323.417969 0.681209   10.550184  1525.690308
48.9       -9999      34.204872  20261.037109 0.711066   10.620166  1570.565674
49         -9999      35.208599  20175.935547 0.714129   10.695883  1650.419067
49.1       -9999      36.813927  20097.123047 0.6903589999999999 10.696274  1734.189087
49.2       -9999      39.031975  20071.78125 0.632338   10.662155  1780.990845
49.3       -9999      40.672909  20069.119141 0.558325   10.661469  1798.242065
49.4       -9999      40.656013  20069.287109 0.480207   10.704759  1818.047241
49.5       -9999      40.582012  20066.144531 0.424674   10.73266   1843.583862
49.6       -9999      40.72364   20055.289063 0.388803   10.787873  1862.652466
49.7       -9999      40.879276  20037.726563 0.371424   10.857084  1871.821045
49.8       -9999      40.155212  20013.845703 0.359054   10.97804   1870.671509
