~Version
 VERS              .         2.0                           : CWLS LOG ASCII STANDARD - VERSION 2.0
 WRAP              .         NO                            : ONE LINE PER DEPTH STEP
 DLM               .         SPACE                         : DELIMITING CHARACTER(SPACE TAB OR COMMA)
~Well Information
#_______________________________________________________________________________
#
#PARAMETER_NAME    .UNIT     VALUE                         : DESCRIPTION
#_______________________________________________________________________________
STRT               .M        -11.2                         : First reference value
STOP               .M        461.2                         : Last reference value
STEP               .M        0.1                           : Step increment
NULL               .         -9999                         : Missing value
COMP               .                                       : Company
WELL               .         A                             : Well name
FLD                .                                       : Field
LOC                .                                       : Location
CNTY               .                                       : County
STAT               .                                       : State
CTRY               .                                       : Country
SRVC               .                                       : Service Company
DATE               .                                       : Date
API                .                                       : API number
~Parameter Information Block
#_______________________________________________________________________________
#
#PARAMETER_NAME    .UNIT     VALUE                         : DESCRIPTION
#_______________________________________________________________________________
SET                .         Logs                          : 
TLFamily_DEPT      .         Measured Depth                : 
TLFamily_DT        .         Compressional Slowness        : 
TLFamily_GR        .         Gamma Ray                     : 
TLFamily_ILD       .         Resistivity - Deep            : 
TLFamily_NPOR_LIM  .         Thermal Neutron Porosity Limestone: 
TLFamily_PEF       .         Photoelectric Factor          : 
TLFamily_RHO       .         Bulk Density                  : 
~Curve Information
#_______________________________________________________________________________
#
#LOGNAME           .UNIT     LOG_ID                        : DESCRIPTION
#_______________________________________________________________________________
DEPT               .M                                      : Logged depth 
DT                 .us/m                                   : Compressional Slowness 
GR                 .GAPI                                   : MGS Gamma Ray 
ILD                .OHMM                                   : Array Ind. One Res 85 
NPOR_LIM           .V/V                                    : Limestone Neutron Por. 
PEF                .B/E                                    : PE 
RHO                .K/M3                                   : Compensated Density 
~Ascii
# ...
301        444.1892   55.521084  15.392858  0.423871   2.411771   2058.310059
301.1      443.8702   56.402439  16.295246  0.423014   2.409912   2058.301514
301.2      443.4601   56.620178  16.43758   0.42092    2.408843   2058.983398
301.3      442.9133   55.885605  16.165586  0.415752   2.420531   2059.445557
301.4      442.3665   56.144852  16.238749  0.410931   2.450404   2061.802002
301.5      441.8197   56.619881  15.426382  0.407359   2.478365   2066.503174
301.6      441.364    58.422112  13.781996  0.411364   2.493812   2071.746338
301.7      440.9996   59.682762  12.932412  0.423189   2.500539   2076.323975
301.8      440.954    61.820194  12.598211  0.439504   2.490213   2078.767334
301.9      441.1819   62.66655   11.770294  0.452726   2.463057   2079.30249
302        441.4552   63.47168   11.646486  0.458966   2.436587   2076.665527
302.1      441.5464   63.546726  12.350538  0.457862   2.417786   2072.033691
302.2      441.5464   64.051323  12.682954  0.451417   2.393012   2067.429688
302.3      441.364    63.640942  12.437255  0.443358   2.357551   2063.826904
302.4      440.9539   62.779575  12.36905   0.436642   2.336494   2058.723877
302.5      440.4528   61.96413   12.641088  0.430362   2.313563   2053.474365
302.6      440.3617   60.899426  13.098178  0.422862   2.316154   2048.914795
302.7      440.6808   59.412594  13.128455  0.415771   2.319907   2047.651978
302.8      441.6834   57.123024  12.37508   0.41131    2.334693   2049.236572
302.9      443.3695   55.901321  11.337333  0.410344   2.34463    2054.918945
303        446.0581   54.491325  11.02778   0.411064   2.349469   2058.145996
303.1      449.2479   54.531731  10.919996  0.412477   2.364777   2054.129883
303.2      453.0301   56.544815  10.51102   0.413683   2.390748   2048.374512
303.3      457.04     61.176773  9.513774   0.415709   2.446538   2047.202393
303.4      461.1865   66.82395200000001 7.306048   0.421044   2.50279    2055.066895
303.5      464.8318   71.69873   5.187972   0.427849   2.579102   2066.803223
303.6      467.7023   75.680046  4.108378   0.434743   2.638066   2087.000488
303.7      469.4336   77.59030199999999 3.82811    0.436262   2.708896   2108.02002
303.8      469.9347   77.42139400000001 4.159798   0.436791   2.793812   2122.964355
303.9      469.4331   75.248726  4.784813   0.433935   2.864409   2123.171631
304        467.3824   71.87470999999999 5.942454   0.43315    2.884687   2116.668701
304.1      464.3746   68.74243199999999 8.05921    0.432269   2.826875   2104.762695
304.2      460.0001   65.729355  10.326172  0.435824   2.730964   2089.930664
304.3      454.8508   63.625576  12.000999  0.439884   2.591984   2073.924072
304.4      448.6993   60.944866  13.570387  0.445758   2.475467   2060.375  
304.5      443.0035   59.270775  14.671798  0.449886   2.405995   2051.492676
304.6      438.1738   57.747341  15.564159  0.45172    2.403127   2047.5271 
304.7      434.8476   56.554829  16.392189  0.449211   2.414286   2042.772949
304.8      432.6606   55.287254  17.155766  0.444734   2.426699   2037.317505
304.9      431.5214   54.301025  17.907564  0.441887   2.434631   2031.740112
305        430.9747   54.271053  18.648241  0.441326   2.443179   2028.879639
305.1      430.3368   53.817482  19.233501  0.443822   2.464545   2024.579346
305.2      429.6987   53.207272  19.82752   0.446134   2.494735   2025.913574
305.3      428.833    52.330456  20.03491   0.446899   2.515009   2034.658081
305.4      428.1951   52.579037  20.252718  0.441003   2.524817   2052.299072
305.5      427.785    53.399937  20.367367  0.433578   2.542707   2066.799072
305.6      427.466    54.336132  20.65299   0.426463   2.553943   2078.976318
305.7      426.9647   55.226124  20.897434  0.422904   2.557153   2085.04248
305.8      426.4636   56.100002  21.12458   0.41913    2.549709   2086.848145
305.9      426.2813   56.435493  21.207972  0.4156     2.540566   2081.998535
306        426.4182   56.143169  20.958494  0.412976   2.506275   2076.434082
306.1      427.1474   55.163074  20.773815  0.411409   2.466277   2071.179932
306.2      428.5146   54.983158  20.71974   0.41156    2.421813   2065.283936
306.3      430.4283   54.527054  20.63427   0.411296   2.394006   2055.937988
306.4      432.3421   55.14529   20.664627  0.410856   2.367493   2045.578491
306.5      434.0737   54.776833  20.678839  0.40587    2.358582   2038.145996
306.6      435.5317   55.436008  20.735289  0.400111   2.353527   2033.036865
306.7      436.6252   54.965397  20.844086  0.392592   2.356837   2029.347168
306.8      437.3542   55.508999  20.789995  0.389495   2.354172   2026.739868
306.9      437.7188   55.563946  20.776155  0.389921   2.364357   2025.66626
307        437.8554   57.101753  20.754854  0.397204   2.360871   2025.744019
307.1      437.8358   58.377327  20.879995  0.405673   2.358561   2027.40564
307.2      437.2628   59.095581  21.04031   0.41484    2.349003   2029.474487
307.3      436.2147   58.498009  21.003016  0.419551   2.349232   2030.900879
307.4      434.5742   57.469402  21.030231  0.422475   2.350402   2031.172119
307.5      432.478    55.73859   20.969585  0.420779   2.355671   2031.640869
307.6      429.9718   53.81168   20.920746  0.417966   2.37026    2032.598022
307.7      427.42     52.364849  21.072287  0.413179   2.39728    2034.521362
307.8      424.9594   52.205971  21.392519  0.410949   2.450692   2038.724609
307.9      422.6355   52.130405  21.81156   0.409927   2.513757   2044.248291
308        420.3572   52.791431  22.841093  0.41235    2.584322   2049.79541
308.1      418.3979   53.875244  23.8832    0.412506   2.623022   2053.072754
308.2      417.1222   55.783875  24.291882  0.410137   2.625228   2054.265869
308.3      416.4388   56.222103  23.74008   0.402707   2.579251   2054.401855
308.4      416.2566   56.797729  22.989363  0.395625   2.51922    2052.245361
308.5      416.2567   56.707039  22.918713  0.392438   2.45718    2049.206299
308.6      416.5757   57.45417   23.004827  0.395837   2.408434   2046.378906
308.7      417.3961   58.168083  22.558834  0.40364    2.382795   2045.494629
308.8      418.5808   59.05933   21.746151  0.410572   2.371455   2043.859497
308.9      420.0389   59.87075   21.479128  0.413242   2.359204   2043.609619
309        421.5882   59.417     21.808254  0.411919   2.342846   2044.171143
309.1      423.2285   58.220222  21.804365  0.410118   2.331941   2045.091919
309.2      424.2765   56.361137  21.498575  0.410197   2.330639   2044.326294
309.3      424.9144   55.640625  21.502003  0.412816   2.336511   2044.24585
309.4      425.1878   55.550747  21.466228  0.417272   2.348476   2044.280518
309.5      425.5067   55.811855  21.322704  0.418262   2.368019   2043.274536
309.6      425.3243   55.495701  21.254065  0.414671   2.395509   2041.769043
309.7      424.7319   55.357121  21.256222  0.407073   2.436868   2043.41394
309.8      423.9116   54.789043  21.692457  0.402444   2.464689   2045.976318
309.9      422.9547   53.605022  22.12443   0.400085   2.48283    2048.411377
310        421.5876   52.809582  22.239944  0.400841   2.474351   2049.334961
310.1      420.1295   52.140907  22.070612  0.401508   2.464484   2051.091309
310.2      418.8994   52.030014  21.845573  0.403204   2.439689   2050.301514
310.3      418.3981   52.061932  21.820906  0.403392   2.429245   2047.335083
310.4      417.897    52.18026   22.037485  0.405029   2.425155   2042.446167
310.5      417.8514   52.480164  22.215857  0.406669   2.430867   2039.740356
310.6      417.8059   52.959148  22.045769  0.411456   2.428347   2037.380005
310.7      418.3981   53.640644  21.961006  0.416577   2.415699   2037.52124
310.8      418.1704   54.385708  21.960571  0.426083   2.393555   2037.628662
310.9      418.1247   55.067268  21.808846  0.434221   2.365833   2038.549438
311        417.5326   55.322567  21.671751  0.442054   2.344186   2038.421509
311.1      417.8058   55.605751  21.721815  0.444899   2.322395   2038.311646
311.2      417.6693   54.739895  21.717983  0.446482   2.301603   2035.686035
