~Version
 VERS              .         2.0                           : CWLS LOG ASCII STANDARD - VERSION 2.0
 WRAP              .         NO                            : ONE LINE PER DEPTH STEP
 DLM               .         SPACE                         : DELIMITING CHARACTER(SPACE TAB OR COMMA)
~Well Information
#_______________________________________________________________________________
#
#PARAMETER_NAME    .UNIT     VALUE                         : DESCRIPTION
#_______________________________________________________________________________
STRT               .M        -11.2                         : First reference value
STOP               .M        461.2                         : Last reference value
STEP               .M        0.1                           : Step increment
NULL               .         -9999                         : Missing value
COMP               .                                       : Company
WELL               .         A                             : Well name
FLD                .                                       : Field
LOC                .                                       : Location
CNTY               .                                       : County
STAT               .                                       : State
CTRY               .                                       : Country
SRVC               .                                       : Service Company
DATE               .                                       : Date
API                .                                       : API number
~Parameter Information Block
#_______________________________________________________________________________
#
#PARAMETER_NAME    .UNIT     VALUE                         : DESCRIPTION
#_______________________________________________________________________________
SET                .         Logs                          : 
TLFamily_DEPT      .         Measured Depth                : 
TLFamily_DT        .         Compressional Slowness        : 
TLFamily_GR        .         Gamma Ray                     : 
TLFamily_ILD       .         Resistivity - Deep            : 
TLFamily_NPOR_LIM  .         Thermal Neutron Porosity Limestone: 
TLFamily_PEF       .         Photoelectric Factor          : 
TLFamily_RHO       .         Bulk Density                  : 
~Curve Information
#_______________________________________________________________________________
#
#LOGNAME           .UNIT     LOG_ID                        : DESCRIPTION
#_______________________________________________________________________________
DEPT               .M                                      : Logged depth 
DT                 .us/m                                   : Compressional Slowness 
GR                 .GAPI                                   : MGS Gamma Ray 
ILD                .OHMM                                   : Array Ind. One Res 85 
NPOR_LIM           .V/V                                    : Limestone Neutron Por. 
PEF                .B/E                                    : PE 
RHO                .K/M3                                   : Compensated Density 
~Ascii
# ...
270.1      434.3464   54.391079  24.027836  0.385901   2.797293   2097.319092
270.2      432.6607   54.124779  24.563776  0.389951   3.126485   2128.955566
270.3      431.8861   54.417088  25.859838  0.389381   3.331985   2154.052979
270.4      431.8406   54.009689  26.855436  0.388545   3.323122   2162.70166
270.5      432.6609   53.251396  24.413561  0.388857   3.163271   2149.917725
270.6      433.7091   52.394333  22.357382  0.394473   2.845867   2123.523193
270.7      435.3495   51.807472  21.586739  0.40031    2.520012   2093.068115
270.8      437.4458   51.630894  21.35206   0.407876   2.305378   2070.665527
270.9      440.3165   51.504532  21.708307  0.413635   2.249583   2062.379395
271        443.4151   51.491428  21.846834  0.416496   2.240678   2064.826416
271.1      446.2401   50.555099  21.792122  0.412403   2.21872    2071.137207
271.2      448.245    49.519394  22.194885  0.404817   2.206906   2073.817871
271.3      449.1105   48.612812  22.143654  0.395835   2.194071   2072.983887
271.4      448.8825   50.062901  21.984499  0.388214   2.195727   2070.19165
271.5      447.5609   52.376072  21.658646  0.382028   2.196509   2068.735596
271.6      445.647    56.54287   21.179314  0.379978   2.207413   2068.76001
271.7      443.2776   59.766914  21.085663  0.38118    2.224328   2069.467773
271.8      441.1359   62.266552  20.985853  0.388607   2.24214    2067.731445
271.9      438.9033   62.669579  20.415773  0.400433   2.262689   2064.199707
272        437.7643   62.452957  19.405943  0.418792   2.274004   2057.218994
272.1      437.3997   61.082535  18.299416  0.43555    2.299122   2050.071777
272.2      437.582    60.183064  17.134674  0.452094   2.314749   2046.167236
272.3      437.582    59.793053  16.135384  0.461588   2.344826   2048.279053
272.4      437.6731   60.814106  15.25445   0.470046   2.370725   2055.786865
272.5      437.4908   61.684914  14.600879  0.471038   2.399293   2067.820068
272.6      437.1263   61.536064  14.075072  0.474221   2.405229   2078.98291
272.7      436.7162   60.402905  13.564173  0.473325   2.400588   2085.887207
272.8      436.6707   59.964546  13.754042  0.473522   2.394729   2086.02832
272.9      436.7162   60.032173  14.284963  0.464854   2.392092   2080.851318
273        436.9442   60.683559  14.555584  0.45407    2.412427   2073.37793
273.1      437.2632   61.469429  14.713551  0.438993   2.440825   2067.015137
273.2      437.9011   62.328484  14.837277  0.430072   2.482497   2065.780518
273.3      438.4935   62.83028   15.180434  0.425835   2.491838   2067.005127
273.4      439.2681   62.106861  15.970175  0.431059   2.49747    2070.276367
273.5      439.6781   60.926109  16.736483  0.436123   2.485349   2069.404053
273.6      439.8148   60.401711  16.973282  0.441798   2.475827   2066.109863
273.7      439.5414   60.488853  17.167671  0.442502   2.463989   2061.176514
273.8      439.0857   61.10844   17.722269  0.442149   2.471756   2057.661621
273.9      438.2654   60.840347  17.791103  0.434673   2.472341   2056.811279
274        437.2629   60.150139  17.502668  0.426901   2.456781   2057.074463
274.1      436.3516   58.18148   17.634285  0.417226   2.420363   2057.40332
274.2      435.6682   56.298599  17.566431  0.41116    2.393583   2051.85498
274.3      435.3037   53.962116  17.795189  0.404897   2.377788   2043.635498
274.4      435.3493   52.388199  18.251757  0.402973   2.376082   2035.702881
274.5      435.805    51.29213   18.627817  0.404913   2.381337   2032.973755
274.6      436.4885   51.113541  18.861189  0.407773   2.394249   2031.671387
274.7      437.2631   51.310493  18.691057  0.408356   2.397166   2032.0802 
274.8      437.9922   51.140862  18.69174   0.403562   2.395143   2032.712891
274.9      438.6302   51.268082  19.316576  0.400546   2.383279   2033.674927
275        439.0858   51.020016  19.545012  0.396506   2.377645   2032.234253
275.1      439.3982   51.532589  19.999647  0.398589   2.369165   2031.645874
275.2      439.3592   51.514084  20.281212  0.400825   2.365948   2031.43335
275.3      439.1312   51.899391  20.429829  0.410125   2.353567   2031.525269
275.4      438.6755   51.643005  20.585115  0.418865   2.339953   2027.884155
275.5      437.9008   51.814068  20.573149  0.428115   2.32804    2021.843628
275.6      436.9439   51.31963   20.587255  0.431674   2.339801   2016.823608
275.7      435.8959   50.991196  20.539034  0.432124   2.35243    2016.005737
275.8      434.8934   50.243324  20.517506  0.430102   2.366818   2021.189331
275.9      434.0277   50.772072  20.538456  0.425622   2.380642   2030.259155
276        433.5721   51.74931   20.581953  0.422091   2.391927   2041.669556
276.1      433.4354   52.671398  20.128981  0.418273   2.385972   2048.643066
276.2      433.4354   53.872402  19.610191  0.420125   2.372697   2049.127197
276.3      433.5722   54.047009  19.534395  0.420181   2.371836   2042.796143
276.4      433.8911   54.166531  19.708761  0.419841   2.384407   2034.065186
276.5      434.1645   52.720928  19.408192  0.414092   2.395822   2027.316162
276.6      434.1189   52.036465  19.248732  0.410713   2.408239   2023.801392
276.7      433.8454   50.840069  19.325048  0.409335   2.417887   2022.763184
276.8      433.2073   51.926109  18.999945  0.413483   2.43125    2023.7948 
276.9      432.3416   52.356339  19.670563  0.418642   2.429492   2024.551514
277        431.3392   53.342758  19.783718  0.425298   2.428159   2025.047974
277.1      430.9292   53.454182  19.099066  0.431298   2.410114   2026.571533
277.2      430.7925   53.898388  19.623493  0.436963   2.400573   2031.476074
277.3      430.8836   53.651329  19.395372  0.442904   2.373667   2035.116821
277.4      430.6102   52.8923    19.134689  0.449538   2.354279   2038.353027
277.5      430.3368   52.706974  19.653639  0.455778   2.32933    2038.934204
277.6      429.7444   52.663742  19.555365  0.45778    2.324893   2039.407349
277.7      429.2887   53.134464  19.23287   0.452872   2.315665   2035.741089
277.8      429.0155   52.808884  19.137491  0.442539   2.310158   2032.900024
277.9      429.7088   52.397633  19.587368  0.431401   2.302001   2031.466675
278        430.2722   51.223362  19.505199  0.425314   2.309141   2033.825073
278.1      430.7289   50.783318  19.293142  0.424409   2.316703   2037.018066
278.2      431.1796   51.418175  19.306452  0.428771   2.33524    2042.182373
278.3      431.2679   53.356255  19.236902  0.433388   2.347579   2045.490967
278.4      430.5309   55.822624  19.067453  0.437169   2.368583   2046.820313
278.5      428.3326   57.748466  18.982012  0.435603   2.370553   2044.750732
278.6      423.8136   58.758266  18.570688  0.427757   2.372472   2042.572266
278.7      419.1349   57.886318  17.986425  0.413226   2.403373   2050.672852
278.8      410.9022   56.682476  17.770538  0.393671   2.570508   2085.233154
278.9      384.7916   54.464111  17.776546  0.371535   2.811081   2151.066162
279        365.407    52.924976  17.834688  0.346627   3.165311   2240.542725
279.1      341.4014   50.485737  20.97603   0.321554   3.529995   2331.706055
279.2      321.5316   47.229221  22.517603  0.296687   3.934919   2410.641357
279.3      306.9575   42.889378  19.790861  0.275956   4.163997   2462.028076
279.4      300.3317   40.793228  22.629704  0.259346   4.178845   2470.164307
279.5      298.7846   40.91172   26.704834  0.25091    3.941767   2435.067627
279.6      300.835    43.068905  21.849352  0.252441   3.654866   2387.444824
279.7      301.7609   46.36874   16.302967  0.264447   3.366743   2343.256592
279.8      302.7166   50.196705  15.498556  0.280803   3.1554     2312.342529
279.9      304.3206   53.001259  19.309599  0.296595   3.013168   2286.100342
280        308.8593   53.534214  30.159367  0.308722   2.944861   2262.893311
280.1      316.6821   53.698383  30.144821  0.320949   2.886378   2233.673096
280.2      324.2236   53.982903  21.680756  0.335759   2.77582    2191.681152
280.3      335.4133   54.418606  19.795368  0.356152   2.656929   2142.00708
