~Version
 VERS              .         2.0                           : CWLS LOG ASCII STANDARD - VERSION 2.0
 WRAP              .         NO                            : ONE LINE PER DEPTH STEP
 DLM               .         SPACE                         : DELIMITING CHARACTER(SPACE TAB OR COMMA)
~Well Information
#_______________________________________________________________________________
#
#PARAMETER_NAME    .UNIT     VALUE                         : DESCRIPTION
#_______________________________________________________________________________
STRT               .M        -11.2                         : First reference value
STOP               .M        461.2                         : Last reference value
STEP               .M        0.1                           : Step increment
NULL               .         -9999                         : Missing value
COMP               .                                       : Company
WELL               .         A                             : Well name
FLD                .                                       : Field
LOC                .                                       : Location
CNTY               .                                       : County
STAT               .                                       : State
CTRY               .                                       : Country
SRVC               .                                       : Service Company
DATE               .                                       : Date
API                .                                       : API number
~Parameter Information Block
#_______________________________________________________________________________
#
#PARAMETER_NAME    .UNIT     VALUE                         : DESCRIPTION
#_______________________________________________________________________________
SET                .         Logs                          : 
TLFamily_DEPT      .         Measured Depth                : 
TLFamily_DT        .         Compressional Slowness        : 
TLFamily_GR        .         Gamma Ray                     : 
TLFamily_ILD       .         Resistivity - Deep            : 
TLFamily_NPOR_LIM  .         Thermal Neutron Porosity Limestone: 
TLFamily_PEF       .         Photoelectric Factor          : 
TLFamily_RHO       .         Bulk Density                  : 
~Curve Information
#_______________________________________________________________________________
#
#LOGNAME           .UNIT     LOG_ID                        : DESCRIPTION
#_______________________________________________________________________________
DEPT               .M                                      : Logged depth 
DT                 .us/m                                   : Compressional Slowness 
GR                 .GAPI                                   : MGS Gamma Ray 
ILD                .OHMM                                   : Array Ind. One Res 85 
NPOR_LIM           .V/V                                    : Limestone Neutron Por. 
PEF                .B/E                                    : PE 
RHO                .K/M3                                   : Compensated Density 
~Ascii
# ...
239.6      418.4438   76.169281  13.752457  0.378208   2.3588     2197.959961
239.7      418.5349   74.39194500000001 13.941395  0.376101   2.352612   2194.023926
239.8      418.8084   71.991257  14.583265  0.37405    2.332892   2185.370361
239.9      419.4464   71.67102800000001 14.907144  0.373368   2.311433   2175.367188
240        419.9932   72.489082  15.114655  0.372921   2.28609    2167.76001
240.1      420.3576   74.732811  15.468114  0.370081   2.282999   2160.970459
240.2      420.6311   75.88005800000001 15.330129  0.365864   2.265814   2162.11792
240.3      420.9956   77.396255  15.124366  0.360807   2.256827   2163.858398
240.4      421.4057   76.488899  15.082509  0.357621   2.240592   2166.25293
240.5      421.9526   75.35322600000001 15.116737  0.355175   2.238222   2163.284424
240.6      422.5905   72.44414500000001 15.299126  0.358811   2.229894   2161.964844
240.7      423.4107   70.746437  15.610652  0.364792   2.242002   2157.731445
240.8      424.2309   68.23996699999999 15.930533  0.374069   2.250715   2151.466797
240.9      425.0967   65.99007400000001 16.593494  0.37964    2.262717   2143.862305
241        425.9625   63.145618  17.123838  0.384501   2.260825   2138.310791
241.1      426.5547   61.92664   16.868715  0.384734   2.261982   2135.702148
241.2      426.737    61.142532  16.647728  0.383379   2.246842   2136.236328
241.3      426.8737   61.650326  17.000154  0.379171   2.224322   2140.218506
241.4      426.8737   62.05101   16.509285  0.375892   2.206252   2142.221436
241.5      426.7825   62.64164   16.155846  0.3727     2.202468   2142.509033
241.6      426.3268   62.975101  16.734035  0.370337   2.201437   2142.142822
241.7      425.9167   63.677994  16.627844  0.367754   2.216084   2141.419434
241.8      425.1876   65.003151  16.345387  0.367581   2.24901    2141.723389
241.9      424.5042   66.95420799999999 16.382532  0.368947   2.287686   2142.468994
242        424.003    69.99015   15.24037   0.371557   2.299371   2147.415039
242.1      424.2764   73.175827  14.343205  0.371559   2.310375   2151.718506
242.2      424.5499   76.78877300000001 13.499147  0.369666   2.307985   2157.685059
242.3      425.0966   79.937477  13.261492  0.365523   2.337433   2161.907959
242.4      425.3245   83.747826  13.485511  0.361308   2.356907   2166.734863
242.5      425.689    85.8853    13.214574  0.358835   2.397874   2171.744873
242.6      425.7803   87.432861  12.624912  0.35983    2.405871   2179.318115
242.7      426.3726   87.91346   12.397598  0.365223   2.412472   2185.066162
242.8      427.0107   87.544853  12.066932  0.37185    2.369118   2188.26416
242.9      428.2409   84.531509  12.096893  0.381139   2.337274   2188.081055
243        429.1977   80.12442799999999 12.705935  0.39213    2.364038   2184.70166
243.1      430.1709   74.17424   13.38057   0.405594   2.46308    2176.27124
243.2      430.9293   68.10157   14.686949  0.417792   2.589772   2164.052002
243.3      431.6584   62.363148  16.316063  0.427154   2.674759   2149.635254
243.4      432.2508   58.645267  16.556002  0.432295   2.712861   2136.575684
243.5      432.8887   55.948254  17.020935  0.432743   2.689304   2122.32251
243.6      433.6177   53.737926  17.326664  0.430465   2.627052   2113.667725
243.7      434.438    51.492374  17.323488  0.426426   2.563526   2108.936768
243.8      435.1215   49.503246  17.72669   0.424703   2.513405   2108.560791
243.9      435.6228   47.088493  17.342497  0.423258   2.484154   2105.075195
244        435.9872   45.625648  17.189062  0.421626   2.419838   2100.243408
244.1      436.1694   45.615479  17.164364  0.416279   2.343899   2094.783691
244.2      436.1239   47.115337  17.35288   0.409703   2.290376   2092.258789
244.3      435.896    49.402538  17.056591  0.402178   2.295337   2094.650635
244.4      435.4858   52.916122  16.02668   0.395957   2.360099   2106.26123
244.5      434.8478   57.343533  14.738391  0.391894   2.423589   2126.089355
244.6      433.7998   61.743538  14.522354  0.392773   2.495664   2147.641113
244.7      432.3872   65.86595199999999 14.545759  0.398334   2.481513   2161.491943
244.8      430.7467   70.76554899999999 14.588373  0.405573   2.431765   2164.081787
244.9      429.0608   77.23983   15.969584  0.412094   2.324889   2153.739014
245        427.466    85.21468400000001 17.73127   0.414915   2.262815   2136.239014
245.1      426.4635   93.50887299999999 18.830488  0.413581   2.193009   2115.690918
245.2      426.0535   101.405251 19.840797  0.405734   2.163947   2099.575684
245.3      426.327    107.335381 20.804501  0.393865   2.149353   2091.487305
245.4      427.0106   110.830658 21.175039  0.377575   2.173748   2092.113525
245.5      428.2865   111.095253 20.613375  0.362128   2.187923   2098.717773
245.6      429.6535   109.769264 19.448225  0.349272   2.204923   2106.24707
245.7      431.066    109.004776 19.324398  0.344559   2.21049    2111.635986
245.8      432.2052   110.380943 20.512968  0.344707   2.226708   2111.071045
245.9      433.1165   111.823051 21.062994  0.349181   2.231269   2104.829346
246        433.481    110.979256 21.09676   0.354661   2.243467   2095.673096
246.1      433.2986   108.122543 21.396471  0.360133   2.248898   2090.019043
246.2      432.7062   104.093399 21.743488  0.361344   2.253221   2090.484619
246.3      431.886    98.286339  22.186169  0.357346   2.23339    2094.986816
246.4      431.157    91.529709  22.459774  0.351505   2.199592   2101.281982
246.5      430.7014   86.363022  22.718243  0.345936   2.154682   2104.376465
246.6      430.5191   84.514847  22.968109  0.343107   2.120274   2103.988037
246.7      430.4279   83.248001  22.832712  0.341232   2.098581   2099.832275
246.8      430.2456   81.209526  22.721317  0.342665   2.095212   2094.394287
246.9      429.7443   78.79183999999999 21.823776  0.346108   2.089522   2087.509277
247        428.3772   76.70665   20.879208  0.35172    2.085927   2082.610107
247.1      426.9191   74.10803199999999 21.260437  0.356897   2.080397   2079.26416
247.2      425.0964   71.386223  21.77693   0.360764   2.080874   2078.313477
247.3      423.8205   69.353348  21.972836  0.363776   2.08695    2079.926025
247.4      422.5448   68.674942  21.946047  0.36575    2.105636   2087.003662
247.5      422.0891   69.780907  20.787775  0.366695   2.135666   2098.853271
247.6      421.5879   72.081627  19.401508  0.367122   2.180818   2111.394287
247.7      421.36     74.648567  18.843761  0.369482   2.224206   2123.220459
247.8      420.7676   76.91347500000001 18.250433  0.373097   2.269471   2133.529541
247.9      420.3575   80.346504  17.343716  0.375944   2.308322   2141.782227
248        419.7651   83.801765  16.608601  0.376408   2.339485   2147.751221
248.1      419.2184   87.84618399999999 15.978141  0.374515   2.346072   2151.211182
248.2      418.8539   90.16347500000001 15.308555  0.371397   2.337791   2152.067627
248.3      418.7172   92.784187  14.864431  0.368287   2.31936    2151.67749
248.4      418.854    92.92177599999999 14.478495  0.367654   2.31076    2150.985596
248.5      419.2641   92.448769  14.300444  0.36945    2.323289   2149.575928
248.6      419.9476   90.576515  14.531031  0.371241   2.34686    2147.793701
248.7      420.5399   90.20571099999999 14.702811  0.373366   2.374521   2145.789307
248.8      420.6765   91.044579  14.60864   0.377008   2.397871   2145.699219
248.9      420.1297   93.77299499999999 14.324948  0.38375    2.408954   2147.009521
249        419.2639   96.591881  13.966442  0.390971   2.39844    2149.495361
249.1      418.2614   97.45240800000001 13.691281  0.399089   2.362109   2151.624023
249.2      417.6692   97.10237100000001 13.635092  0.406866   2.325308   2153.931885
249.3      417.5325   95.415115  13.912121  0.414087   2.285101   2153.330811
249.4      418.0338   93.202499  14.337332  0.416426   2.252995   2149.169189
249.5      418.5515   91.347641  14.562852  0.414357   2.222541   2142.194336
249.6      420.3577   91.744148  14.571613  0.40832    2.222494   2139.101807
