~Version
 VERS              .         2.0                           : CWLS LOG ASCII STANDARD - VERSION 2.0
 WRAP              .         NO                            : ONE LINE PER DEPTH STEP
 DLM               .         SPACE                         : DELIMITING CHARACTER(SPACE TAB OR COMMA)
~Well Information
#_______________________________________________________________________________
#
#PARAMETER_NAME    .UNIT     VALUE                         : DESCRIPTION
#_______________________________________________________________________________
STRT               .M        -11.2                         : First reference value
STOP               .M        461.2                         : Last reference value
STEP               .M        0.1                           : Step increment
NULL               .         -9999                         : Missing value
COMP               .                                       : Company
WELL               .         A                             : Well name
FLD                .                                       : Field
LOC                .                                       : Location
CNTY               .                                       : County
STAT               .                                       : State
CTRY               .                                       : Country
SRVC               .                                       : Service Company
DATE               .                                       : Date
API                .                                       : API number
~Parameter Information Block
#_______________________________________________________________________________
#
#PARAMETER_NAME    .UNIT     VALUE                         : DESCRIPTION
#_______________________________________________________________________________
SET                .         Logs                          : 
TLFamily_DEPT      .         Measured Depth                : 
TLFamily_DT        .         Compressional Slowness        : 
TLFamily_GR        .         Gamma Ray                     : 
TLFamily_ILD       .         Resistivity - Deep            : 
TLFamily_NPOR_LIM  .         Thermal Neutron Porosity Limestone: 
TLFamily_PEF       .         Photoelectric Factor          : 
TLFamily_RHO       .         Bulk Density                  : 
~Curve Information
#_______________________________________________________________________________
#
#LOGNAME           .UNIT     LOG_ID                        : DESCRIPTION
#_______________________________________________________________________________
DEPT               .M                                      : Logged depth 
DT                 .us/m                                   : Compressional Slowness 
GR                 .GAPI                                   : MGS Gamma Ray 
ILD                .OHMM                                   : Array Ind. One Res 85 
NPOR_LIM           .V/V                                    : Limestone Neutron Por. 
PEF                .B/E                                    : PE 
RHO                .K/M3                                   : Compensated Density 
~Ascii
# ...
412.4      389.4627   40.687092  86.005066  0.361881   1.945193   2102.108398
412.5      388.4148   45.703358  50.827583  0.354771   2.06734    2132.833984
412.6      387.6402   51.616276  24.96973   0.349524   2.167951   2165.21167
412.7      386.9111   55.336338  21.29344   0.350091   2.220408   2185.246094
412.8      386.4555   55.785488  21.773787  0.354762   2.208216   2186.996338
412.9      386.1366   52.842323  29.578611  0.359828   2.126513   2166.872803
413        386.1822   47.718319  48.26899   0.361743   2.001168   2135.265137
413.1      386.319    41.37891   78.19497699999999 0.359609   1.89631    2102.27417
413.2      386.6379   36.299809  99.657646  0.353991   1.846427   2079.462891
413.3      386.7745   33.853195  106.729515 0.346069   1.824664   2068.485107
413.4      386.5921   33.592873  109.47699  0.340183   1.812376   2067.699219
413.5      385.9085   34.333263  114.449295 0.338912   1.812863   2068.802246
413.6      384.9059   34.795689  100.873962 0.342397   1.826525   2068.993896
413.7      383.6756   35.858677  84.474327  0.347308   1.8426     2067.273926
413.8      382.4454   36.591747  85.59493999999999 0.351239   1.851812   2066.897217
413.9      381.3519   37.701771  97.98384900000001 0.352476   1.860935   2067.63623
414        380.5317   38.710926  99.07382200000001 0.351134   1.859407   2076.440918
414.1      380.0761   40.661022  90.763786  0.349784   1.874891   2092.600342
414.2      379.8939   42.708794  77.200081  0.349642   1.889219   2116.932861
414.3      380.0307   44.838207  55.19175   0.350956   1.915816   2139.242676
414.4      380.3498   45.945114  39.411823  0.353014   1.921743   2153.56958
414.5      380.851    45.321426  41.271145  0.356224   1.925769   2151.809326
414.6      381.3978   42.968845  55.783756  0.358666   1.907172   2132.581787
414.7      382.127    39.510342  76.400688  0.359708   1.880899   2101.986084
414.8      383.1296   36.536667  99.724739  0.360614   1.848796   2073.588379
414.9      384.4055   34.562546  120.397888 0.362209   1.837116   2055.105225
415        385.9548   35.288696  131.690918 0.363012   1.8479     2050.752441
415.1      387.5953   39.006714  117.912933 0.360489   1.874299   2062.01001
415.2      389.19     43.788685  82.217583  0.355786   1.908948   2082.365967
415.3      390.3747   46.908081  56.594147  0.351994   1.933045   2101.985596
415.4      391.2859   47.114998  44.912624  0.35301    1.936077   2110.94873
415.5      391.8783   44.382648  49.933559  0.360061   1.917507   2106.242188
415.6      392.334    38.97699   76.039146  0.370841   1.884705   2088.460693
415.7      392.7896   32.50626   105.015945 0.381513   1.855639   2063.736084
415.8      393.5187   27.800352  128.552689 0.389167   1.836964   2039.230225
415.9      394.2383   25.698198  148.923813 0.392633   1.840654   2026.003174
416        395.5238   25.400311  158.960144 0.3912     1.855314   2023.825562
416.1      396.5263   26.184151  162.142273 0.387722   1.871304   2030.091187
416.2      397.3918   27.581966  161.797974 0.385635   1.87374    2037.423706
416.3      397.8018   28.858089  160.694962 0.386577   1.880039   2041.823364
416.4      397.6649   29.405449  162.324432 0.38764    1.887493   2041.952026
416.5      397.118    30.438625  158.330032 0.388286   1.894018   2040.445557
416.6      396.2978   31.859165  144.274765 0.389327   1.891876   2039.998047
416.7      395.2953   33.442528  126.265198 0.390619   1.888936   2044.285767
416.8      394.2473   34.85252   112.426353 0.388494   1.887864   2053.754395
416.9      393.1992   36.781567  91.961777  0.382927   1.886911   2069.76123
417        392.0144   40.522556  66.008492  0.376714   1.902471   2091.793701
417.1      390.6017   45.201504  48.576916  0.371198   1.932786   2120.556885
417.2      389.0524   50.701832  39.179405  0.365294   1.973725   2151.044189
417.3      387.5945   55.663456  31.308546  0.359867   2.004067   2180.461426
417.4      386.4553   60.028725  28.722267  0.357607   2.023856   2201.771973
417.5      385.5898   62.113358  27.87236   0.357386   2.033902   2211.487305
417.6      385.4077   61.34536   27.797472  0.356429   2.026008   2205.858643
417.7      385.8637   57.906513  29.282145  0.352936   2.002759   2185.514648
417.8      387.2309   53.237095  33.445522  0.349126   1.963551   2154.609619
417.9      389.236    48.078754  49.601624  0.345335   1.922059   2118.943115
418        391.8334   42.432163  75.604454  0.343811   1.868734   2087.176758
418.1      394.4761   38.224815  84.944992  0.345263   1.831642   2062.945068
418.2      396.7087   36.228558  81.55798299999999 0.352027   1.818198   2052.753906
418.3      398.121    36.215897  73.24633799999999 0.359727   1.834242   2054.192871
418.4      398.6676   38.251728  67.0214    0.365213   1.870501   2067.517822
418.5      398.6674   40.831154  57.665371  0.363932   1.915037   2085.186035
418.6      398.2118   43.552784  45.249012  0.35834    1.967409   2104.828369
418.7      397.7105   43.988461  35.534821  0.351307   1.993364   2118.079834
418.8      397.1638   43.145634  33.430096  0.347807   1.996301   2124.008301
418.9      396.8448   39.991917  39.268093  0.350713   1.966094   2117.690918
419        396.6171   36.367104  59.725445  0.358988   1.928446   2101.815186
419.1      396.4804   31.988337  78.42963399999999 0.369549   1.876914   2079.246338
419.2      396.3893   29.216038  88.666847  0.377265   1.842467   2056.433105
419.3      396.2981   27.202188  94.30159   0.382314   1.820115   2038.518066
419.4      396.1613   26.492825  89.165588  0.385218   1.812987   2030.685181
419.5      395.8879   26.669941  79.240234  0.388896   1.820122   2033.907471
419.6      395.6145   27.230555  67.512154  0.393027   1.8285     2044.224243
419.7      395.2956   27.576105  53.47752   0.397973   1.839904   2055.961182
419.8      394.9766   27.756487  42.740612  0.401143   1.850632   2064.55249
419.9      394.5665   27.890368  51.599899  0.401071   1.867625   2067.643799
420        394.1563   27.766628  76.244034  0.398532   1.868313   2064.025635
420.1      393.7007   27.83061   88.109306  0.397772   1.862999   2055.813232
420.2      393.3818   28.481525  98.005219  0.399198   1.85103    2047.155396
420.3      393.2451   29.224779  116.124191 0.401224   1.846318   2040.545532
420.4      393.4732   30.129251  125.780922 0.401068   1.836712   2036.449707
420.5      394.0656   30.643196  124.895897 0.399895   1.829572   2033.121826
420.6      394.9771   31.872828  128.485825 0.397456   1.832048   2031.055786
420.7      396.025    32.643482  139.410843 0.394312   1.836298   2028.346558
420.8      397.1187   33.233574  141.658386 0.391959   1.838068   2027.446777
420.9      398.349    32.942055  143.130524 0.391842   1.836746   2025.747437
421        399.7162   32.501087  148.687622 0.394279   1.840656   2025.471436
421.1      401.311    31.745525  145.894547 0.395715   1.839192   2023.214478
421.2      402.9514   31.174377  121.202271 0.396979   1.837677   2022.236938
421.3      404.5917   30.378138  86.67467499999999 0.396728   1.833442   2019.99646
421.4      405.8675   29.966717  75.068871  0.398422   1.837211   2019.737061
421.5      406.7333   29.3962    96.00145000000001 0.398618   1.836959   2018.460571
421.6      407.6446   29.016855  116.734192 0.399288   1.839969   2018.715454
421.7      408.7384   29.061005  129.09433  0.396242   1.839352   2019.529419
421.8      409.9229   29.729698  126.811584 0.390737   1.836672   2020.317749
421.9      410.6975   31.354023  111.265121 0.380684   1.827086   2024.611572
422        411.1074   32.529991  103.786789 0.372534   1.833341   2031.796509
422.1      410.7882   33.497665  120.226555 0.368999   1.837343   2042.919678
422.2      409.8312   33.858406  114.963951 0.372414   1.846882   2050.826416
422.3      408.6885   34.483692  95.73700700000001 0.381017   1.853702   2056.514893
422.4      406.9603   33.953735  115.433693 0.393398   1.87042    2056.576904
422.5      405.5021   33.666573  145.816605 0.406342   1.872406   2054.361572
