~Version
 VERS              .         2.0                           : CWLS LOG ASCII STANDARD - VERSION 2.0
 WRAP              .         NO                            : ONE LINE PER DEPTH STEP
 DLM               .         SPACE                         : DELIMITING CHARACTER(SPACE TAB OR COMMA)
~Well Information
#_______________________________________________________________________________
#
#PARAMETER_NAME    .UNIT     VALUE                         : DESCRIPTION
#_______________________________________________________________________________
STRT               .M        -11.2                         : First reference value
STOP               .M        461.2                         : Last reference value
STEP               .M        0.1                           : Step increment
NULL               .         -9999                         : Missing value
COMP               .                                       : Company
WELL               .         A                             : Well name
FLD                .                                       : Field
LOC                .                                       : Location
CNTY               .                                       : County
STAT               .                                       : State
CTRY               .                                       : Country
SRVC               .                                       : Service Company
DATE               .                                       : Date
API                .                                       : API number
~Parameter Information Block
#_______________________________________________________________________________
#
#PARAMETER_NAME    .UNIT     VALUE                         : DESCRIPTION
#_______________________________________________________________________________
SET                .         Logs                          : 
TLFamily_DEPT      .         Measured Depth                : 
TLFamily_DT        .         Compressional Slowness        : 
TLFamily_GR        .         Gamma Ray                     : 
TLFamily_ILD       .         Resistivity - Deep            : 
TLFamily_NPOR_LIM  .         Thermal Neutron Porosity Limestone: 
TLFamily_PEF       .         Photoelectric Factor          : 
TLFamily_RHO       .         Bulk Density                  : 
~Curve Information
#_______________________________________________________________________________
#
#LOGNAME           .UNIT     LOG_ID                        : DESCRIPTION
#_______________________________________________________________________________
DEPT               .M                                      : Logged depth 
DT                 .us/m                                   : Compressional Slowness 
GR                 .GAPI                                   : MGS Gamma Ray 
ILD                .OHMM                                   : Array Ind. One Res 85 
NPOR_LIM           .V/V                                    : Limestone Neutron Por. 
PEF                .B/E                                    : PE 
RHO                .K/M3                                   : Compensated Density 
~Ascii
# ...
118.5      543.9815   126.265839 7.89374    0.5273     2.846976   2099.757324
118.6      543.7992   124.122818 7.933918   0.517988   2.856843   2101.15332
118.7      543.6625   122.11187  7.98035    0.508436   2.873338   2102.524658
118.8      543.5258   121.90416  8.006406   0.5031369999999999 2.883847   2105.339844
118.9      543.3891   122.747414 8.025418   0.502545   2.886927   2108.973389
119        543.1613   124.204971 8.047037   0.503462   2.878235   2112.071777
119.1      542.9335   124.308693 8.053129999999999 0.503265   2.857318   2113.11377
119.2      542.7056   125.007835 8.07286    0.502342   2.836247   2112.953613
119.3      542.6144   124.614662 8.086862   0.498365   2.819539   2114.60791
119.4      542.5689   124.662476 8.138157   0.494512   2.808379   2114.97583
119.5      542.6144   123.968857 8.248562   0.490664   2.802688   2116.930664
119.6      542.7056   123.807404 8.381618   0.494064   2.804904   2118.652588
119.7      542.8423   122.96875  8.293900000000001 0.500426   2.807818   2122.302979
119.8      542.9334   122.247086 8.102027   0.513278   2.806773   2123.233398
119.9      542.979    121.560097 8.154112   0.524069   2.803977   2125.109619
120        542.9334   121.902916 8.222715000000001 0.5328000000000001 2.807263   2125.562256
120.1      542.7512   122.02121  8.236238   0.529491   2.810311   2128.096436
120.2      542.3866   122.984818 8.345535999999999 0.517875   2.807928   2128.826904
120.3      541.8854   122.815804 8.45575    0.500309   2.813683   2131.576904
120.4      541.3386   123.327873 8.468678000000001 0.484813   2.828721   2133.08374
120.5      540.7917   123.031349 8.519856000000001 0.475331   2.841459   2135.658936
120.6      540.2905   124.726639 8.583614000000001 0.472697   2.855057   2133.498779
120.7      539.8349   126.634727 8.623870999999999 0.479546   2.869755   2131.084473
120.8      539.5159   129.904846 8.583227000000001 0.488953   2.878867   2126.593018
120.9      539.1514   131.478378 8.589599   0.498624   2.877909   2123.807373
121        538.7868   130.594025 8.499701   0.499045   2.869023   2122.114746
121.1      538.2856   126.870392 8.369998000000001 0.497624   2.856711   2125.682861
121.2      537.8299   123.565193 8.187112000000001 0.494338   2.831309   2133.738037
121.3      537.3287   121.85955  8.067581000000001 0.499145   2.808228   2141.28125
121.4      536.9641   122.093529 8.013204   0.506949   2.795713   2145.754395
121.5      536.7005   123.964287 8.123806   0.51747    2.797397   2144.585693
121.6      536.5084   126.557961 8.176575   0.521443   2.796211   2143.325439
121.7      536.2806   128.582428 8.101870999999999 0.51758    2.805137   2138.114258
121.8      535.9616   127.87542  8.062080999999999 0.504312   2.822327   2133.740234
121.9      535.5971   127.046623 7.97919    0.485912   2.835724   2129.723145
122        535.2325   126.438522 7.954772   0.466496   2.840627   2130.308594
122.1      535.0048   128.538925 7.937026   0.45218    2.842271   2129.935303
122.2      534.868    131.647766 7.830642   0.442966   2.848523   2129.198975
122.3      534.8224   136.432846 7.617748   0.442243   2.84743    2130.409424
122.4      534.6857   140.066635 7.257215   0.448721   2.843182   2134.217285
122.5      534.2756   142.281281 6.66151    0.466189   2.833506   2138.684082
122.6      533.4099   140.661926 6.410875   0.483832   2.823242   2141.004639
122.7      532.1796   136.345856 7.031774   0.498987   2.804019   2143.63208
122.8      530.6758   131.222412 7.571335   0.501654   2.789635   2143.254395
122.9      528.8987   128.579422 7.926157   0.496953   2.788958   2141.321533
123        526.9849   129.616669 8.074585000000001 0.48232    2.819771   2141.102539
123.1      525.0256   134.274704 8.382038   0.466832   2.864346   2147.152588
123.2      523.1573   140.458984 9.174597   0.451439   2.907342   2156.391602
123.3      521.2434   144.959915 10.177715  0.438966   2.929245   2167.944092
123.4      519.4663   144.814011 10.588146  0.425732   2.94495    2177.792725
123.5      517.9171   140.830292 10.478494  0.413338   2.933043   2185.188477
123.6      516.7778   134.723404 10.109676  0.406946   2.902812   2187.767822
123.7      515.9576   128.743195 10.1074    0.409175   2.868307   2185.939697
123.8      515.6387   124.433868 9.976208   0.4207     2.85559    2179.421875
123.9      515.8665   121.913116 9.667551   0.436547   2.842506   2170.983887
124        516.7778   119.92997  9.577223   0.452868   2.825049   2165.527588
124.1      518.236    118.928345 9.441004   0.463356   2.810884   2157.90332
124.2      520.1954   118.021835 9.189505   0.4654     2.795524   2150.443604
124.3      522.4739   117.90168  9.055996   0.462658   2.772291   2141.643066
124.4      524.9344   119.075577 8.971564000000001 0.459442   2.739593   2137.749268
124.5      527.2128   121.508408 9.034952000000001 0.459103   2.727017   2128.516846
124.6      529.2177   124.385368 9.115326   0.45867    2.727304   2118.071289
124.7      530.8126   126.452011 9.005347   0.460332   2.738521   2107.952148
124.8      532.0429   127.964249 8.778803   0.46031    2.76332    2104.218262
124.9      532.9086   127.928131 8.787558000000001 0.460853   2.783655   2102.654541
125        533.501    127.17662  8.994558   0.458679   2.792573   2107.346924
125.1      533.8199   124.447945 9.12326    0.458977   2.779708   2117.057617
125.2      533.8655   121.401543 9.171269000000001 0.461271   2.78318    2128.113281
125.3      533.7289   118.413498 9.304587   0.466541   2.779216   2133.90625
125.4      533.501    117.297226 9.327341000000001 0.474199   2.792575   2137.349854
125.5      533.3188   117.020851 9.183069   0.48257    2.799409   2139.11499
125.6      533.2276   117.13118  9.024751   0.493013   2.8195     2143.795166
125.7      533.4099   118.21801  8.813113   0.500567   2.816784   2147.605225
125.8      533.8656   120.761116 8.639462   0.508424   2.808998   2150.148193
125.9      534.5946   122.864037 8.54415    0.511563   2.795768   2142.938477
126        535.4604   126.058365 8.444098   0.51811    2.795124   2126.922852
126.1      536.4173   130.298065 7.93573    0.523967   2.796192   2103.706787
126.2      537.2831   135.992767 7.396109   0.534751   2.797017   2082.344727
126.3      538.0121   141.199127 7.015624   0.544013   2.786771   2067.120605
126.4      538.5134   147.152344 6.727862   0.552153   2.766311   2063.079834
126.5      538.8779   151.515701 6.544415   0.551744   2.748453   2066.145264
126.6      539.1514   155.147964 6.378535   0.54608    2.735136   2071.553955
126.7      539.4703   155.4384   6.262405   0.537423   2.732139   2073.036133
126.8      539.8349   154.251205 6.183997   0.530375   2.749823   2071.20459
126.9      540.2905   150.171814 6.191414   0.523964   2.777456   2068.402832
127        540.7917   147.457977 6.251279   0.51862    2.793051   2068.620605
127.1      541.293    144.626205 6.297397   0.517032   2.796806   2072.725342
127.2      541.7487   146.145859 6.168924   0.517245   2.823263   2077.172119
127.3      542.2043   149.222275 5.95426    0.521182   2.856911   2079.977051
127.4      542.7056   155.730576 5.807349   0.525581   2.886584   2077.616699
127.5      543.298    159.687103 5.648641   0.535351   2.90608    2071.985596
127.6      544.0726   160.259308 5.493777   0.544099   2.942135   2060.612549
127.7      545.0295   154.77977  5.383655   0.552038   2.95272    2055.611816
127.8      546.0776   146.379013 5.234853   0.553679   2.929388   2056.797607
127.9      546.9043   135.946548 4.930152   0.554958   2.884304   2065.652832
128        547.4446   126.177963 4.351169   0.558167   2.834618   2074.556396
128.1      547.5813   119.057724 3.724029   0.567052   2.768268   2085.613037
128.2      547.4902   114.68058  3.23702    0.579087   2.68853    2091.431396
128.3      547.3079   112.098991 2.932324   0.596355   2.623021   2086.727051
128.4      547.2623   110.657753 2.772163   0.6200639999999999 2.568886   2073.412109
128.5      547.5357   110.861137 2.674599   0.648404   2.530086   2055.840576
