~Version
 VERS              .         2.0                           : CWLS LOG ASCII STANDARD - VERSION 2.0
 WRAP              .         NO                            : ONE LINE PER DEPTH STEP
 DLM               .         SPACE                         : DELIMITING CHARACTER(SPACE TAB OR COMMA)
~Well Information
#_______________________________________________________________________________
#
#PARAMETER_NAME    .UNIT     VALUE                         : DESCRIPTION
#_______________________________________________________________________________
STRT               .M        -11.2                         : First reference value
STOP               .M        461.2                         : Last reference value
STEP               .M        0.1                           : Step increment
NULL               .         -9999                         : Missing value
COMP               .                                       : Company
WELL               .         A                             : Well name
FLD                .                                       : Field
LOC                .                                       : Location
CNTY               .                                       : County
STAT               .                                       : State
CTRY               .                                       : Country
SRVC               .                                       : Service Company
DATE               .                                       : Date
API                .                                       : API number
~Parameter Information Block
#_______________________________________________________________________________
#
#PARAMETER_NAME    .UNIT     VALUE                         : DESCRIPTION
#_______________________________________________________________________________
SET                .         Logs                          : 
TLFamily_DEPT      .         Measured Depth                : 
TLFamily_DT        .         Compressional Slowness        : 
TLFamily_GR        .         Gamma Ray                     : 
TLFamily_ILD       .         Resistivity - Deep            : 
TLFamily_NPOR_LIM  .         Thermal Neutron Porosity Limestone: 
TLFamily_PEF       .         Photoelectric Factor          : 
TLFamily_RHO       .         Bulk Density                  : 
~Curve Information
#_______________________________________________________________________________
#
#LOGNAME           .UNIT     LOG_ID                        : DESCRIPTION
#_______________________________________________________________________________
DEPT               .M                                      : Logged depth 
DT                 .us/m                                   : Compressional Slowness 
GR                 .GAPI                                   : MGS Gamma Ray 
ILD                .OHMM                                   : Array Ind. One Res 85 
NPOR_LIM           .V/V                                    : Limestone Neutron Por. 
PEF                .B/E                                    : PE 
RHO                .K/M3                                   : Compensated Density 
~Ascii
# ...
179        479.0479   80.878365  4.633614   0.465509   2.88099    2201.370117
179.1      474.5008   71.81603200000001 5.996101   0.446852   2.975751   2227.69458
179.2      468.2485   64.626938  7.284272   0.426144   2.938289   2249.879639
179.3      463.2816   61.484657  7.917207   0.405344   2.849373   2259.957275
179.4      458.4515   62.559902  7.689419   0.384462   2.671736   2261.789307
179.5      453.8948   66.258331  7.000922   0.367114   2.519511   2254.793213
179.6      450.0672   70.471687  6.431641   0.355266   2.434201   2242.662598
179.7      447.1511   74.81218699999999 5.951039   0.350453   2.500905   2238.135986
179.8      445.5563   77.443962  5.584668   0.355496   2.728092   2239.753906
179.9      445.283    79.52814499999999 5.528317   0.368165   2.940272   2249.243164
180        446.1032   80.799713  5.54247    0.387731   3.096057   2252.425293
180.1      447.1968   83.89589700000001 5.463824   0.410825   3.088392   2251.127686
180.2      448.5639   87.084785  4.696985   0.440166   3.037955   2237.982666
180.3      449.6574   91.60002900000001 3.838874   0.467667   2.960747   2215.074463
180.4      450.8422   94.05761699999999 3.210971   0.489529   2.91819    2184.507813
180.5      451.6169   95.49195899999999 2.933392   0.498898   2.915581   2165.848633
180.6      452.8927   93.50979599999999 3.0897     0.498341   2.955686   2156.522217
180.7      454.3965   91.579033  3.454447   0.486608   2.988385   2156.167725
180.8      456.5381   89.18291499999999 3.798583   0.470146   2.901772   2154.407715
180.9      458.543    87.56259900000001 4.103697   0.455375   2.765514   2154.438721
181        460.4569   85.385864  4.232081   0.448408   2.614316   2147.606689
181.1      461.7327   83.51958500000001 4.263117   0.445656   2.571738   2139.767578
181.2      462.2794   82.33719600000001 4.265875   0.443745   2.547716   2129.756348
181.3      462.3706   81.784058  4.269004   0.440896   2.518125   2127.974854
181.4      462.3706   81.887871  4.259942   0.439877   2.497635   2125.353271
181.5      462.7807   82.172432  4.287009   0.438789   2.491408   2124.403809
181.6      463.3275   84.262497  4.369361   0.437533   2.492288   2121.771973
181.7      463.9199   86.396156  4.445468   0.432264   2.484617   2120.367188
181.8      464.1933   88.934471  4.421679   0.426639   2.467487   2120.343018
181.9      464.2388   90.520523  4.338404   0.419266   2.44328    2120.733887
182        463.9655   92.98054500000001 4.267076   0.413352   2.419101   2119.182861
182.1      463.5097   94.41773999999999 4.243365   0.407929   2.396461   2116.474365
182.2      462.963    93.80584   4.24766    0.407172   2.382296   2114.988037
182.3      462.5073   92.003494  4.232778   0.40987    2.382987   2112.36084
182.4      462.1883   90.665482  4.255966   0.415383   2.384735   2112.144531
182.5      461.9149   90.10862   4.321983   0.421257   2.38261    2111.403809
182.6      461.687    89.773842  4.36975    0.428919   2.38483    2113.099854
182.7      461.3225   91.072289  4.379532   0.435642   2.39509    2111.962402
182.8      460.7756   92.753365  4.399065   0.439211   2.402188   2115.849121
182.9      459.9099   94.44847900000001 4.435153   0.43727    2.406816   2123.178223
183        458.9529   94.26387   4.460285   0.433883   2.41192    2134.3479 
183.1      457.9961   93.96212800000001 4.464837   0.431552   2.414838   2145.946289
183.2      457.2671   94.676109  4.455378   0.431515   2.410672   2157.924072
183.3      456.8114   95.919479  4.462924   0.4335     2.400815   2168.240967
183.4      456.5836   97.172112  4.47669    0.435511   2.397541   2175.211914
183.5      456.5836   98.142685  4.520765   0.43612    2.406042   2182.554443
183.6      456.7658   99.50602000000001 4.560771   0.433419   2.423642   2189.938477
183.7      457.3127   99.358757  4.543294   0.433496   2.447106   2198.397217
183.8      458.0874   97.95752   4.449937   0.437414   2.472144   2202.428223
183.9      459.2266   95.889717  4.284356   0.447019   2.498382   2203.63501
184        460.5024   95.29080999999999 4.151      0.455862   2.52961    2202.412598
184.1      461.915    94.226974  4.054081   0.464605   2.555562   2200.931152
184.2      463.2365   93.331192  3.936894   0.469138   2.566288   2198.957275
184.3      464.5579   92.88578   3.803675   0.469948   2.560479   2198.182373
184.4      465.9249   93.425743  3.689744   0.46941    2.552665   2196.836182
184.5      467.3375   93.49691   3.586583   0.47398    2.547933   2190.637451
184.6      468.7957   92.935158  3.525075   0.483147   2.538594   2182.916992
184.7      470.1171   91.75073999999999 3.530829   0.494492   2.538029   2177.799072
184.8      471.4385   90.497208  3.576027   0.503974   2.54831    2175.989746
184.9      472.6689   88.98410800000001 3.625662   0.510481   2.55436    2176.80835
185        473.9904   88.653481  3.637317   0.512813   2.538485   2178.743652
185.1      475.3118   89.661118  3.607337   0.514059   2.523849   2181.210205
185.2      476.8611   91.206879  3.576116   0.516742   2.51872    2180.860352
185.3      478.4103   92.533249  3.590942   0.522488   2.523492   2175.792725
185.4      480.0052   93.505486  3.630625   0.529036   2.514001   2171.965576
185.5      481.1899   95.02465100000001 3.638502   0.532618   2.506593   2170.000488
185.6      482.6937   95.496948  3.566647   0.527937   2.487588   2171.780273
185.7      483.5593   96.17813099999999 3.429111   0.511977   2.46806    2173.876221
185.8      484.015    96.52510100000001 3.299433   0.49177    2.44109    2175.508545
185.9      484.0606   97.117531  3.229161   0.473604   2.439577   2169.96582
186        483.8783   96.172691  3.210872   0.463601   2.441283   2165.60498
186.1      483.5138   95.590401  3.237223   0.460709   2.448588   2163.943848
186.2      483.0581   95.74572000000001 3.317202   0.46516    2.448577   2163.314697
186.3      482.6024   96.78478200000001 3.394845   0.47459    2.446262   2162.11084
186.4      482.0556   98.852036  3.455103   0.48546    2.446794   2161.071045
186.5      481.4632   101.084053 3.484721   0.497489   2.443587   2163.491943
186.6      480.7341   103.04332  3.454767   0.510462   2.456735   2161.708496
186.7      480.0506   102.577522 3.397382   0.527295   2.467217   2157.988037
186.8      479.3672   101.322273 3.365816   0.539835   2.486519   2156.766602
186.9      478.8203   99.02321600000001 3.398236   0.544577   2.490172   2159.797119
187        478.3647   96.87479399999999 3.495907   0.53746    2.489763   2160.885986
187.1      478.0457   95.909325  3.620143   0.523748   2.480779   2160.094727
187.2      477.8634   96.924995  3.674472   0.506371   2.476474   2161.297852
187.3      477.909    98.14806400000001 3.601611   0.492328   2.484895   2163.774414
187.4      478.3647   98.334442  3.484519   0.488646   2.499571   2167.16748
187.5      479.0939   98.11779799999999 3.474696   0.496502   2.515242   2171.540039
187.6      480.1419   98.19246699999999 3.519198   0.507664   2.526292   2175.112305
187.7      481.3722   97.70227800000001 3.446159   0.513437   2.520367   2176.412598
187.8      482.8304   97.208214  3.301341   0.5093800000000001 2.503673   2173.422363
187.9      484.2885   97.94886   3.239231   0.500325   2.479549   2165.913818
188        485.8378   100.278053 3.294406   0.485253   2.473014   2155.241455
188.1      487.3415   101.003693 3.417233   0.474104   2.479828   2146.863037
188.2      488.663    100.958763 3.501012   0.465628   2.499213   2146.640869
188.3      489.6199   99.46369900000001 3.48272    0.470952   2.52623    2152.08252
188.4      490.2122   98.007362  3.396809   0.479876   2.55164    2161.717529
188.5      490.4856   95.669106  3.29515    0.496514   2.56431    2173.623535
188.6      490.44     94.860489  3.198669   0.509966   2.551416   2184.302734
188.7      490.2122   95.028976  3.117019   0.524454   2.544608   2185.03125
188.8      489.8932   96.901978  3.040602   0.528761   2.532261   2179.509277
188.9      489.5742   97.89408899999999 3.005351   0.525404   2.526906   2176.10791
