~Version
 VERS              .         2.0                           : CWLS LOG ASCII STANDARD - VERSION 2.0
 WRAP              .         NO                            : ONE LINE PER DEPTH STEP
 DLM               .         SPACE                         : DELIMITING CHARACTER(SPACE TAB OR COMMA)
~Well Information
#_______________________________________________________________________________
#
#PARAMETER_NAME    .UNIT     VALUE                         : DESCRIPTION
#_______________________________________________________________________________
STRT               .M        -11.2                         : First reference value
STOP               .M        461.2                         : Last reference value
STEP               .M        0.1                           : Step increment
NULL               .         -9999                         : Missing value
COMP               .                                       : Company
WELL               .         A                             : Well name
FLD                .                                       : Field
LOC                .                                       : Location
CNTY               .                                       : County
STAT               .                                       : State
CTRY               .                                       : Country
SRVC               .                                       : Service Company
DATE               .                                       : Date
API                .                                       : API number
~Parameter Information Block
#_______________________________________________________________________________
#
#PARAMETER_NAME    .UNIT     VALUE                         : DESCRIPTION
#_______________________________________________________________________________
SET                .         Logs                          : 
TLFamily_DEPT      .         Measured Depth                : 
TLFamily_DT        .         Compressional Slowness        : 
TLFamily_GR        .         Gamma Ray                     : 
TLFamily_ILD       .         Resistivity - Deep            : 
TLFamily_NPOR_LIM  .         Thermal Neutron Porosity Limestone: 
TLFamily_PEF       .         Photoelectric Factor          : 
TLFamily_RHO       .         Bulk Density                  : 
~Curve Information
#_______________________________________________________________________________
#
#LOGNAME           .UNIT     LOG_ID                        : DESCRIPTION
#_______________________________________________________________________________
DEPT               .M                                      : Logged depth 
DT                 .us/m                                   : Compressional Slowness 
GR                 .GAPI                                   : MGS Gamma Ray 
ILD                .OHMM                                   : Array Ind. One Res 85 
NPOR_LIM           .V/V                                    : Limestone Neutron Por. 
PEF                .B/E                                    : PE 
RHO                .K/M3                                   : Compensated Density 
~Ascii
# ...
148.7      518.4639   81.866112  4.204254   0.524971   2.536119   2004.513794
148.8      518.555    81.283806  4.190306   0.528425   2.523002   2001.483276
148.9      518.6461   81.275963  4.152972   0.533613   2.509927   1999.990356
149        518.6461   80.919037  4.125342   0.533702   2.478491   1999.414429
149.1      518.6005   82.250069  4.082902   0.529818   2.467443   1999.032959
149.2      518.2816   83.61415100000001 4.120575   0.523185   2.458872   2001.015015
149.3      517.6436   84.731621  4.181587   0.516384   2.478822   2003.728638
149.4      516.5499   84.661964  4.233856   0.506887   2.498039   2005.10022
149.5      515.2285   84.372833  4.30274    0.493906   2.524647   2005.556641
149.6      513.7249   84.387276  4.373205   0.48055    2.537077   2008.587402
149.7      512.3123   82.994148  4.420875   0.471109   2.540119   2015.055298
149.8      511.0819   81.248283  4.518827   0.465024   2.544597   2018.428223
149.9      510.1706   79.06199599999999 4.546854   0.465412   2.556203   2021.538452
150        509.6238   78.14213599999999 4.507778   0.469083   2.580695   2024.156494
150.1      509.3959   77.732964  4.425417   0.47696    2.601744   2027.02771
150.2      509.4415   79.561874  4.299858   0.480814   2.613721   2025.942749
150.3      509.7149   82.504379  4.153407   0.484866   2.609505   2026.163574
150.4      510.2162   85.882904  4.088764   0.485285   2.612881   2026.978638
150.5      510.8542   88.037209  4.153285   0.487419   2.616915   2034.356079
150.6      511.6288   88.30742600000001 4.365674   0.486262   2.610822   2045.101318
150.7      512.4946   88.342812  4.500664   0.485753   2.591942   2060.509277
150.8      513.4971   88.169899  4.39783    0.482602   2.571485   2074.893311
150.9      514.4996   88.839066  4.190503   0.4812     2.558069   2086.098389
151        515.5021   90.10688   3.987925   0.479091   2.539869   2093.322021
151.1      516.2766   92.157326  3.850702   0.479593   2.546107   2097.426025
151.2      516.7323   93.68600499999999 3.779038   0.479116   2.56409    2101.185303
151.3      516.6412   94.96536999999999 3.742494   0.484376   2.59754    2103.205811
151.4      516.2311   95.338539  3.706456   0.494908   2.607925   2106.789307
151.5      515.502    96.28531599999999 3.663124   0.515504   2.633779   2107.908691
151.6      514.6818   96.04129   3.646859   0.537919   2.64179    2108.463135
151.7      513.6793   95.24848900000001 3.671387   0.558019   2.645724   2106.829346
151.8      512.7224   94.15327499999999 3.732392   0.565707   2.620728   2104.702637
151.9      511.8566   94.13819100000001 3.779069   0.559956   2.597338   2100.096924
152        511.1731   92.937355  3.791986   0.544355   2.56869    2092.033691
152.1      510.7174   92.837433  3.785222   0.530861   2.567433   2077.108887
152.2      510.6263   92.234482  3.792787   0.525782   2.593063   2060.36499
152.3      510.8997   92.979691  3.779092   0.529424   2.64717    2048.815674
152.4      511.4009   92.076408  3.751059   0.540425   2.720756   2042.946411
152.5      512.0845   92.741974  3.699693   0.555791   2.767604   2040.820801
152.6      512.9503   93.125229  3.657526   0.571651   2.775865   2034.914307
152.7      514.0439   94.661491  3.649981   0.57834    2.72057    2032.387451
152.8      515.183    94.29182400000001 3.637337   0.57573    2.672535   2024.71106
152.9      516.3223   94.516373  3.660947   0.563786   2.613747   2015.818237
153        517.3246   94.446556  3.727074   0.547214   2.5832     2008.598877
153.1      518.2361   95.562881  3.810812   0.527529   2.566983   2014.163696
153.2      518.9651   96.75775899999999 3.869399   0.512559   2.612595   2020.974243
153.3      519.6486   97.49290499999999 3.874911   0.507663   2.643291   2031.345947
153.4      520.1954   97.67701   3.789369   0.515109   2.665456   2045.389282
153.5      520.6381   97.26841   3.620212   0.528537   2.688384   2063.057373
153.6      521.0612   96.04180100000001 3.44379    0.541971   2.744521   2077.676758
153.7      521.3801   93.720581  3.325432   0.549389   2.787025   2087.985352
153.8      521.608    91.905731  3.296948   0.548024   2.795573   2102.047363
153.9      521.8813   91.023674  3.386449   0.53739    2.806383   2107.001221
154        522.0637   91.106544  3.566473   0.523042   2.804553   2108.68457
154.1      522.2459   91.48925800000001 3.787144   0.509185   2.77519    2109.466309
154.2      522.4282   92.633415  4.002322   0.500856   2.707786   2116.682617
154.3      522.8383   93.18129   4.14598    0.496146   2.666663   2114.725098
154.4      523.3395   93.419304  4.079326   0.496164   2.628922   2112.065186
154.5      524.0687   92.59139999999999 3.914255   0.497868   2.603784   2103.666748
154.6      524.9344   91.535286  3.766892   0.503459   2.576118   2094.088135
154.7      526.0281   90.495605  3.657138   0.512149   2.583215   2080.668945
154.8      527.076    90.86204499999999 3.616286   0.521948   2.614612   2071.290527
154.9      528.1241   91.796425  3.554997   0.527802   2.647078   2067.58667
155        529.0356   92.432739  3.490981   0.529972   2.651494   2073.582275
155.1      529.8101   92.236282  3.458467   0.5296380000000001 2.638706   2082.364258
155.2      530.3569   93.181541  3.439228   0.530854   2.630793   2088.891357
155.3      530.8582   94.96807099999999 3.431633   0.532564   2.62286    2088.742676
155.4      531.2682   97.57888800000001 3.441407   0.539588   2.60525    2089.020264
155.5      531.7239   99.437607  3.455218   0.549312   2.594315   2088.81958
155.6      532.3163   101.232155 3.481339   0.558366   2.599018   2087.159912
155.7      533.0909   101.199959 3.503706   0.556747   2.604583   2084.126465
155.8      533.8657   99.189003  3.526171   0.547489   2.585958   2085.025391
155.9      534.6404   95.155098  3.555892   0.533149   2.570711   2082.840576
156        535.3694   91.370537  3.606375   0.521771   2.573711   2073.43042
156.1      536.0984   89.440315  3.654552   0.51306    2.589679   2060.685791
156.2      536.7363   89.23477200000001 3.702244   0.511248   2.608725   2048.045898
156.3      537.3742   90.358818  3.739564   0.5159629999999999 2.625123   2040.176025
156.4      537.9666   91.78396600000001 3.775771   0.521607   2.642307   2037.920654
156.5      538.4678   93.50964399999999 3.823686   0.525392   2.647658   2040.485718
156.6      538.7412   94.047089  3.816231   0.52655    2.639758   2046.481812
156.7      538.8779   93.98474899999999 3.815112   0.530828   2.632397   2050.211914
156.8      538.8323   93.09053   3.780774   0.53578    2.633594   2051.270752
156.9      538.7868   93.34554300000001 3.759656   0.542808   2.655932   2047.570557
157        538.7412   94.006462  3.758961   0.54806    2.682177   2044.330322
157.1      538.6957   95.667191  3.766557   0.553984   2.718208   2039.42041
157.2      538.559    96.504791  3.823655   0.557912   2.722571   2038.894531
157.3      538.3311   97.04656199999999 3.860063   0.5624670000000001 2.719646   2041.452515
157.4      538.0122   95.782639  3.852656   0.566447   2.698745   2044.607544
157.5      537.6021   94.792061  3.769045   0.56785    2.686658   2046.335938
157.6      537.1464   93.29143500000001 3.653393   0.562893   2.669103   2045.537964
157.7      536.6907   94.10124999999999 3.561097   0.55225    2.665654   2044.418701
157.8      536.3718   96.42939800000001 3.575315   0.538758   2.66871    2037.186646
157.9      536.1895   100.199883 3.65282    0.527773   2.667203   2030.014893
158        536.0528   102.957382 3.725085   0.519408   2.662623   2022.51062
158.1      535.9161   104.764275 3.743634   0.516055   2.661424   2021.882935
158.2      535.6426   104.467674 3.755134   0.513624   2.673033   2024.574951
158.3      535.187    102.414459 3.786321   0.514491   2.676571   2034.455566
158.4      534.3668   100.322746 3.838028   0.51305    2.669417   2045.698364
158.5      533.3643   99.075294  3.896776   0.511724   2.652368   2054.456543
158.6      532.1339   99.567352  3.923069   0.505311   2.631983   2056.904785
