~Version
 VERS              .         2.0                           : CWLS LOG ASCII STANDARD - VERSION 2.0
 WRAP              .         NO                            : ONE LINE PER DEPTH STEP
 DLM               .         SPACE                         : DELIMITING CHARACTER(SPACE TAB OR COMMA)
~Well Information
#_______________________________________________________________________________
#
#PARAMETER_NAME    .UNIT     VALUE                         : DESCRIPTION
#_______________________________________________________________________________
STRT               .M        -11.2                         : First reference value
STOP               .M        461.2                         : Last reference value
STEP               .M        0.1                           : Step increment
NULL               .         -9999                         : Missing value
COMP               .                                       : Company
WELL               .         A                             : Well name
FLD                .                                       : Field
LOC                .                                       : Location
CNTY               .                                       : County
STAT               .                                       : State
CTRY               .                                       : Country
SRVC               .                                       : Service Company
DATE               .                                       : Date
API                .                                       : API number
~Parameter Information Block
#_______________________________________________________________________________
#
#PARAMETER_NAME    .UNIT     VALUE                         : DESCRIPTION
#_______________________________________________________________________________
SET                .         Logs                          : 
TLFamily_DEPT      .         Measured Depth                : 
TLFamily_DT        .         Compressional Slowness        : 
TLFamily_GR        .         Gamma Ray                     : 
TLFamily_ILD       .         Resistivity - Deep            : 
TLFamily_NPOR_LIM  .         Thermal Neutron Porosity Limestone: 
TLFamily_PEF       .         Photoelectric Factor          : 
TLFamily_RHO       .         Bulk Density                  : 
~Curve Information
#_______________________________________________________________________________
#
#LOGNAME           .UNIT     LOG_ID                        : DESCRIPTION
#_______________________________________________________________________________
DEPT               .M                                      : Logged depth 
DT                 .us/m                                   : Compressional Slowness 
GR                 .GAPI                                   : MGS Gamma Ray 
ILD                .OHMM                                   : Array Ind. One Res 85 
NPOR_LIM           .V/V                                    : Limestone Neutron Por. 
PEF                .B/E                                    : PE 
RHO                .K/M3                                   : Compensated Density 
~Ascii
# ...
442.4      367.9103   79.471474  7.943031   0.336753   2.310491   2312.944824
442.5      369.505    79.790611  7.873036   0.338322   2.28533    2310.162354
442.6      370.8263   78.94161200000001 7.780004   0.337895   2.257493   2306.407227
442.7      371.7831   77.46178399999999 8.035220000000001 0.334928   2.247418   2305.63501
442.8      372.1931   74.788963  8.509594999999999 0.330969   2.245866   2306.88916
442.9      372.1473   71.63125599999999 8.198071000000001 0.324572   2.236485   2309.383057
443        371.6005   67.754372  7.981925   0.317849   2.210191   2306.856689
443.1      370.8713   65.31296500000001 8.060631000000001 0.31355    2.169809   2298.312012
443.2      369.8687   64.31418600000001 8.089399999999999 0.312079   2.11409    2284.97583
443.3      368.5016   64.208046  8.042311   0.313895   2.0666     2273.089355
443.4      367.0891   64.53581200000001 8.115750999999999 0.317176   2.057436   2266.795898
443.5      365.9501   66.88980100000001 8.118933999999999 0.322732   2.087282   2272.01001
443.6      365.2667   70.185051  8.023426000000001 0.327102   2.141616   2284.947754
443.7      364.8113   73.348877  8.307245999999999 0.330569   2.184372   2302.061035
443.8      365.0849   75.822746  8.154693   0.332118   2.220315   2317.123779
443.9      365.9507   77.55858600000001 8.234306999999999 0.334609   2.241377   2324.798096
444        367.1811   79.01205400000001 8.406117   0.336528   2.256672   2327.425781
444.1      368.2747   79.603752  8.337399   0.339054   2.265708   2323.596924
444.2      369.4138   81.76816599999999 8.166214   0.340934   2.26706    2317.655762
444.3      370.3707   84.017242  8.051493000000001 0.345529   2.273382   2309.892822
444.4      371.282    86.72910299999999 7.914843   0.350733   2.284566   2302.716553
444.5      372.1933   89.356308  7.782424   0.356989   2.308552   2297.819824
444.6      372.694    93.36739300000001 7.326803   0.360115   2.317057   2299.284912
444.7      371.9189   96.113495  7.072641   0.361138   2.31233    2308.674072
444.8      369.7313   97.822731  7.72538    0.356289   2.301263   2319.390625
444.9      366.4503   98.831558  8.528422000000001 0.348064   2.304592   2332.206787
445        362.4403   99.69766199999999 9.053957   0.33524    2.333411   2349.812012
445.1      358.3393   99.82827   9.075529   0.322804   2.404457   2366.583252
445.2      354.4663   99.354759  8.992482000000001 0.309359   2.493283   2377.238037
445.3      351.1855   99.61673   9.278233999999999 0.299406   2.549818   2381.096191
445.4      347.8592   100.599892 9.703844999999999 0.29117    2.593812   2385.145264
445.5      344.8062   100.414703 9.868062999999999 0.287706   2.594244   2384.664307
445.6      341.9814   100.101631 9.858998   0.285212   2.57251    2381.52832
445.7      340.2045   99.24046300000001 10.10614   0.286858   2.601906   2379.751709
445.8      339.1111   99.412453  10.187626  0.289334   2.713096   2389.142334
445.9      338.7466   97.817673  9.827778   0.295504   3.174009   2416.206055
446        338.3365   95.787842  9.577114999999999 0.302909   3.995633   2458.369385
446.1      337.9723   92.66083500000001 9.914845   0.314173   5.181484   2538.111816
446.2      338.6295   89.664467  11.605556  0.328067   6.438161   2642.878906
446.3      338.7151   85.75391399999999 13.620789  0.34555    7.574471   2758.225342
446.4      338.7798   83.20957900000001 14.070011  0.361998   8.063383   2818.237549
446.5      337.1092   82.14419599999999 14.462244  0.373967   7.848701   2819.68042
446.6      335.4145   81.77269   14.27413   0.378806   7.019535   2753.982666
446.7      332.2278   82.02965500000001 12.252988  0.378155   6.084944   2643.375732
446.8      328.4379   82.398087  11.430519  0.371342   5.257073   2528.296875
446.9      322.7709   82.81759599999999 11.389018  0.359488   4.764222   2442.681641
447        313.8446   82.746651  11.328471  0.344546   4.617323   2390.828857
447.1      305.41     83.014206  10.653425  0.32923    4.702315   2377.617432
447.2      296.3506   83.39106   11.052758  0.31083    4.765004   2389.777344
447.3      288.077    83.296516  13.407664  0.287519   4.809912   2412.806396
447.4      278.9589   83.819374  17.115196  0.260499   4.801635   2435.704834
447.5      270.2868   84.01604500000001 21.93841   0.233321   4.794469   2456.772217
447.6      261.7606   84.109047  27.234739  0.208617   4.74939    2472.768311
447.7      241.6403   83.04930899999999 32.335278  0.187491   4.728587   2480.158691
447.8      233.7577   83.78321800000001 33.483585  0.172873   4.677352   2481.403564
447.9      227.5613   83.602058  28.043688  0.165992   4.682767   2483.775879
448        223.4152   83.47434199999999 25.692926  0.165231   4.689767   2491.22168
448.1      220.8634   81.979843  25.800995  0.165774   4.769582   2503.215576
448.2      218.3116   81.54277   31.981678  0.163568   4.848753   2520.687988
448.3      215.7143   80.075706  43.507366  0.157065   4.948274   2543.69873
448.4      213.0715   78.93678300000001 49.967529  0.146431   4.973318   2566.644531
448.5      210.7932   78.163765  51.802074  0.133458   4.987905   2587.231934
448.6      208.4238   78.55626700000001 59.256264  0.120766   4.958232   2600.699951
448.7      206.2819   78.714851  61.306503  0.111563   4.921744   2609.423584
448.8      203.7302   -9999      63.867847  0.106749   4.868599   2613.19873
448.9      201.2696   -9999      67.095116  0.105634   4.879524   2617.375  
449        198.8091   -9999      65.86443300000001 0.106352   4.887027   2620.158691
449.1      196.8499   -9999      62.82      0.107722   4.918754   2625.025879
449.2      195.392    -9999      67.50902600000001 0.108819   4.925807   2628.938232
449.3      194.7087   -9999      75.161102  0.109536   4.966925   2634.36377
449.4      194.7545   -9999      81.637306  0.109759   4.971623   2635.982666
449.5      195.4382   -9999      88.330147  0.10975    4.977488   2634.850586
449.6      196.6687   -9999      87.382614  0.109358   4.969251   2631.174561
449.7      198.4461   -9999      80.17182200000001 0.108819   4.949013   2628.093994
449.8      200.7245   -9999      69.51634199999999 0.108057   4.876935   2625.003174
449.9      203.2763   -9999      58.035469  0.10736    4.77194    2621.918457
450        205.8279   -9999      44.995979  0.106814   4.686804   2621.033447
450.1      208.1517   -9999      34.876213  0.106773   4.603742   2621.172607
450.2      209.9286   -9999      28.840837  0.1072     4.551115   2623.571777
450.3      211.1131   -9999      30.017971  0.107889   4.53596    2623.165771
450.4      211.6142   -9999      33.119064  0.108392   4.591658   2622.628174
450.5      211.6597   -9999      35.892822  0.10847    4.675697   2620.952881
450.6      211.295    -9999      36.950531  0.108349   4.749938   2619.950195
450.7      210.5658   -9999      38.549683  0.108381   4.807155   2617.581787
450.8      209.5632   -9999      44.424206  0.108903   4.860823   2613.813721
450.9      208.3785   -9999      45.223774  0.109774   4.869716   2608.776855
451        207.1026   -9999      40.391109  0.110702   4.817918   2604.884277
451.1      205.8267   -9999      31.073938  0.111356   4.732057   2599.613037
451.2      204.5964   -9999      30.608763  0.111651   4.658093   2590.88916
451.3      203.3204   -9999      35.616455  0.11172    4.569624   2581.379395
451.4      201.999    -9999      35.524208  -9999      4.480128   2573.712402
451.5      200.632    -9999      36.162804  -9999      4.401381   2567.622314
451.6      199.2194   -9999      35.38559   -9999      4.392037   2559.855713
451.7      197.6701   -9999      34.625824  -9999      4.388198   2555.468506
451.8      196.2119   -9999      40.891533  -9999      4.393976   2555.221191
451.9      194.8906   -9999      47.363869  -9999      4.39149    2556.272217
452        193.7515   -9999      51.782936  -9999      4.384883   2556.914307
452.1      192.7491   -9999      53.619423  -9999      4.353467   2558.057129
452.2      192.2025   -9999      55.315365  -9999      4.316755   2559.692139
