~Version
 VERS              .         2.0                           : CWLS LOG ASCII STANDARD - VERSION 2.0
 WRAP              .         NO                            : ONE LINE PER DEPTH STEP
 DLM               .         SPACE                         : DELIMITING CHARACTER(SPACE TAB OR COMMA)
~Well Information
#_______________________________________________________________________________
#
#PARAMETER_NAME    .UNIT     VALUE                         : DESCRIPTION
#_______________________________________________________________________________
STRT               .M        -11.2                         : First reference value
STOP               .M        461.2                         : Last reference value
STEP               .M        0.1                           : Step increment
NULL               .         -9999                         : Missing value
COMP               .                                       : Company
WELL               .         A                             : Well name
FLD                .                                       : Field
LOC                .                                       : Location
CNTY               .                                       : County
STAT               .                                       : State
CTRY               .                                       : Country
SRVC               .                                       : Service Company
DATE               .                                       : Date
API                .                                       : API number
~Parameter Information Block
#_______________________________________________________________________________
#
#PARAMETER_NAME    .UNIT     VALUE                         : DESCRIPTION
#_______________________________________________________________________________
SET                .         Logs                          : 
TLFamily_DEPT      .         Measured Depth                : 
TLFamily_DT        .         Compressional Slowness        : 
TLFamily_GR        .         Gamma Ray                     : 
TLFamily_ILD       .         Resistivity - Deep            : 
TLFamily_NPOR_LIM  .         Thermal Neutron Porosity Limestone: 
TLFamily_PEF       .         Photoelectric Factor          : 
TLFamily_RHO       .         Bulk Density                  : 
~Curve Information
#_______________________________________________________________________________
#
#LOGNAME           .UNIT     LOG_ID                        : DESCRIPTION
#_______________________________________________________________________________
DEPT               .M                                      : Logged depth 
DT                 .us/m                                   : Compressional Slowness 
GR                 .GAPI                                   : MGS Gamma Ray 
ILD                .OHMM                                   : Array Ind. One Res 85 
NPOR_LIM           .V/V                                    : Limestone Neutron Por. 
PEF                .B/E                                    : PE 
RHO                .K/M3                                   : Compensated Density 
~Ascii
# ...
209.1      475.3119   90.51339   4.235253   0.439774   2.626947   2185.86377
209.2      477.1345   90.57364699999999 4.010115   0.444154   2.643603   2183.652344
209.3      478.3647   91.86752300000001 3.656999   0.458941   2.625107   2187.506348
209.4      479.0482   91.799049  3.343411   0.479482   2.594527   2190.079834
209.5      479.4583   91.82970400000001 3.164736   0.498558   2.566104   2183.629883
209.6      479.6861   91.108673  3.119271   0.511066   2.552224   2174.083252
209.7      479.8228   91.79293800000001 3.19878    0.513211   2.531941   2170.788818
209.8      479.5493   91.82028200000001 3.375017   0.505171   2.529572   2171.319336
209.9      478.8658   93.873863  3.597821   0.491901   2.533292   2174.879395
210        477.7722   95.291138  3.839767   0.479287   2.553949   2177.658936
210.1      476.6329   96.650063  3.969105   0.470108   2.576709   2179.817627
210.2      475.2205   95.764977  3.863439   0.461417   2.592757   2183.711914
210.3      474.0812   95.00711800000001 3.775156   0.454424   2.593858   2193.301025
210.4      472.3952   93.1493    3.754774   0.446938   2.609135   2202.553955
210.5      470.1622   90.49438499999999 3.81022    0.442807   2.620902   2209.611084
210.6      466.6535   87.176445  4.135571   0.436871   2.644393   2218.858887
210.7      462.5068   84.78424800000001 4.775757   0.430765   2.689376   2232.875732
210.8      457.6311   82.508202  5.172564   0.41962    2.805173   2250.030273
210.9      452.8011   79.328766  5.707612   0.408175   2.932254   2268.492676
211        448.1533   78.17739899999999 6.583877   0.392943   3.009464   2293.698242
211.1      444.8659   78.01693   7.492142   0.379361   3.010405   2307.293945
211.2      441.1361   79.654419  7.83006    0.366761   2.950156   2307.438232
211.3      439.0856   80.76760899999999 7.351014   0.361405   2.827815   2289.927246
211.4      438.4023   83.819588  6.754779   0.361232   2.678637   2267.590332
211.5      439.0404   86.09023999999999 6.088068   0.367572   2.582178   2239.580322
211.6      440.9543   88.524635  5.715016   0.379747   2.543645   2218.842529
211.7      443.5516   90.03523300000001 5.384217   0.398187   2.560104   2202.077393
211.8      446.9237   91.25599699999999 4.987301   0.421541   2.586969   2188.390625
211.9      450.4779   90.939308  4.660278   0.444131   2.615034   2180.88623
212        454.6701   89.816727  4.288635   0.464826   2.64359    2178.851074
212.1      458.7713   88.798271  3.931798   0.484388   2.649875   2181.032715
212.2      463.2823   86.71809399999999 3.557109   0.50551    2.631612   2183.334961
212.3      467.0187   84.78376799999999 3.315063   0.523298   2.585739   2188.170898
212.4      470.3906   81.874107  3.257519   0.533399   2.529005   2185.056396
212.5      472.441    79.645821  3.431648   0.53379    2.479899   2175.734863
212.6      473.808    75.645493  3.824686   0.525682   2.450159   2165.539307
212.7      473.9446   72.519012  4.132101   0.51213    2.459132   2164.476318
212.8      473.7623   71.530998  4.109416   0.494391   2.489314   2166.248047
212.9      472.5318   73.342377  3.981196   0.476639   2.511206   2175.44043
213        470.4357   76.44593   4.412809   0.458418   2.506483   2188.519043
213.1      467.2003   79.46060199999999 5.898501   0.439609   2.492287   2204.762939
213.2      463.4182   82.007912  7.266439   0.418776   2.467923   2215.420166
213.3      459.4083   82.142166  8.070480999999999 0.398171   2.423591   2223.35791
213.4      455.7174   79.909035  8.504265999999999 0.381376   2.37972    2223.969482
213.5      452.6644   75.965935  9.276049   0.369262   2.325881   2216.271729
213.6      450.1128   72.164925  10.153008  0.359846   2.2692     2197.370117
213.7      448.1078   68.508438  10.917041  0.351775   2.20632    2168.725098
213.8      446.6498   66.48492400000001 11.249861  0.347374   2.168879   2136.818604
213.9      445.5106   67.073936  11.537372  0.349046   2.162852   2113.986328
214        444.1892   68.754982  11.754225  0.35547    2.160403   2106.435791
214.1      442.9589   71.194908  11.656215  0.363632   2.161037   2106.948975
214.2      441.683    72.97101600000001 11.561875  0.370469   2.153562   2107.477539
214.3      440.1336   75.636551  11.923203  0.376411   2.154675   2104.042236
214.4      438.2198   76.55275   12.246053  0.381122   2.157026   2092.834473
214.5      436.7161   77.55191000000001 12.973404  0.387011   2.163895   2075.979248
214.6      435.4858   79.030998  13.589729  0.394373   2.182191   2063.192627
214.7      434.6656   82.40482299999999 13.155924  0.405213   2.201347   2066.360107
214.8      433.6631   84.695885  11.543697  0.414615   2.197262   2088.834473
214.9      432.8429   84.41636699999999 10.362577  0.419876   2.164228   2118.24585
215        431.7038   82.127495  11.490529  0.417688   2.127743   2143.253174
215.1      430.7468   77.672707  13.690364  0.409939   2.102622   2153.95166
215.2      429.7444   72.898323  15.220789  0.397769   2.090183   2148.95459
215.3      429.1521   66.273048  15.694764  0.384528   2.089659   2131.946289
215.4      428.742    62.188095  15.805621  0.374511   2.080376   2115.820801
215.5      428.4684   59.117607  15.51801   0.369712   2.068703   2105.272705
215.6      427.557    59.078991  15.261596  0.370351   2.045295   2102.124268
215.7      425.8254   60.236851  15.301505  0.371403   2.02737    2100.64502
215.8      423.3648   64.767082  15.477798  0.371116   2.017782   2100.244629
215.9      420.3573   70.00818599999999 15.674513  0.366372   2.035309   2093.408447
216        417.7601   75.412491  15.680539  0.361895   2.075027   2088.625732
216.1      415.7096   78.657608  15.696983  0.360104   2.134612   2088.874756
216.2      414.6616   80.641853  15.488739  0.362847   2.194199   2098.15918
216.3      413.8871   79.90821800000001 14.914293  0.36802    2.251586   2112.554199
216.4      413.5224   78.681389  14.80804   0.372838   2.289984   2134.234619
216.5      412.8845   77.55976099999999 14.740005  0.375651   2.314748   2158.356689
216.6      412.1554   78.415527  14.609821  0.373528   2.326041   2178.321289
216.7      411.4265   79.376434  14.442513  0.368967   2.350373   2192.38501
216.8      411.3354   81.510918  14.167048  0.36313    2.383456   2204.960693
216.9      411.8366   85.28079200000001 13.982661  0.359581   2.413659   2217.224121
217        412.6569   90.458626  13.976939  0.355354   2.432504   2225.203125
217.1      413.796    94.170219  13.793288  0.350831   2.417975   2230.672852
217.2      414.8441   95.072472  13.919635  0.34605    2.380974   2228.606934
217.3      415.7099   93.23365   14.181931  0.343193   2.320314   2213.144531
217.4      416.2566   87.46277600000001 14.34683   0.343058   2.272363   2187.411621
217.5      416.5984   78.995926  14.511683  0.345166   2.235302   2163.75293
217.6      417.5781   69.11528800000001 14.752037  0.350398   2.192722   2145.918213
217.7      418.3983   61.818958  14.991191  0.356235   2.133924   2134.943115
217.8      419.0362   55.720047  15.924729  0.362335   2.0736     2127.315674
217.9      419.3551   52.203743  16.821882  0.366296   2.017368   2121.004395
218        419.1272   49.692051  17.426062  0.37149    1.967847   2110.738525
218.1      418.6715   49.830204  17.42845   0.375256   1.95033    2095.873779
218.2      417.7602   49.701736  17.347502  0.37797    1.951491   2083.791992
218.3      416.9855   50.182625  17.383715  0.376053   1.96093    2078.181885
218.4      416.3932   50.272171  17.295767  0.371213   1.962151   2080.444092
218.5      416.6667   51.369812  17.044788  0.363289   1.980185   2084.831299
218.6      417.2136   52.915665  16.647718  0.355538   1.994294   2093.665039
218.7      418.216    53.741871  16.28908   0.349549   2.008034   2100.066162
218.8      418.8995   54.931831  16.008152  0.347191   2.006099   2107.097168
218.9      419.355    56.125229  15.324155  0.347709   2.008996   2110.595459
219        418.8993   57.65189   14.885094  0.349895   2.008346   2113.861084
219.1      418.0792   57.771557  14.262767  0.35297    2.039504   2120.182129
