~Version
 VERS              .         2.0                           : CWLS LOG ASCII STANDARD - VERSION 2.0
 WRAP              .         NO                            : ONE LINE PER DEPTH STEP
 DLM               .         SPACE                         : DELIMITING CHARACTER(SPACE TAB OR COMMA)
~Well Information
#_______________________________________________________________________________
#
#PARAMETER_NAME    .UNIT     VALUE                         : DESCRIPTION
#_______________________________________________________________________________
STRT               .M        -11.2                         : First reference value
STOP               .M        461.2                         : Last reference value
STEP               .M        0.1                           : Step increment
NULL               .         -9999                         : Missing value
COMP               .                                       : Company
WELL               .         A                             : Well name
FLD                .                                       : Field
LOC                .                                       : Location
CNTY               .                                       : County
STAT               .                                       : State
CTRY               .                                       : Country
SRVC               .                                       : Service Company
DATE               .                                       : Date
API                .                                       : API number
~Parameter Information Block
#_______________________________________________________________________________
#
#PARAMETER_NAME    .UNIT     VALUE                         : DESCRIPTION
#_______________________________________________________________________________
SET                .         Logs                          : 
TLFamily_DEPT      .         Measured Depth                : 
TLFamily_DT        .         Compressional Slowness        : 
TLFamily_GR        .         Gamma Ray                     : 
TLFamily_ILD       .         Resistivity - Deep            : 
TLFamily_NPOR_LIM  .         Thermal Neutron Porosity Limestone: 
TLFamily_PEF       .         Photoelectric Factor          : 
TLFamily_RHO       .         Bulk Density                  : 
~Curve Information
#_______________________________________________________________________________
#
#LOGNAME           .UNIT     LOG_ID                        : DESCRIPTION
#_______________________________________________________________________________
DEPT               .M                                      : Logged depth 
DT                 .us/m                                   : Compressional Slowness 
GR                 .GAPI                                   : MGS Gamma Ray 
ILD                .OHMM                                   : Array Ind. One Res 85 
NPOR_LIM           .V/V                                    : Limestone Neutron Por. 
PEF                .B/E                                    : PE 
RHO                .K/M3                                   : Compensated Density 
~Ascii
# ...
351.8      440.5442   93.576736  5.29943    0.453462   2.673648   2182.594727
351.9      441.5468   92.61554700000001 5.509929   0.451893   2.740547   2180.456787
352        443.4606   90.911224  5.633501   0.457884   2.814783   2177.765381
352.1      445.1921   88.520821  5.465596   0.472647   2.869971   2178.526367
352.2      446.6956   86.598175  5.097442   0.486511   2.887688   2189.799316
352.3      447.7437   85.356003  4.75838    0.499882   2.86438    2201.343018
352.4      448.3359   84.601173  4.43497    0.502772   2.801507   2205.380127
352.5      448.518    83.553864  4.314802   0.499683   2.725538   2201.257324
352.6      448.1534   82.65426600000001 4.504682   0.487067   2.651881   2190.905518
352.7      447.333    81.43280799999999 5.125035   0.472735   2.597875   2174.382324
352.8      445.8746   79.652199  6.013192   0.454605   2.575932   2157.611084
352.9      443.5504   77.46408099999999 6.556282   0.439695   2.571707   2146.191162
353        439.9048   75.577034  7.006878   0.42773    2.56722    2144.477295
353.1      435.2111   74.827995  7.398434   0.424143   2.539978   2146.417236
353.2      429.5607   76.361908  7.979917   0.426133   2.513436   2150.028809
353.3      423.5915   78.442375  8.254807   0.431595   2.474239   2150.270996
353.4      417.8046   80.79259500000001 8.394485   0.436993   2.441605   2150.0979 
353.5      412.9749   81.95768   8.439821   0.43947    2.423195   2147.896729
353.6      409.4211   82.895653  8.344303   0.438952   2.431338   2145.770752
353.7      407.8267   81.81242399999999 8.168927999999999 0.434876   2.451144   2143.447021
353.8      408.3286   81.514145  8.027483   0.432963   2.494908   2142.104248
353.9      411.063    80.745514  7.816373   0.431171   2.574313   2137.318115
354        415.4833   81.453453  7.547637   0.432177   2.644222   2132.801758
354.1      421.4073   81.50747699999999 7.076124   0.435217   2.676008   2125.210693
354.2      428.5162   82.81707   6.021097   0.445959   2.681795   2117.363037
354.3      436.7639   83.947266  4.593233   0.463155   2.682091   2107.266113
354.4      445.376    85.721542  3.544349   0.484079   2.675238   2104.365967
354.5      453.8058   86.67430899999999 2.94854    0.504673   2.662198   2108.697998
354.6      461.2328   87.367104  2.64248    0.517174   2.682521   2119.520508
354.7      467.0193   87.509315  2.541193   0.519594   2.726397   2130.208984
354.8      470.2994   87.963432  2.542816   0.50959    2.772367   2144.352783
354.9      470.7545   88.603386  2.609888   0.495271   2.791168   2158.55249
355        468.5666   88.79330400000001 2.824131   0.480453   2.806216   2167.293213
355.1      464.1918   87.458862  3.185297   0.470461   2.802288   2170.493652
355.2      458.0399   85.67038700000001 3.778973   0.463507   2.76401    2168.407959
355.3      450.6124   84.021439  4.707553   0.455608   2.710149   2164.226807
355.4      442.7292   82.72951500000001 5.594429   0.445761   2.644726   2155.918213
355.5      434.9373   81.800713  6.407728   0.431431   2.587992   2146.453369
355.6      427.5555   81.334793  7.218005   0.417612   2.541769   2138.546143
355.7      420.6295   81.854584  7.707639   0.40335    2.527967   2135.390625
355.8      414.7063   81.317398  7.927114   0.396152   2.518459   2135.150635
355.9      410.4689   79.134514  8.059851   0.392178   2.5185     2135.202881
356        408.0543   76.30941799999999 8.232244   0.392821   2.52154    2134.858398
356.1      407.3256   75.014526  8.376948000000001 0.392907   2.534141   2132.557617
356.2      408.0549   74.106674  8.479339   0.396216   2.54646    2130.832764
356.3      409.7409   73.79039   8.517319000000001 0.399936   2.553976   2126.70874
356.4      411.7003   74.143311  8.574866999999999 0.406026   2.563458   2121.972656
356.5      413.3406   75.51857800000001 8.709027000000001 0.410551   2.55699    2114.623535
356.6      414.6619   75.876457  8.776547000000001 0.417561   2.554306   2108.953369
356.7      415.4364   74.765747  8.873238000000001 0.423555   2.550092   2104.268555
356.8      415.6635   72.75277699999999 8.907296000000001 0.43143    2.567102   2108.417725
356.9      412.6552   70.18180099999999 8.708081   0.435778   2.79744    2125.000488
357        406.2284   66.598434  8.576753999999999 0.440928   3.182659   2158.504639
357.1      392.4978   63.820187  8.796678999999999 0.44269    3.634842   2201.930664
357.2      384.3115   62.474812  9.976364999999999 0.445609   3.90698    2241.114746
357.3      374.594    62.149681  11.039418  0.443871   4.013001   2263.247803
357.4      366.9302   61.939098  10.400287  0.442234   3.814722   2260.503662
357.5      361.7121   62.138905  9.9589     0.435671   3.429192   2234.360352
357.6      359.8294   62.408012  9.430839000000001 0.430105   2.980185   2195.017334
357.7      360.8477   62.38131   9.279978   0.421942   2.724307   2157.377197
357.8      364.5852   62.595337  9.538379000000001 0.417613   2.610284   2131.208008
357.9      372.059    63.433315  9.901958   0.41347    2.576218   2118.485596
358        382.6115   65.067879  10.259162  0.411368   2.57548    2115.810791
358.1      395.2777   65.90372499999999 10.321397  0.406289   2.566829   2118.182129
358.2      406.8865   66.701027  10.239796  0.399633   2.530413   2121.847168
358.3      416.8891   66.593765  10.187107  0.392857   2.486053   2123.057861
358.4      422.7495   67.256561  10.107772  0.388058   2.438178   2121.778564
358.5      425.0052   66.968155  9.902725999999999 0.38703    2.408155   2117.967041
358.6      424.0028   66.824821  9.684017000000001 0.387035   2.390482   2110.704834
358.7      423.1826   66.20359000000001 9.601807000000001 0.388076   2.398031   2104.866699
358.8      422.4079   66.752304  9.470124999999999 0.386777   2.421982   2100.672607
358.9      421.6787   66.710739  9.237458   0.386721   2.454897   2102.006348
359        420.6762   67.542084  9.027525000000001 0.390083   2.471318   2104.259277
359.1      419.2634   67.74951900000001 8.818523000000001 0.398294   2.468781   2108.778809
359.2      416.7112   67.459412  8.729570000000001 0.408126   2.436904   2111.414795
359.3      412.9289   65.339935  8.798895999999999 0.414879   2.396223   2112.224121
359.4      407.7798   63.806316  8.850408   0.416476   2.364707   2111.098633
359.5      402.3574   62.527649  8.884392999999999 0.41018    2.386701   2113.678467
359.6      397.5274   62.357185  8.816470000000001 0.400618   2.505759   2132.669434
359.7      393.4267   62.033291  8.566119   0.392222   2.966918   2168.320068
359.8      390.6929   61.370804  8.255538   0.390675   3.435632   2224.290039
359.9      388.7336   60.153358  8.926231   0.392675   3.819631   2279.572998
360        387.6401   59.350224  10.91033   0.397194   3.831615   2319.358398
360.1      386.2732   60.046665  10.241918  0.4024     3.740994   2323.219727
360.2      385.7265   62.457565  9.076199000000001 0.407787   3.369891   2300.105469
360.3      385.6358   66.739113  8.607665000000001 0.408412   3.013146   2259.985107
360.4      387.0941   70.957397  8.139822000000001 0.404749   2.71303    2222.574707
360.5      389.692    74.034149  7.934533   0.396973   2.709751   2197.244385
360.6      394.0666   76.106071  7.764836   0.389415   2.712378   2192.613037
360.7      399.2614   77.21962000000001 7.718978   0.380353   2.692566   2197.236816
360.8      404.7293   78.81282   7.510322   0.377535   2.655576   2200.127441
360.9      409.9238   80.18187   6.870738   0.382524   2.661513   2200.387451
361        414.1613   82.62548099999999 6.547951   0.398198   2.693172   2203.2229 
361.1      417.5331   84.536377  6.188581   0.415789   2.728976   2207.004395
361.2      420.2216   86.504074  5.791824   0.433243   2.710502   2213.108398
361.3      422.8644   86.599991  5.590168   0.445005   2.69038    2220.407227
361.4      425.2795   85.75406599999999 5.428133   0.450687   2.661506   2223.012939
361.5      427.6033   84.737869  5.321283   0.450408   2.66139    2222.12085
361.6      429.6082   84.330299  5.372176   0.447085   2.65107    2221.022217
