~Version
 VERS              .         2.0                           : CWLS LOG ASCII STANDARD - VERSION 2.0
 WRAP              .         NO                            : ONE LINE PER DEPTH STEP
 DLM               .         SPACE                         : DELIMITING CHARACTER(SPACE TAB OR COMMA)
~Well Information
#_______________________________________________________________________________
#
#PARAMETER_NAME    .UNIT     VALUE                         : DESCRIPTION
#_______________________________________________________________________________
STRT               .M        -11.2                         : First reference value
STOP               .M        461.2                         : Last reference value
STEP               .M        0.1                           : Step increment
NULL               .         -9999                         : Missing value
COMP               .                                       : Company
WELL               .         A                             : Well name
FLD                .                                       : Field
LOC                .                                       : Location
CNTY               .                                       : County
STAT               .                                       : State
CTRY               .                                       : Country
SRVC               .                                       : Service Company
DATE               .                                       : Date
API                .                                       : API number
~Parameter Information Block
#_______________________________________________________________________________
#
#PARAMETER_NAME    .UNIT     VALUE                         : DESCRIPTION
#_______________________________________________________________________________
SET                .         Logs                          : 
TLFamily_DEPT      .         Measured Depth                : 
TLFamily_DT        .         Compressional Slowness        : 
TLFamily_GR        .         Gamma Ray                     : 
TLFamily_ILD       .         Resistivity - Deep            : 
TLFamily_NPOR_LIM  .         Thermal Neutron Porosity Limestone: 
TLFamily_PEF       .         Photoelectric Factor          : 
TLFamily_RHO       .         Bulk Density                  : 
~Curve Information
#_______________________________________________________________________________
#
#LOGNAME           .UNIT     LOG_ID                        : DESCRIPTION
#_______________________________________________________________________________
DEPT               .M                                      : Logged depth 
DT                 .us/m                                   : Compressional Slowness 
GR                 .GAPI                                   : MGS Gamma Ray 
ILD                .OHMM                                   : Array Ind. One Res 85 
NPOR_LIM           .V/V                                    : Limestone Neutron Por. 
PEF                .B/E                                    : PE 
RHO                .K/M3                                   : Compensated Density 
~Ascii
# ...
381.8      386.3645   54.992165  10.331246  0.340807   1.936579   2137.960205
381.9      386.3644   55.604939  10.446434  0.3408     1.923654   2140.031738
382        386.1364   55.280094  9.596992   0.341223   1.924416   2144.170898
382.1      385.5896   55.325397  9.281198   0.341174   1.924363   2149.855713
382.2      384.8149   56.581604  9.969461000000001 0.337523   1.931518   2154.843994
382.3      383.858    58.616055  10.280704  0.331261   1.935308   2158.74707
382.4      382.8556   59.905346  10.240275  0.322785   1.941551   2163.535156
382.5      381.9443   60.945267  10.279445  0.316119   1.937801   2167.79541
382.6      381.2608   61.728642  10.619789  0.311079   1.925569   2172.093262
382.7      380.7141   61.597374  11.207317  0.308405   1.916912   2175.79248
382.8      380.4407   61.023144  11.666721  0.306726   1.915261   2178.608887
382.9      380.3497   60.042461  11.613031  0.307332   1.921308   2175.615723
383        380.5775   59.011173  10.323467  0.309484   1.917449   2168.734863
383.1      381.0334   57.6064    9.597803000000001 0.314337   1.915864   2157.789307
383.2      381.9903   57.442211  9.313007000000001 0.320263   1.911138   2149.814941
383.3      383.2664   57.299232  9.486292000000001 0.327319   1.921743   2146.034912
383.4      384.9067   57.268894  10.139916  0.3341     1.932198   2149.057129
383.5      386.5016   57.66053   10.597624  0.341053   1.950554   2156.184082
383.6      388.0507   58.244362  10.500224  0.346629   1.961513   2161.454102
383.7      389.1898   59.089458  9.487586   0.350312   1.964134   2160.529541
383.8      390.01     58.367493  8.748023999999999 0.352495   1.94314    2152.522949
383.9      390.381    58.53878   8.383099   0.354295   1.922916   2142.422852
384        390.9213   59.107933  7.822258   0.355051   1.916706   2132.148193
384.1      391.3315   60.883144  7.741459   0.353458   1.925023   2129.310059
384.2      391.8327   61.591473  8.242611999999999 0.351355   1.940948   2130.402832
384.3      392.1972   61.687664  8.483943   0.348894   1.94915    2134.27417
384.4      392.4249   60.190258  8.421690999999999 0.346359   1.948815   2132.88623
384.5      392.2881   56.379971  7.764283   0.342282   1.926245   2126.844971
384.6      391.9236   50.701706  7.064286   0.338331   1.894567   2115.478271
384.7      391.3311   44.696827  6.713553   0.334079   1.859289   2102.971924
384.8      390.7843   40.609318  6.565658   0.329872   1.839925   2093.652832
384.9      390.192    37.644821  6.564341   0.32551    1.830925   2090.786865
385        389.5995   36.173534  6.644225   0.322161   1.823616   2092.067627
385.1      388.916    35.599216  6.657188   0.319972   1.812413   2093.693359
385.2      388.3238   35.444397  6.706697   0.320136   1.796734   2095.145508
385.3      387.8225   35.282387  6.680613   0.323099   1.785948   2096.711426
385.4      387.4124   35.433819  6.602594   0.327472   1.77813    2097.581299
385.5      387.0479   35.93351   6.651192   0.329851   1.777415   2098.978271
385.6      386.6833   37.469036  6.839848   0.329068   1.792669   2101.238281
385.7      386.2276   39.935371  6.974435   0.325217   1.812809   2104.343018
385.8      385.5896   42.981052  7.122869   0.321791   1.836072   2106.661621
385.9      384.8605   45.626534  7.058737   0.32072    1.849889   2107.937012
386        384.2683   47.521908  6.917034   0.324904   1.863361   2109.783447
386.1      383.8582   48.880299  6.945601   0.331031   1.868306   2111.06665
386.2      383.5392   49.582623  6.96814    0.336      1.875349   2111.91748
386.3      383.1291   50.183186  7.194405   0.335528   1.873589   2111.039795
386.4      382.6278   50.367538  7.36777    0.330368   1.876868   2111.358154
386.5      381.8987   51.256695  7.49801    0.321473   1.874073   2110.477051
386.6      381.0785   51.766308  7.867126   0.312796   1.873722   2109.694092
386.7      380.1671   51.595783  8.046424   0.305947   1.867732   2109.377197
386.8      379.4837   50.646984  8.190189999999999 0.30355    1.863328   2111.362305
386.9      379.0281   49.68536   8.561866999999999 0.302954   1.857469   2117.381836
387        378.9371   48.498955  9.423612   0.305431   1.855093   2126.930176
387.1      379.1194   46.58469   10.525121  0.308332   1.849468   2140.1875 
387.2      379.6663   45.067974  11.029156  0.314148   1.84303    2148.979492
387.3      380.3954   43.789608  9.955894000000001 0.318602   1.834914   2151.102295
387.4      381.3524   43.740707  8.645082   0.322468   1.826122   2143.015869
387.5      382.5372   43.031044  7.991568   0.322357   1.818346   2131.22168
387.6      383.8587   42.63055   7.530935   0.322725   1.811607   2116.783447
387.7      385.2711   42.018414  7.485444   0.322089   1.806795   2107.418945
387.8      386.5015   41.934956  7.784446   0.321317   1.807775   2104.891602
387.9      387.5037   41.644211  8.053305999999999 0.31867    1.809777   2108.79126
388        387.9593   40.994373  8.179577999999999 0.316977   1.81355    2113.201904
388.1      387.9592   40.876987  8.323328999999999 0.317996   1.817221   2114.621582
388.2      387.5034   41.288815  8.208815   0.322445   1.823862   2113.919434
388.3      386.9111   42.379154  7.985686   0.32881    1.826984   2110.922363
388.4      386.3188   43.885067  7.608849   0.334811   1.832712   2108.840088
388.5      385.9543   46.811657  7.603439   0.338153   1.840585   2109.394287
388.6      385.9088   50.589428  7.526177   0.337041   1.852035   2115.243164
388.7      386.0456   53.47731   7.824306   0.333345   1.867507   2124.144287
388.8      386.5014   54.645962  8.865675   0.328164   1.885623   2133.584961
388.9      387.185    53.141903  9.383616   0.326368   1.902475   2138.230225
389        388.1874   50.740944  8.489807000000001 0.326123   1.904644   2137.758301
389.1      389.3268   47.198845  8.184594000000001 0.329092   1.897705   2131.601074
389.2      390.6482   44.050957  8.243603   0.330768   1.887571   2124.750244
389.3      392.0608   42.332726  7.84007    0.334044   1.878568   2116.443604
389.4      393.3821   42.24678   7.720897   0.336708   1.863001   2110.440918
389.5      394.4756   43.115353  7.803556   0.341257   1.849013   2102.659668
389.6      395.1134   42.918156  7.800297   0.345179   1.837121   2096.911621
389.7      395.4778   43.266819  7.834836   0.348845   1.830609   2091.252197
389.8      395.2043   42.8209    7.817729   0.351094   1.836569   2090.932373
389.9      394.4295   42.940395  7.692499   0.351324   1.852501   2093.316895
390        393.0168   42.266987  7.832391   0.350341   1.883378   2103.099121
390.1      391.3307   43.369164  8.393912   0.346703   1.912169   2115.572021
390.2      389.4171   45.104561  8.516207   0.342503   1.939504   2130.041992
390.3      387.8904   47.430984  8.940764   0.336118   1.950092   2141.759033
390.4      385.5894   48.912468  9.841405999999999 0.33085    1.960627   2154.104736
390.5      383.9034   50.220089  9.979772000000001 0.3267     1.964239   2162.706299
390.6      382.5365   50.096458  10.151778  0.324992   1.967964   2169.177979
390.7      381.3519   49.552322  10.478939  0.323971   1.958203   2169.607422
390.8      380.5772   48.157837  10.111081  0.324075   1.948794   2169.960449
390.9      380.0762   49.25835   9.026348   0.324562   1.939869   2167.546143
391        379.9395   50.8778    9.407137000000001 0.32545    1.92984    2164.990479
391.1      379.8483   53.240345  10.29012   0.327081   1.914791   2159.332031
391.2      379.8028   53.282803  9.992272   0.330894   1.906046   2152.840332
391.3      379.7572   52.719151  8.714683000000001 0.334704   1.912912   2143.755615
391.4      379.7116   49.623211  8.121729999999999 0.335521   1.924771   2135.456055
391.5      379.5749   46.36517   8.362152   0.331082   1.93686    2128.317383
391.6      379.3014   42.633755  8.754877   0.324379   1.944952   2123.630127
391.7      378.9825   40.873516  8.479028   0.316813   1.955045   2120.562988
391.8      378.5723   40.016197  8.480180000000001 0.312441   1.947505   2118.6521 
