~Version
 VERS              .         2.0                           : CWLS LOG ASCII STANDARD - VERSION 2.0
 WRAP              .         NO                            : ONE LINE PER DEPTH STEP
 DLM               .         SPACE                         : DELIMITING CHARACTER(SPACE TAB OR COMMA)
~Well Information
#_______________________________________________________________________________
#
#PARAMETER_NAME    .UNIT     VALUE                         : DESCRIPTION
#_______________________________________________________________________________
STRT               .M        -11.2                         : First reference value
STOP               .M        461.2                         : Last reference value
STEP               .M        0.1                           : Step increment
NULL               .         -9999                         : Missing value
COMP               .                                       : Company
WELL               .         A                             : Well name
FLD                .                                       : Field
LOC                .                                       : Location
CNTY               .                                       : County
STAT               .                                       : State
CTRY               .                                       : Country
SRVC               .                                       : Service Company
DATE               .                                       : Date
API                .                                       : API number
~Parameter Information Block
#_______________________________________________________________________________
#
#PARAMETER_NAME    .UNIT     VALUE                         : DESCRIPTION
#_______________________________________________________________________________
SET                .         Logs                          : 
TLFamily_DEPT      .         Measured Depth                : 
TLFamily_DT        .         Compressional Slowness        : 
TLFamily_GR        .         Gamma Ray                     : 
TLFamily_ILD       .         Resistivity - Deep            : 
TLFamily_NPOR_LIM  .         Thermal Neutron Porosity Limestone: 
TLFamily_PEF       .         Photoelectric Factor          : 
TLFamily_RHO       .         Bulk Density                  : 
~Curve Information
#_______________________________________________________________________________
#
#LOGNAME           .UNIT     LOG_ID                        : DESCRIPTION
#_______________________________________________________________________________
DEPT               .M                                      : Logged depth 
DT                 .us/m                                   : Compressional Slowness 
GR                 .GAPI                                   : MGS Gamma Ray 
ILD                .OHMM                                   : Array Ind. One Res 85 
NPOR_LIM           .V/V                                    : Limestone Neutron Por. 
PEF                .B/E                                    : PE 
RHO                .K/M3                                   : Compensated Density 
~Ascii
# ...
331.9      410.6973   64.889145  14.981491  0.454022   2.34267    2078.736572
332        410.196    67.02082799999999 14.756727  0.460985   2.348888   2077.385498
332.1      409.9227   69.037819  14.545738  0.465148   2.358097   2077.056152
332.2      409.9228   70.27982299999999 14.627476  0.463917   2.364613   2075.876221
332.3      410.3329   71.70509300000001 14.32585   0.460609   2.37153    2074.502686
332.4      410.8798   71.151054  13.150867  0.456063   2.375105   2073.204346
332.5      411.6089   69.828003  11.774241  0.451995   2.372126   2073.442139
332.6      412.338    67.148994  10.271197  0.446452   2.380314   2075.547852
332.7      413.0345   66.049751  10.348505  0.441917   2.39809    2079.36792
332.8      413.9328   64.875908  11.380504  0.439039   2.409889   2085.241699
332.9      414.8897   64.654633  10.36694   0.438647   2.408824   2090.077881
333        415.5732   64.177406  8.358397   0.440324   2.400733   2093.061279
333.1      416.211    65.571106  7.927433   0.444347   2.383762   2093.317627
333.2      416.1198   66.36900300000001 9.082428999999999 0.447582   2.35203    2092.54126
333.3      415.6639   66.98452   9.564895   0.449955   2.333661   2090.935059
333.4      414.2969   66.682571  9.191217999999999 0.450437   2.337486   2089.999023
333.5      413.0211   66.975334  8.639939999999999 0.451884   2.347348   2090.50293
333.6      412.2922   66.67935199999999 8.619456   0.451387   2.343055   2091.273193
333.7      412.338    66.721153  8.748408   0.449464   2.360255   2092.423096
333.8      413.1584   66.47736399999999 9.323214999999999 0.443914   2.390254   2093.282471
333.9      414.7534   66.934044  8.784812000000001 0.437574   2.449449   2090.323242
334        417.3965   67.561356  7.768515   0.431969   2.511456   2089.927979
334.1      420.4952   68.90941599999999 7.120088   0.431996   2.575205   2090.060303
334.2      424.4141   70.964035  6.389024   0.439147   2.594309   2098.098633
334.3      428.8799   73.705727  5.489552   0.45411    2.605929   2103.453857
334.4      434.3936   76.837616  4.798226   0.47407    2.599112   2115.825684
334.5      440.1352   80.134872  4.265915   0.49302    2.601687   2126.46582
334.6      446.2866   82.528038  3.979932   0.506901   2.609809   2140.533447
334.7      452.1648   84.42836   3.775444   0.515337   2.653572   2142.47876
334.8      457.7694   85.391251  3.637657   0.520842   2.670743   2143.918457
334.9      462.5538   85.625343  3.528229   0.523836   2.653497   2137.962402
335        466.4723   84.446861  3.390532   0.528711   2.617792   2130.339844
335.1      469.3885   83.077049  3.240451   0.535421   2.607028   2115.05957
335.2      472.1225   81.96173899999999 3.13606    0.545144   2.609226   2106.366211
335.3      474.6742   81.704865  3.108418   0.549227   2.6099     2099.45874
335.4      477.0435   82.01432   3.138247   0.55106    2.614256   2100.159668
335.5      478.3188   82.478188  3.184487   0.551731   2.623276   2094.203369
335.6      477.0886   83.635231  3.19265    0.55743    2.619575   2090.886719
335.7      476.1833   84.203377  3.101097   0.563963   2.602967   2085.99292
335.8      474.9194   85.156227  2.966127   0.5673     2.567858   2086.549072
335.9      473.2863   84.85994700000001 2.83913    0.561301   2.559602   2085.844238
336        470.8361   85.07363100000001 2.845693   0.543859   2.557727   2093.029541
336.1      466.8585   84.34835099999999 3.151988   0.516288   2.571074   2105.820557
336.2      460.6882   84.61766799999999 3.72233    0.48468    2.562721   2124.581055
336.3      447.1121   83.492935  4.360094   0.45935    2.703838   2161.228271
336.4      437.2999   82.07991   4.842121   0.445008   3.259631   2219.892334
336.5      425.3534   79.213486  5.326154   0.439741   3.933141   2302.714111
336.6      414.6419   78.120903  6.119934   0.438151   4.468177   2384.52832
336.7      406.1244   77.461876  7.690341   0.435479   4.614168   2465.655273
336.8      400.7572   79.470039  6.395171   0.433153   4.523538   2478.109131
336.9      399.0324   82.332855  5.603725   0.430868   3.998166   2416.450195
337        400.081    85.956985  5.68679    0.433703   3.328667   2361.68042
337.1      403.3956   88.39138   5.597229   0.441355   2.778796   2303.211426
337.2      408.5117   88.78346999999999 5.53288    0.450812   2.627138   2260.750244
337.3      415.5019   87.91258999999999 5.408281   0.455956   2.586514   2238.54834
337.4      422.8381   86.50457   5.32379    0.456173   2.555744   2229.354004
337.5      430.0312   85.720169  5.336912   0.452714   2.559191   2215.477539
337.6      435.1163   84.537628  5.350008   0.452568   2.558859   2199.311279
337.7      441.0916   83.649834  5.192399   0.457836   2.555384   2188.281982
337.8      445.2384   82.180267  4.923384   0.476594   2.567643   2176.515869
337.9      450.0231   82.60084500000001 4.587936   0.499685   2.572406   2167.288818
338        455.1722   83.409637  4.224738   0.521129   2.573748   2160.746826
338.1      460.5947   85.04109200000001 3.855197   0.528763   2.5754     2154.790771
338.2      466.2907   86.840172  3.525825   0.528544   2.593169   2145.563721
338.3      471.8498   88.94197800000001 3.270615   0.522108   2.59729    2131.737061
338.4      476.9076   90.20549   3.101184   0.522552   2.58       2118.334229
338.5      481.4642   90.38434599999999 2.965901   0.5322789999999999 2.561178   2103.193115
338.6      485.4739   90.70208   2.834727   0.555198   2.532674   2092.290527
338.7      489.0281   90.504875  2.705271   0.577952   2.510824   2084.640869
338.8      492.1722   90.172691  2.565043   0.591214   2.496849   2084.305176
338.9      495.134    89.250648  2.430903   0.586442   2.522611   2083.905273
339        497.8224   89.61134300000001 2.320651   0.568007   2.537797   2087.715332
339.1      499.7915   89.905266  2.229993   0.543898   2.573829   2093.325439
339.2      502.2423   90.306549  2.173346   0.530012   2.604411   2103.196777
339.3      503.837    90.78582   2.168983   0.534346   2.647974   2107.947266
339.4      504.9305   91.140472  2.208486   0.553436   2.658966   2108.915039
339.5      505.614    91.24234   2.263452   0.576294   2.6683     2099.444336
339.6      505.9785   90.065468  2.299912   0.592171   2.646432   2086.417236
339.7      505.8872   89.603752  2.29387    0.599218   2.623522   2064.251221
339.8      505.3404   88.88520800000001 2.275664   0.593432   2.590966   2046.355347
339.9      504.748    88.018593  2.272517   0.583083   2.598048   2034.20752
340        504.0188   86.048714  2.292763   0.573217   2.604701   2035.74646
340.1      503.153    84.946877  2.345881   0.571434   2.62423    2034.339722
340.2      501.7858   85.283051  2.427303   0.572698   2.614537   2037.319824
340.3      500.1909   85.733498  2.512577   0.573305   2.596618   2041.376831
340.4      497.9124   86.951149  2.602838   0.568809   2.573383   2050.45874
340.5      495.2237   88.32285299999999 2.750496   0.5575909999999999 2.588408   2061.674805
340.6      491.8062   90.14881099999999 3.012473   0.54011    2.630489   2084.071533
340.7      488.343    89.64685799999999 3.397075   0.518841   2.680125   2117.040527
340.8      484.2873   89.16166699999999 3.766606   0.501674   2.729551   2147.9021 
340.9      479.3659   88.933105  3.944374   0.493418   2.746541   2171.16626
341        473.6245   89.041183  4.029908   0.495038   2.740341   2186.758545
341.1      468.1565   88.853386  4.237868   0.497909   2.710002   2196.030029
341.2      463.2354   88.970139  4.594461   0.49807    2.707992   2192.156738
341.3      458.6788   89.446457  5.212283   0.49344    2.710824   2185.322998
341.4      454.7601   88.118942  6.204442   0.485492   2.743598   2176.169678
341.5      451.4337   85.523552  6.810704   0.475023   2.801513   2163.085693
341.6      447.9704   82.731728  6.978807   0.464576   2.849247   2150.838867
341.7      443.5503   80.95488   7.07314    0.456517   2.848041   2149.945801
341.8      439.0847   79.90969800000001 6.800849   0.449434   2.800516   2160.121582
