~Version
 VERS              .         2.0                           : CWLS LOG ASCII STANDARD - VERSION 2.0
 WRAP              .         NO                            : ONE LINE PER DEPTH STEP
 DLM               .         SPACE                         : DELIMITING CHARACTER(SPACE TAB OR COMMA)
~Well Information
#_______________________________________________________________________________
#
#PARAMETER_NAME    .UNIT     VALUE                         : DESCRIPTION
#_______________________________________________________________________________
STRT               .M        -11.2                         : First reference value
STOP               .M        461.2                         : Last reference value
STEP               .M        0.1                           : Step increment
NULL               .         -9999                         : Missing value
COMP               .                                       : Company
WELL               .         A                             : Well name
FLD                .                                       : Field
LOC                .                                       : Location
CNTY               .                                       : County
STAT               .                                       : State
CTRY               .                                       : Country
SRVC               .                                       : Service Company
DATE               .                                       : Date
API                .                                       : API number
~Parameter Information Block
#_______________________________________________________________________________
#
#PARAMETER_NAME    .UNIT     VALUE                         : DESCRIPTION
#_______________________________________________________________________________
SET                .         Logs                          : 
TLFamily_DEPT      .         Measured Depth                : 
TLFamily_DT        .         Compressional Slowness        : 
TLFamily_GR        .         Gamma Ray                     : 
TLFamily_ILD       .         Resistivity - Deep            : 
TLFamily_NPOR_LIM  .         Thermal Neutron Porosity Limestone: 
TLFamily_PEF       .         Photoelectric Factor          : 
TLFamily_RHO       .         Bulk Density                  : 
~Curve Information
#_______________________________________________________________________________
#
#LOGNAME           .UNIT     LOG_ID                        : DESCRIPTION
#_______________________________________________________________________________
DEPT               .M                                      : Logged depth 
DT                 .us/m                                   : Compressional Slowness 
GR                 .GAPI                                   : MGS Gamma Ray 
ILD                .OHMM                                   : Array Ind. One Res 85 
NPOR_LIM           .V/V                                    : Limestone Neutron Por. 
PEF                .B/E                                    : PE 
RHO                .K/M3                                   : Compensated Density 
~Ascii
# ...
98.7       -9999      103.950935 19750.40625 0.602808   10.812848  1814.189819
98.8       -9999      108.603027 19777.597656 0.606016   10.824424  1815.732666
98.90000000000001 -9999      113.799042 19837.798828 0.616318   10.845951  1814.908325
99         -9999      118.058105 19919.574219 0.629955   10.831584  1817.084595
99.09999999999999 -9999      120.422821 20005.826172 0.634423   10.828225  1820.775635
99.2       -9999      120.890671 20090.900391 0.6242259999999999 10.800724  1827.818604
99.3       -9999      119.509567 20152.603516 0.602792   10.811599  1833.381104
99.40000000000001 -9999      116.611588 20183.462891 0.574102   10.83812   1838.016113
99.5       -9999      112.355179 20188.234375 0.551744   10.878996  1838.991333
99.59999999999999 -9999      108.164833 20178.060547 0.537122   10.908799  1836.561035
99.7       -9999      103.747887 20153.470703 0.534561   10.887513  1837.267944
99.8       -9999      99.346222  20124.166016 0.532538   10.802054  1841.318237
99.90000000000001 -9999      94.41326100000001 20122.478516 0.531409   10.678925  1822.783813
100        -9999      90.0569    20136.960938 0.524899   10.573355  1782.591064
100.1      -9999      86.801903  20161.423828 0.520296   10.588567  1740.832031
100.2      -9999      85.24736   20168.701172 0.525617   10.701524  1038.066772
100.3      -9999      85.121796  20158.146484 0.54947    10.889131  986.324585
100.4      -9999      85.98580200000001 20127.212891 0.587866   11.027256  1123.557495
100.5      -9999      87.089523  20085.572266 0.629601   11.146606  1365.942749
100.6      -9999      89.338531  20048.707031 0.6659080000000001 11.141114  1592.115234
100.7      -9999      92.579628  20031.183594 0.68748    11.126919  1860.993774
100.8      -9999      95.793198  20026.964844 0.690667   11.091424  1849.013306
100.9      -9999      100.288826 20017.103516 0.676058   11.135325  1836.03894
101        -9999      105.280067 19999.482422 0.6554489999999999 11.133163  1830.549072
101.1      -9999      109.663628 19974.28125 0.633463   11.12468   1836.462158
101.2      -9999      110.834686 19946.992188 0.618329   11.090947  1841.545776
101.3      -9999      109.927948 19926.193359 0.600536   11.107851  1838.183838
101.4      -9999      109.288704 19910.636719 0.584908   11.160608  1831.603027
101.5      -9999      109.34671  19892.296875 0.565293   11.244221  1828.479004
101.6      -9999      109.751602 19866.119141 0.55364    11.334048  1829.315796
101.7      -9999      111.170364 19830.582031 0.542268   11.373523  1835.55188
101.8      -9999      112.096977 19789.875  0.536695   11.368485  1851.969849
101.9      -9999      111.261681 19741.896484 0.531591   11.318575  1876.823364
102        -9999      107.771873 19697.263672 0.525073   11.284566  1908.597168
102.1      -9999      103.194412 19657.667969 0.508489   11.346456  1942.890381
102.2      -9999      98.797478  19640.861328 0.479445   11.512656  1975.907104
102.3      -9999      95.781548  19655.052734 0.450933   11.745513  1999.655762
102.4      -9999      94.14015999999999 19709.269531 0.429583   11.982251  2010.948975
102.5      -9999      94.895782  19816.09375 0.426654   12.19768   2038.410034
102.6      -9999      97.069168  19952.298828 0.438812   12.313291  2004.359863
102.7      -9999      100.376938 20086.810547 0.462736   12.376895  1972.586304
102.8      -9999      103.850708 20172.478516 0.484335   12.367628  1950.673096
102.9      -9999      106.587311 20203.28125 0.495047   12.35878   1943.519775
103        -9999      108.067551 20172.996094 0.500853   12.302731  1971.798218
103.1      -9999      107.835129 20108.445313 0.506682   12.326736  1969.273193
103.2      -9999      106.957474 20044.859375 0.518875   12.384795  1970.362427
103.3      -9999      105.524117 20028.419922 0.533045   12.50943   1975.864746
103.4      -9999      105.011673 20053.427734 0.549206   12.586717  1986.253906
103.5      -9999      104.923058 20117.455078 0.557957   12.685634  1997.13562
103.6      -9999      106.693779 20204.392578 0.559235   12.714643  2004.755493
103.7      -9999      107.541794 20299.451172 0.558181   12.692551  2007.597534
103.8      -9999      108.703575 20369.513672 0.566713   12.591986  2006.0802 
103.9      -9999      107.813545 20413.359375 0.5830379999999999 12.556524  2000.752808
104        -9999      107.280571 20415.636719 0.593355   12.546885  1992.039429
104.1      -9999      104.975571 20367.353516 0.592822   12.582828  1985.081177
104.2      -9999      103.382248 20264.654297 0.579885   12.589742  1980.104126
104.3      -9999      101.626907 20134.191406 0.564849   12.632187  1977.322632
104.4      -9999      100.983116 20002.228516 0.549331   12.634116  1975.037354
104.5      -9999      101.477524 19884.451172 0.547512   12.636254  1975.346924
104.6      -9999      102.517082 19803.556641 0.560947   12.657116  1976.543091
104.7      -9999      103.895058 19760.582031 0.591512   12.710355  1975.476563
104.8      -9999      103.53508  19744.882813 0.62066    12.749858  1973.116943
104.9      -9999      102.933334 19734.873047 0.6409820000000001 12.729823  1969.496582
105        -9999      101.841034 19724.542969 0.644718   12.693789  1969.109131
105.1      -9999      100.684616 19711.929688 0.636445   12.581248  1970.663818
105.2      -9999      98.915329  19698.605469 0.618599   12.467525  1976.329834
105.3      -9999      97.97704299999999 19684.785156 0.602454   12.356791  1983.836182
105.4      -9999      98.14902499999999 19670.193359 0.593257   12.321546  1991.61145
105.5      -9999      98.307327  19650.859375 0.598311   12.289123  1994.871094
105.6      -9999      98.753685  19623.816406 0.606098   12.285696  1993.41748
105.7      -9999      99.793358  19590.798828 0.613961   12.27502   1989.079224
105.8      -9999      102.335487 19573.867188 0.607523   12.308361  1986.535522
105.9      -9999      104.091362 19593.021484 0.594704   12.351841  1987.583984
106        -9999      105.135048 19651.515625 0.56954    12.461997  1990.370361
106.1      -9999      105.550591 19733.609375 0.546666   12.575213  1993.791504
106.2      -9999      105.997345 19821.017578 0.520726   12.693085  1998.053467
106.3      -9999      105.48851  19892.416016 0.502621   12.721308  2004.301514
106.4      -9999      106.515419 19937.681641 0.486929   12.697554  2009.46936
106.5      -9999      108.390816 19972.814453 0.480553   12.608631  2013.804199
106.6      -9999      111.19191  20058.449219 0.483187   12.49409   2016.028809
106.7      -9999      112.471992 20226.253906 0.497516   12.364875  2017.787842
106.8      -9999      114.188751 20442.324219 0.523207   12.320496  2016.614746
106.9      -9999      114.940392 20653.998047 0.551898   12.34575   2014.856689
107        -9999      115.091888 20826.628906 0.578006   12.429251  2014.459717
107.1      -9999      114.990761 20940.228516 0.589686   12.498379  2018.463135
107.2      -9999      115.941269 20977.505859 0.586468   12.589407  2026.835693
107.3      -9999      116.650955 20961.5    0.567966   12.634645  2036.680908
107.4      -9999      115.940987 20922.451172 0.547148   12.629317  2045.24585
107.5      -9999      114.215172 20881.125  0.532396   12.547089  2050.322754
107.6      -9999      111.936783 20798.080078 0.528975   12.446501  2052.130615
107.7      -9999      109.892891 20618.628906 0.536021   12.337129  2048.009521
107.8      -9999      108.63649  20319.833984 0.548836   12.288354  2039.959473
107.9      -9999      108.426109 19935.515625 0.560917   12.257648  2031.942139
108        -9999      108.008842 19530.462891 0.562708   12.277003  2026.580444
108.1      -9999      107.750511 19154.78125 0.557347   12.311935  2026.241943
108.2      -9999      108.300987 18870.855469 0.555813   12.390183  2032.576904
108.3      -9999      109.345848 18709.345703 0.563539   12.444172  2045.945068
108.4      -9999      111.498695 18646.539063 0.578255   12.473155  2053.851807
108.5      -9999      116.439308 18634.033203 0.589964   12.429173  2076.30127
