~Version
 VERS              .         2.0                           : CWLS LOG ASCII STANDARD - VERSION 2.0
 WRAP              .         NO                            : ONE LINE PER DEPTH STEP
 DLM               .         SPACE                         : DELIMITING CHARACTER(SPACE TAB OR COMMA)
~Well Information
#_______________________________________________________________________________
#
#PARAMETER_NAME    .UNIT     VALUE                         : DESCRIPTION
#_______________________________________________________________________________
STRT               .M        -11.2                         : First reference value
STOP               .M        461.2                         : Last reference value
STEP               .M        0.1                           : Step increment
NULL               .         -9999                         : Missing value
COMP               .                                       : Company
WELL               .         A                             : Well name
FLD                .                                       : Field
LOC                .                                       : Location
CNTY               .                                       : County
STAT               .                                       : State
CTRY               .                                       : Country
SRVC               .                                       : Service Company
DATE               .                                       : Date
API                .                                       : API number
~Parameter Information Block
#_______________________________________________________________________________
#
#PARAMETER_NAME    .UNIT     VALUE                         : DESCRIPTION
#_______________________________________________________________________________
SET                .         Logs                          : 
TLFamily_DEPT      .         Measured Depth                : 
TLFamily_DT        .         Compressional Slowness        : 
TLFamily_GR        .         Gamma Ray                     : 
TLFamily_ILD       .         Resistivity - Deep            : 
TLFamily_NPOR_LIM  .         Thermal Neutron Porosity Limestone: 
TLFamily_PEF       .         Photoelectric Factor          : 
TLFamily_RHO       .         Bulk Density                  : 
~Curve Information
#_______________________________________________________________________________
#
#LOGNAME           .UNIT     LOG_ID                        : DESCRIPTION
#_______________________________________________________________________________
DEPT               .M                                      : Logged depth 
DT                 .us/m                                   : Compressional Slowness 
GR                 .GAPI                                   : MGS Gamma Ray 
ILD                .OHMM                                   : Array Ind. One Res 85 
NPOR_LIM           .V/V                                    : Limestone Neutron Por. 
PEF                .B/E                                    : PE 
RHO                .K/M3                                   : Compensated Density 
~Ascii
# ...
69.90000000000001 -9999      62.142921  20018.941406 0.39015    11.048013  1870.465454
70         -9999      61.852783  20009.505859 0.414465   10.985506  1830.002563
70.09999999999999 -9999      60.558002  20002.507813 0.430047   10.939935  1809.39563
70.2       -9999      57.057022  19942.261719 0.433953   10.924359  1804.149048
70.3       -9999      53.240284  19929.792969 0.426259   11.004972  1815.169922
70.40000000000001 -9999      49.544453  19962.494141 0.4111     11.05312   1832.227905
70.5       -9999      48.153423  20063.076172 0.394279   11.118242  1850.710449
70.59999999999999 -9999      47.880661  20095.173828 0.379473   11.097889  1860.518433
70.7       -9999      48.431168  20141.041016 0.368322   11.068179  1865.40686
70.8       -9999      48.760323  20155.787109 0.362983   10.972878  1867.679932
70.90000000000001 -9999      48.683472  20180.064453 0.364561   10.945652  1871.431885
71         -9999      48.04269   20145.371094 0.373047   10.939794  1877.184082
71.09999999999999 -9999      46.761032  20126.183594 0.383336   10.979788  1890.411621
71.2       -9999      45.433033  20119.017578 0.390755   10.961215  1909.735229
71.3       -9999      44.489544  20135.585938 0.391187   10.9197    1934.163574
71.40000000000001 -9999      44.160599  20151.798828 0.386755   10.851176  1962.528442
71.5       -9999      45.294621  20168.875  0.377946   10.77335   1990.918579
71.59999999999999 -9999      47.275921  20179.382813 0.366238   10.707034  2013.087646
71.7       -9999      49.533466  20172.857422 0.351102   10.688368  2027.511108
71.8       -9999      51.456425  20152.074219 0.335062   10.69769   2035.598877
71.90000000000001 -9999      53.662544  20121.882813 0.316168   10.698059  2041.085083
72         -9999      54.512653  20086.898438 0.296284   10.671131  2045.023071
72.09999999999999 -9999      53.351929  20012.980469 0.281244   10.669252  2048.813232
72.2       -9999      51.164322  19950.603516 0.277353   10.629291  2052.30127
72.3       -9999      49.709328  19901.871094 0.28468    10.584455  2054.736572
72.40000000000001 -9999      48.820847  19877.808594 0.297205   10.539837  2051.646973
72.5       -9999      48.04657   19836.666016 0.309689   10.54693   2047.560547
72.59999999999999 -9999      47.983292  19836.634766 0.315391   10.556127  2043.769531
72.7       -9999      48.757465  19858.220703 0.312913   10.598042  2045.632202
72.8       -9999      49.014378  19893.335938 0.303672   10.643271  2048.800781
72.90000000000001 -9999      48.745831  19909.822266 0.296196   10.704177  2053.683838
73         -9999      48.201534  19948.400391 0.294307   10.744489  2055.339355
73.09999999999999 -9999      49.621132  19977.005859 0.303477   10.793013  2052.369385
73.2       -9999      52.061935  19966.451172 0.323853   10.812114  2040.021606
73.3       -9999      54.325012  19927.630859 0.352145   10.811742  2021.88855
73.40000000000001 -9999      55.570881  19900.367188 0.38048    10.804587  2000.957642
73.5       -9999      57.06031   19889.425781 0.404079   10.792909  1979.931152
73.59999999999999 -9999      58.402905  19894.806641 0.426694   10.734609  1963.582275
73.7       -9999      58.577961  19916.480469 0.454439   10.645946  1957.543457
73.8       -9999      57.788174  19967.070313 0.488535   10.557631  1937.266113
73.90000000000001 -9999      57.49831   20025.324219 0.521921   10.556091  1587.886475
74         -9999      57.292835  20068.160156 0.544117   10.611637  1237.819946
74.09999999999999 -9999      56.745327  20084.378906 0.548466   10.74372   983.347656
74.2       -9999      57.151295  20086.300781 0.533004   10.893519  945.374939
74.3       -9999      58.77599   20071.240234 0.504455   11.081956  1107.767456
74.40000000000001 -9999      60.481602  20043.117188 0.473626   11.137326  1434.767944
74.5       -9999      62.149033  20019.208984 0.452224   11.119771  1754.579956
74.59999999999999 -9999      63.034081  20015.617188 0.44011    11.011239  1964.014282
74.7       -9999      63.398087  20017.996094 0.43225    10.946994  1959.636719
74.8       -9999      63.162094  20005.947266 0.426171   10.851687  1951.128784
74.90000000000001 -9999      62.875359  19995.109375 0.422669   10.796335  1952.227661
75         -9999      62.867512  19991.28125 0.427564   10.75449   1952.890137
75.09999999999999 -9999      63.68961   20001.962891 0.437598   10.736104  1950.295166
75.2       -9999      65.783928  20021.142578 0.457512   10.686184  1945.055542
75.3       -9999      68.932693  20052.423828 0.478562   10.626349  1936.184692
75.40000000000001 -9999      72.827873  20080.330078 0.499212   10.561421  1925.213013
75.5       -9999      76.431534  20099.609375 0.50658    10.484036  1913.751221
75.59999999999999 -9999      79.45534499999999 20107.664063 0.507385   10.453336  1907.108154
75.7       -9999      81.47431899999999 20113.023438 0.500991   10.463324  1903.645264
75.8       -9999      83.297989  20118.0625 0.499375   10.521021  1903.830811
75.90000000000001 -9999      85.05194899999999 20123.382813 0.5003300000000001 10.540597  1902.292236
76         -9999      85.504013  20132.753906 0.509176   10.578518  1901.480713
76.09999999999999 -9999      85.19821899999999 20134.818359 0.523263   10.550859  1897.410278
76.2       -9999      83.095215  20127.912109 0.537961   10.525048  1892.586182
76.3       -9999      80.97038999999999 20108.433594 0.548581   10.492477  1888.492188
76.40000000000001 -9999      78.099709  20083.179688 0.55292    10.54986   1887.6604 
76.5       -9999      77.10678900000001 20051.962891 0.553821   10.624074  1885.952393
76.59999999999999 -9999      76.093521  20025.007813 0.5484     10.698366  1886.098877
76.7       -9999      76.28755200000001 20007.859375 0.538709   10.74476   1887.463989
76.8       -9999      75.31577299999999 20002.896484 0.534551   10.762165  1889.2146 
76.90000000000001 -9999      75.073471  20003.044922 0.545458   10.723984  1891.427856
77         -9999      74.155548  20003.080078 0.566509   10.688124  1895.942017
77.09999999999999 -9999      73.687828  20001.619141 0.585668   10.689981  1900.467041
77.2       -9999      72.578751  19995.951172 0.59665    10.665586  1901.558716
77.3       -9999      71.947006  19987.375  0.59735    10.626751  1897.385376
77.40000000000001 -9999      71.217911  19980.148438 0.585866   10.597841  1889.666626
77.5       -9999      71.97538   19978.919922 0.5717370000000001 10.591392  1879.418213
77.59999999999999 -9999      73.908585  19983.570313 0.566761   10.575687  1870.791138
77.7       -9999      77.991051  19996.007813 0.58067    10.569234  1864.796875
77.8       -9999      83.238884  20015.164063 0.598459   10.609334  1861.103149
77.90000000000001 -9999      88.181961  20039.296875 0.619143   10.629634  1857.115723
78         -9999      92.378334  20060.658203 0.629315   10.619227  1852.273682
78.09999999999999 -9999      94.26707500000001 20078.382813 0.636613   10.591482  1843.220459
78.2       -9999      94.667435  20090.955078 0.629111   10.593152  1830.230103
78.3       -9999      94.229645  20095.294922 0.622372   10.577574  1816.486694
78.40000000000001 -9999      95.896484  20090.269531 0.607133   10.581864  1806.008179
78.5       -9999      98.768242  20079.373047 0.595351   10.605606  1799.879517
78.59999999999999 -9999      102.429352 20065.910156 0.581725   10.634308  1797.670654
78.7       -9999      104.842758 20047.714844 0.580276   10.664569  1798.8125 
78.8       -9999      106.734955 20022.576172 0.579001   10.680913  1800.820679
78.90000000000001 -9999      107.803383 19984.892578 0.57622    10.708498  1802.846924
79         -9999      108.121078 19939.818359 0.569895   10.727724  1803.072632
79.09999999999999 -9999      107.788956 19889.607422 0.563956   10.771537  1799.97522
79.2       -9999      107.78418  19847.595703 0.561424   10.830183  1794.611938
79.3       -9999      108.699471 19817.484375 0.566311   10.854803  1787.271973
79.40000000000001 -9999      109.311523 19804.675781 0.588114   10.884022  1779.464722
