~Version
 VERS              .         2.0                           : CWLS LOG ASCII STANDARD - VERSION 2.0
 WRAP              .         NO                            : ONE LINE PER DEPTH STEP
 DLM               .         SPACE                         : DELIMITING CHARACTER(SPACE TAB OR COMMA)
~Well Information
#_______________________________________________________________________________
#
#PARAMETER_NAME    .UNIT     VALUE                         : DESCRIPTION
#_______________________________________________________________________________
STRT               .M        -11.2                         : First reference value
STOP               .M        461.2                         : Last reference value
STEP               .M        0.1                           : Step increment
NULL               .         -9999                         : Missing value
COMP               .                                       : Company
WELL               .         A                             : Well name
FLD                .                                       : Field
LOC                .                                       : Location
CNTY               .                                       : County
STAT               .                                       : State
CTRY               .                                       : Country
SRVC               .                                       : Service Company
DATE               .                                       : Date
API                .                                       : API number
~Parameter Information Block
#_______________________________________________________________________________
#
#PARAMETER_NAME    .UNIT     VALUE                         : DESCRIPTION
#_______________________________________________________________________________
SET                .         Logs                          : 
TLFamily_DEPT      .         Measured Depth                : 
TLFamily_DT        .         Compressional Slowness        : 
TLFamily_GR        .         Gamma Ray                     : 
TLFamily_ILD       .         Resistivity - Deep            : 
TLFamily_NPOR_LIM  .         Thermal Neutron Porosity Limestone: 
TLFamily_PEF       .         Photoelectric Factor          : 
TLFamily_RHO       .         Bulk Density                  : 
~Curve Information
#_______________________________________________________________________________
#
#LOGNAME           .UNIT     LOG_ID                        : DESCRIPTION
#_______________________________________________________________________________
DEPT               .M                                      : Logged depth 
DT                 .us/m                                   : Compressional Slowness 
GR                 .GAPI                                   : MGS Gamma Ray 
ILD                .OHMM                                   : Array Ind. One Res 85 
NPOR_LIM           .V/V                                    : Limestone Neutron Por. 
PEF                .B/E                                    : PE 
RHO                .K/M3                                   : Compensated Density 
~Ascii
# ...
9.4        -9999      24.523275  -9999      0.65035    10.692896  1851.971436
9.5        -9999      25.287748  -9999      0.66054    10.657626  1848.404907
9.6        -9999      26.291637  -9999      0.653473   10.647109  1844.019409
9.699999999999999 -9999      27.00602   -9999      0.627672   10.609111  1841.007324
9.800000000000001 -9999      28.017477  -9999      0.593484   10.594046  1837.30481
9.9        -9999      29.292915  -9999      0.555447   10.573101  1834.377808
10         -9999      29.593889  -9999      0.530246   10.589349  1831.815918
10.1       -9999      29.43289   -9999      0.526663   10.601958  1831.854004
10.2       -9999      29.017515  -9999      0.550979   10.624803  1830.915405
10.3       -9999      28.605839  -9999      0.588342   10.647549  1829.572266
10.4       -9999      27.733181  -9999      0.632719   10.639561  1827.721924
10.5       -9999      27.173035  -9999      0.670251   10.595343  1826.442261
10.6       -9999      27.388672  -9999      0.695621   10.530247  1824.793823
10.7       -9999      27.897083  -9999      0.69965    10.452895  1822.64856
10.8       -9999      28.66547   -9999      0.693163   10.423552  1819.865723
10.9       -9999      28.624994  -9999      0.673021   10.416989  1816.039673
11         -9999      27.950663  -9999      0.648131   10.479044  1811.619507
11.1       -9999      26.818686  -9999      0.614812   10.511018  1807.283081
11.2       -9999      26.599745  -9999      0.589302   10.507733  1813.515503
11.3       -9999      25.969349  -9999      0.567371   10.358542  1818.974609
11.4       -9999      25.187067  -9999      0.558442   10.276205  1797.84436
11.5       -9999      23.921041  -9999      0.553942   10.241304  1763.59375
11.6       -9999      23.31637   -9999      0.560669   10.385418  1738.391968
11.7       -9999      22.6873    -9999      0.570156   10.552316  1731.57959
11.8       -9999      22.328222  -9999      0.587388   10.798835  1735.315918
11.9       -9999      22.641773  -9999      0.598946   11.008837  1762.158203
12         -9999      23.37925   -9999      0.607536   11.15812   1801.867676
12.1       -9999      23.507763  -9999      0.605071   11.208129  1825.545044
12.2       -9999      22.837328  -9999      0.5973270000000001 11.243855  1819.077026
12.3       -9999      22.68391   -9999      0.580955   11.314917  1804.67749
12.4       -9999      23.310839  -9999      0.566531   11.295094  1796.661743
12.5       -9999      24.670488  -9999      0.559629   11.252295  1788.848389
12.6       -9999      25.818815  -9999      0.559676   11.163391  1785.382324
12.7       -9999      27.28299   -9999      0.56211    11.16544   1783.08667
12.8       -9999      28.069979  -9999      0.561734   11.101762  1778.436279
12.9       -9999      28.565308  -9999      0.5584519999999999 11.089496  1772.572144
13         -9999      28.562267  -9999      0.546162   11.043421  1766.545044
13.1       -9999      28.98159   -9999      0.5301     11.035298  1763.881104
13.2       -9999      29.239382  -9999      0.515765   10.94385   1763.291382
13.3       -9999      30.041246  -9999      0.509082   10.956573  1766.705566
13.4       -9999      30.941912  -9999      0.50813    10.954413  1769.321411
13.5       -9999      32.12743   -9999      0.509351   10.98969   1772.312744
13.6       -9999      32.932442  -9999      0.514163   10.934278  1774.384277
13.7       -9999      33.865837  -9999      0.518788   10.94638   1777.915161
13.8       -9999      34.510838  -9999      0.520516   10.884366  1782.32959
13.9       -9999      35.291855  -9999      0.5188390000000001 10.864505  1788.929688
14         -9999      36.049362  -9999      0.5170630000000001 10.797219  1795.253784
14.1       -9999      36.589615  -9999      0.521827   10.814209  1799.498169
14.2       -9999      36.203846  -9999      0.529849   10.806092  1799.869141
14.3       -9999      35.979061  -9999      0.543533   10.840942  1795.78479
14.4       -9999      34.997818  -9999      0.557133   10.911734  1789.532837
14.5       -9999      34.560207  -9999      0.571209   11.029334  1783.979858
14.6       -9999      33.579937  -9999      0.5776250000000001 11.142173  1783.053833
14.7       -9999      34.244461  -9999      0.5766250000000001 11.207453  1784.527466
14.8       -9999      35.435535  -9999      0.5690730000000001 11.23713   1786.172119
14.9       -9999      37.49437   -9999      0.555416   11.21182   1787.784424
15         -9999      38.790371  -9999      0.543609   11.139799  1790.452759
15.1       -9999      40.484489  -9999      0.536971   11.045108  1791.081299
15.2       -9999      41.544811  -9999      0.543923   10.974888  1790.204712
15.3       -9999      42.560318  -9999      0.555041   10.931577  1788.52771
15.4       -9999      43.056168  -9999      0.567851   10.922469  1787.357422
15.5       -9999      43.173462  -9999      0.576693   10.945376  1784.718384
15.6       -9999      43.672405  -9999      0.579387   10.970732  1779.854614
15.7       -9999      43.331192  -9999      0.57198    10.983624  1776.546143
15.8       -9999      42.331985  -9999      0.556805   10.969436  1778.665161
15.9       -9999      40.647907  -9999      0.538171   10.922051  1787.885864
16         -9999      40.549011  -9999      0.516796   10.891384  1802.812012
16.1       -9999      40.854332  -9999      0.494483   10.861883  1820.713135
16.2       -9999      42.05032   -9999      0.474871   10.86452   1839.676147
16.3       -9999      42.13863   -9999      0.461015   10.864379  1856.877808
16.4       -9999      42.819656  -9999      0.44904    10.863606  1872.006104
16.5       -9999      42.70863   -9999      0.434835   10.845835  1884.958252
16.6       -9999      42.563541  -9999      0.417401   10.805034  1898.044434
16.7       -9999      42.443855  -9999      0.398651   10.764976  1909.819092
16.8       -9999      43.219711  -9999      0.381476   10.711047  1920.101685
16.9       -9999      44.412693  -9999      0.369735   10.653991  1926.884888
17         -9999      45.959995  -9999      0.361208   10.578505  1927.259766
17.1       -9999      47.419968  -9999      0.353597   10.564693  1922.450928
17.2       -9999      48.971905  -9999      0.341514   10.532107  1914.269409
17.3       -9999      49.37743   -9999      0.326818   10.539319  1909.895264
17.4       -9999      48.621727  -9999      0.309751   10.505604  1909.796997
17.5       -9999      46.684624  -9999      0.293742   10.533157  1917.253906
17.6       -9999      45.660782  -9999      0.278377   10.517989  1929.032959
17.7       -9999      44.974258  -9999      0.267281   10.556399  1943.537231
17.8       -9999      45.979038  -9999      0.261994   10.553578  1953.099609
17.9       -9999      46.863125  -9999      0.264923   10.60049   1958.772217
18         -9999      48.56221   -9999      0.27317    10.636534  1962.406738
18.1       -9999      48.569687  -9999      0.287355   10.65563   1966.537598
18.2       -9999      48.214199  -9999      0.302946   10.657492  1969.130859
18.3       -9999      47.492134  -9999      0.318755   10.646252  1970.973755
18.4       -9999      48.146324  -9999      0.326474   10.660488  1970.72998
18.5       -9999      48.751183  -9999      0.329268   10.646711  1970.272217
18.6       -9999      49.593876  -9999      0.325522   10.678813  1968.994751
18.7       -9999      49.534897  -9999      0.320985   10.671159  1968.581665
18.8       -9999      49.209126  -9999      0.313333   10.71407   1968.005615
18.9       -9999      48.326702  -9999      0.309115   10.705474  1969.58728
19         -9999      47.835831  -9999      0.310479   10.718142  1972.557861
19.1       -9999      47.311184  -9999      0.318636   10.689458  1979.138794
19.2       -9999      46.805866  -9999      0.328983   10.681416  1987.983765
19.3       -9999      45.790733  -9999      0.337129   10.665624  1999.643677
19.4       -9999      45.614464  -9999      0.342609   10.67857   2010.70874
19.5       -9999      45.241219  -9999      0.344491   10.657109  2015.910889
