~Version
 VERS              .         2.0                           : CWLS LOG ASCII STANDARD - VERSION 2.0
 WRAP              .         NO                            : ONE LINE PER DEPTH STEP
 DLM               .         SPACE                         : DELIMITING CHARACTER(SPACE TAB OR COMMA)
~Well Information
#_______________________________________________________________________________
#
#PARAMETER_NAME    .UNIT     VALUE                         : DESCRIPTION
#_______________________________________________________________________________
STRT               .m        154.6                         : First reference value
STOP               .m        412.0036                      : Last reference value
STEP               .m        0.1524                        : Step increment
NULL               .         -9999                         : Missing value
COMP               .                                       : Company
WELL               .         B                             : Well name
FLD                .                                       : Field
LOC                .                                       : Location
CNTY               .                                       : County
STAT               .                                       : State
CTRY               .                                       : Country
SRVC               .                                       : Service Company
DATE               .                                       : Date
API                .                                       : API number
~Parameter Information Block
#_______________________________________________________________________________
#
#PARAMETER_NAME    .UNIT     VALUE                         : DESCRIPTION
#_______________________________________________________________________________
SET                .         Inclination                   : 
TLFamily_AZI       .         Hole Azimuth                  : 
TLFamily_AZ_OF_P1  .                                       : 
TLFamily_CAL2      .         Caliper 2                     : 
TLFamily_CAL4      .         Caliper                       : 
TLFamily_CAL6      .         Caliper                       : 
TLFamily_CAL8      .         Caliper                       : 
TLFamily_CALX      .         Caliper 1                     : 
TLFamily_CALY      .         Caliper 2                     : 
TLFamily_DEV       .         Hole Deviation                : 
TLFamily_DMAX      .         Caliper                       : 
TLFamily_DMIN      .         Caliper                       : 
TLFamily_GR        .         Gamma Ray                     : 
TLFamily_HAZI      .         Hole Azimuth                  : 
TLFamily_MD        .         Measured Depth                : 
TLFamily_RB_OF_P1  .         Relative Bearing              : 
TLFamily_ROT       .         Relative Bearing              : 
~Curve Information
#_______________________________________________________________________________
#
#LOGNAME           .UNIT     LOG_ID                        : DESCRIPTION
#_______________________________________________________________________________
MD                 .m                                      :  
AZ_OF_P1           .deg                                    : Unrecognised 
AZI                .deg                                    : AZIMUTH OF FIRST PIXEL OF IMAGE ARRAY 
CAL2               .in                                     : Unrecognised 
CAL4               .in                                     : Unrecognised 
CAL6               .in                                     : Unrecognised 
CAL8               .in                                     : Unrecognised 
CALX               .in                                     : Unrecognised 
CALY               .in                                     : Unrecognised 
DEV                .deg                                    : Unrecognised 
DMAX               .in                                     : Unrecognised 
DMIN               .in                                     : Unrecognised 
GR                 .gAPI                                   : Gamma Ray 
HAZI               .deg                                    : HOLE AZIMUTH 
RB_OF_P1           .deg                                    : Unrecognised 
ROT                .deg                                    : RELATIVE BEARING OF FIRST PIXEL OF IMAGE ARRAY 
~Ascii
# ...
189.652    268.4297   0          8.164928   7.839031   8.038761   8.049076   8.189193   8.116593   1.337356   8.189193   7.944054   45.91887   8.83191    259.5978   351.1681  
189.8044   269.7116   0          8.217044   7.806272   8.000134   8.073472   8.202934   8.119274   1.296517   8.202934   7.939872   50.00388   9.867331   259.8442   350.1327  
189.9568   272.1388   0          8.153752   7.812016   7.9906     8.082451   8.142532   8.113112   1.235876   8.142532   7.947234   54.01094   8.968667   263.17     351.0313  
190.1092   275.3085   0          8.081977   7.803515   7.975152   8.01679    8.122446   8.095814   1.233651   8.122446   7.910153   55.54124   8.630601   266.678    351.3694  
190.2616   277.5419   0          8.067026   7.788681   7.953746   8.033021   8.129354   8.136963   1.182741   8.143682   7.910851   52.86215   10.19108   267.3509   349.8089  
190.414    277.1617   0          8.190597   7.842851   7.97009    8.144917   8.264516   8.181346   1.205914   8.264516   7.993884   47.89745   9.401996   267.7598   350.598   
190.5664   276.2987   0          8.514842   8.626222   8.214705   8.408843   8.525321   8.523387   1.214605   8.627048   8.342602   45.09584   8.886394   267.4127   351.1136  
190.7188   280.8035   0          9.242538   8.974284   7.936941   8.580926   8.809252   8.464056   1.057266   8.870081   8.450963   48.11905   10.2667    270.5367   349.7333  
190.8712   284.1559   0          8.431323   8.365188   7.981479   7.516668   8.201617   8.06462    1.149952   8.2373     7.940928   56.51445   11.04477   273.1112   348.9552  
191.0236   282.9189   0          8.002073   8.000305   7.989059   7.804315   8.011055   8.006741   1.167849   8.015169   7.90231    63.83112   11.82198   271.0969   348.178   
191.176    282.2273   0          7.980049   7.910579   7.943381   7.859463   8.044906   7.985402   1.164695   8.044906   7.885021   67.5938    11.72911   270.4983   348.2709  
191.3284   282.9644   0          8.036633   7.875665   7.91653    7.905028   8.049214   7.96936    1.135592   8.049214   7.890347   68.50079   11.66106   271.3034   348.3389  
191.4808   283.8868   0          7.998552   7.859977   7.950428   7.915853   8.047112   7.931281   1.160103   8.047112   7.887915   67.91673   11.81038   272.0764   348.1896  
191.6332   286.1214   0          7.947183   7.860262   7.989055   7.86904    8.035837   7.947837   1.16589    8.035837   7.864651   68.96214   11.92529   274.1959   348.0747  
191.7856   287.9056   0          7.735741   7.878901   8.025484   7.885613   8.006252   7.962664   1.064302   8.006252   7.869215   70.96035   13.47662   274.429    346.5234  
191.938    287.9139   0          7.731184   7.923212   7.903004   7.863227   8.044559   8.005818   1.098726   8.044559   7.817094   72.12276   13.70264   274.2112   346.2974  
192.0904   288.6891   0          7.921193   7.906358   7.780776   7.81489    8.083304   8.004941   1.090438   8.083304   7.850985   72.59837   12.59625   276.0928   347.4037  
192.2428   288.7116   0          8.116461   7.786792   7.545724   7.827314   8.007785   7.957408   1.099885   8.007785   7.807053   71.98534   15.03331   273.6783   344.9667  
192.3952   289.0258   0          8.091569   7.640984   7.629162   7.817019   7.929652   7.95274    1.081532   7.953779   7.729002   70.98273   14.02972   274.9961   345.9703  
192.5476   290.6038   0          8.120807   7.647462   7.612931   7.892621   7.970836   7.999989   1.041096   8.01409    7.770041   69.53758   14.17822   276.4255   345.8218  
192.7      292.132    0          8.10996    7.697712   7.629711   8.107491   8.06133    8.055818   1.051201   8.06133    7.869835   68.14864   13.84435   278.2877   346.1556  
192.8524   293.0583   0          8.149694   7.850561   7.70352    8.06925    8.155337   8.055526   1.025078   8.155337   7.926608   68.23736   11.95858   281.0997   348.0414  
193.0048   293.5175   0          8.171144   7.95626    7.897975   8.006047   8.193755   8.052012   1.018583   8.193755   7.981154   70.05589   12.08634   281.4312   347.9137  
193.1572   293.0056   0          8.195508   8.079111   7.856035   7.963572   8.146342   8.008838   1.032691   8.146342   8.002042   73.35188   12.13434   280.8712   347.8657  
193.3096   289.8052   0          8.192743   7.977509   7.803182   8.010362   8.137251   8.098103   1.099221   8.137251   7.993229   73.62997   12.94009   276.8651   347.0599  
193.462    288.8446   0          8.232971   8.036049   7.852914   7.932135   8.125842   8.099873   1.104204   8.125842   7.984092   70.01829   13.14685   275.6978   346.8531  
193.6144   288.6414   0          8.20261    7.964667   7.941261   7.978101   8.080601   8.150949   1.118895   8.150949   7.971384   65.45414   13.00678   275.6346   346.9932  
193.7668   287.8707   0          8.184519   8.083323   8.07069    7.995096   8.053436   8.125767   1.114688   8.145539   8.020974   63.51636   12.63562   275.235    347.3644  
193.9192   286.8456   0          8.117225   7.935466   8.02158    8.037      8.035252   8.083924   1.12669    8.093069   7.986233   66.09985   11.9311    274.9145   348.0689  
194.0716   285.99     0          8.146293   7.920811   7.940779   8.03623    8.120751   8.081549   1.134802   8.120751   7.97852    68.02194   11.65872   274.3313   348.3413  
194.224    286.2004   0          8.104403   7.932694   7.942246   7.980214   8.122087   8.08154    1.09495    8.122087   7.956454   68.46251   12.11349   274.0869   347.8865  
194.3764   286.3176   0          8.05477    7.927361   7.952697   8.00036    8.095692   8.077918   1.109572   8.095692   7.963861   69.09323   12.75343   273.5642   347.2466  
194.5288   286.4236   0          8.006369   7.873077   7.936577   8.029832   8.087544   8.01944    1.121399   8.087544   7.947078   70.55288   11.30726   275.1163   348.6927  
194.6812   286.8828   0          7.990177   7.863849   7.890786   8.042429   8.075292   8.035841   1.114846   8.075292   7.940482   73.74375   11.78181   275.101    348.2182  
194.8336   288.1266   0          8.091869   7.978799   7.873102   8.005626   8.10462    8.042804   1.10694    8.10462    7.982143   75.2557    12.37384   275.7528   347.6262  
194.986    290.5431   0          8.108778   7.853172   7.822653   8.043174   8.132075   8.039338   1.081004   8.132075   7.94819    74.01078   12.55941   277.9837   347.4406  
195.1384   291.4562   0          8.136997   7.869068   7.847514   8.049671   8.136992   8.052852   1.073264   8.136992   7.95937    70.44276   12.93075   278.5255   347.0692  
195.2908   292.9542   0          8.080715   7.909358   7.883018   8.013258   8.13703    8.064085   1.046128   8.13703    7.961308   66.82278   12.56075   280.3935   347.4393  
195.4432   294.4608   0          8.109366   7.958455   7.91757    8.010201   8.171942   8.068597   1.029881   8.171942   7.984328   67.43242   13.15145   281.3094   346.8485  
195.5956   293.3197   0          8.288636   7.913524   7.899059   8.114526   8.313241   8.093561   1.024933   8.313241   8.014025   70.44071   12.84856   280.4711   347.1514  
195.748    292.4351   0          8.313747   7.989345   7.938291   8.126616   8.302684   8.12774    1.049013   8.302684   8.057981   73.06448   12.90163   279.5334   347.0984  
195.9004   292.1451   0          8.214713   7.91963    7.842227   8.024871   8.176406   8.043372   1.067595   8.176406   7.97225    73.26432   12.61794   279.5272   347.382   
196.0528   292.5307   0          8.163675   7.908763   7.854605   8.035427   8.154784   8.033427   1.053439   8.154784   7.972095   71.88148   13.16005   279.3706   346.84    
196.2052   293.5959   0          8.127271   7.853783   7.799515   8.021567   8.146641   8.026236   1.036805   8.146641   7.937675   70.00942   12.29017   281.3058   347.7098  
196.3576   295.7241   0          8.106299   7.832591   7.800951   8.055674   8.182772   8.038106   1.022691   8.182772   7.944132   68.13086   12.84906   282.875    347.1509  
196.51     298.1649   0          8.116044   7.800133   7.750737   8.067787   8.198559   7.975636   0.9850006  8.198559   7.927314   67.02394   14.02514   284.1396   345.9749  
