~Version
 VERS              .         2.0                           : CWLS LOG ASCII STANDARD - VERSION 2.0
 WRAP              .         NO                            : ONE LINE PER DEPTH STEP
 DLM               .         SPACE                         : DELIMITING CHARACTER(SPACE TAB OR COMMA)
~Well Information
#_______________________________________________________________________________
#
#PARAMETER_NAME    .UNIT     VALUE                         : DESCRIPTION
#_______________________________________________________________________________
STRT               .m        154.6                         : First reference value
STOP               .m        412.0036                      : Last reference value
STEP               .m        0.1524                        : Step increment
NULL               .         -9999                         : Missing value
COMP               .                                       : Company
WELL               .         B                             : Well name
FLD                .                                       : Field
LOC                .                                       : Location
CNTY               .                                       : County
STAT               .                                       : State
CTRY               .                                       : Country
SRVC               .                                       : Service Company
DATE               .                                       : Date
API                .                                       : API number
~Parameter Information Block
#_______________________________________________________________________________
#
#PARAMETER_NAME    .UNIT     VALUE                         : DESCRIPTION
#_______________________________________________________________________________
SET                .         Inclination                   : 
TLFamily_AZI       .         Hole Azimuth                  : 
TLFamily_AZ_OF_P1  .                                       : 
TLFamily_CAL2      .         Caliper 2                     : 
TLFamily_CAL4      .         Caliper                       : 
TLFamily_CAL6      .         Caliper                       : 
TLFamily_CAL8      .         Caliper                       : 
TLFamily_CALX      .         Caliper 1                     : 
TLFamily_CALY      .         Caliper 2                     : 
TLFamily_DEV       .         Hole Deviation                : 
TLFamily_DMAX      .         Caliper                       : 
TLFamily_DMIN      .         Caliper                       : 
TLFamily_GR        .         Gamma Ray                     : 
TLFamily_HAZI      .         Hole Azimuth                  : 
TLFamily_MD        .         Measured Depth                : 
TLFamily_RB_OF_P1  .         Relative Bearing              : 
TLFamily_ROT       .         Relative Bearing              : 
~Curve Information
#_______________________________________________________________________________
#
#LOGNAME           .UNIT     LOG_ID                        : DESCRIPTION
#_______________________________________________________________________________
MD                 .m                                      :  
AZ_OF_P1           .deg                                    : Unrecognised 
AZI                .deg                                    : AZIMUTH OF FIRST PIXEL OF IMAGE ARRAY 
CAL2               .in                                     : Unrecognised 
CAL4               .in                                     : Unrecognised 
CAL6               .in                                     : Unrecognised 
CAL8               .in                                     : Unrecognised 
CALX               .in                                     : Unrecognised 
CALY               .in                                     : Unrecognised 
DEV                .deg                                    : Unrecognised 
DMAX               .in                                     : Unrecognised 
DMIN               .in                                     : Unrecognised 
GR                 .gAPI                                   : Gamma Ray 
HAZI               .deg                                    : HOLE AZIMUTH 
RB_OF_P1           .deg                                    : Unrecognised 
ROT                .deg                                    : RELATIVE BEARING OF FIRST PIXEL OF IMAGE ARRAY 
~Ascii
# ...
392.9536   104.6525   0          8.335161   8.426067   8.396659   8.271606   8.444261   8.317332   0.9547461  8.444261   8.317332   20.41608   295.0904   169.5622   64.90961  
393.106    105.0786   0          8.418868   8.333796   8.320374   8.318471   8.398889   8.288471   0.8992646  8.398889   8.288471   20.49613   295.0145   170.0641   64.98551  
393.2584   105.2827   0          8.425323   8.287532   8.227292   8.298236   8.329526   8.247142   0.8965164  8.330806   8.247142   23.4057    296.6297   168.653    63.37027  
393.4108   105.6357   0          8.404139   8.204035   8.121681   8.303357   8.283723   8.191155   0.8581002  8.283723   8.191155   31.05993   298.7859   166.8498   61.21408  
393.5632   105.322    0          8.310125   8.165526   8.10089    8.193922   8.246591   8.069836   0.8693161  8.246591   8.069836   43.06852   298.0928   167.2291   61.90717  
393.7156   103.2129   0          7.787457   7.845471   7.627521   7.478033   7.738747   7.637816   0.8617457  7.738747   7.629343   52.41325   295.3804   167.8326   64.61957  
393.868    101.4918   0          7.744903   7.608136   7.562002   7.59008    7.636714   7.638769   0.8199042  7.666521   7.599108   54.07363   292.1641   169.3277   67.8359   
394.0204   100.4741   0          7.953537   7.640932   7.594384   7.649006   7.615741   7.705301   0.8215508  7.784111   7.591992   49.58176   292.1574   168.3168   67.84261  
394.1728   100.8805   0          7.915637   7.594596   7.493762   7.718976   7.688245   7.664192   0.8189263  7.718235   7.655287   44.51694   293.3967   167.4839   66.60334  
394.3252   102.2072   0          7.855526   7.516271   7.472969   7.678693   7.58118    7.641629   0.8597116  7.664247   7.58118    41.70298   293.3619   168.8454   66.63805  
394.4776   105.4364   0          8.092484   7.572488   7.404031   7.575318   7.767469   7.649105   0.8264166  7.793452   7.570813   39.1063    295.4274   170.0089   64.57257  
394.63     107.2235   0          7.748322   7.616363   7.450803   7.492681   7.599567   7.678204   0.8145237  7.678204   7.517549   37.80596   297.8572   169.3677   62.14279  
394.7824   106.5446   0          7.753393   7.569858   7.322954   7.618796   7.380928   7.721375   0.8430258  7.721375   7.380928   38.76837   295.8272   170.7175   64.1728   
394.9348   106.1469   0          7.805656   7.448874   6.535635   7.715519   7.308345   7.68295    0.8633416  7.68295    7.170646   40.09097   296.6534   169.4935   63.34663  
395.0872   105.6015   0          7.965424   7.211728   7.190728   7.743396   7.382635   7.716474   0.862219   7.716474   7.362449   38.97218   295.915    169.6865   64.08499  
395.2396   102.7236   0          8.080088   7.423578   7.248962   7.792887   7.212843   7.716103   0.8306985  7.716103   7.212843   35.58062   294.8301   167.8935   65.16987  
395.392    102.5529   0          7.953141   7.399584   7.115633   7.877912   7.11447    7.709458   0.8312871  7.709458   7.11447    32.47316   294.4604   168.0924   65.53964  
395.5444   104.5059   0          7.88006    7.601696   7.263064   7.943229   7.622961   7.724713   0.8883111  7.772462   7.554955   30.25668   294.08     170.426    65.92003  
395.6968   105.2272   0          7.86659    7.712671   7.661459   7.98391    7.737443   7.785336   0.881283   7.84829    7.737443   29.60874   294.688    170.5393   65.31205  
395.8492   103.5063   0          7.794492   7.7215     7.310576   8.078782   7.791874   7.695455   0.8551985  7.900141   7.552534   31.23874   291.4605   172.0459   68.53951  
396.0016   103.5278   0          7.796653   7.717103   7.193576   8.131197   7.812478   7.718407   0.8749501  7.92415    7.495115   36.73085   290.2249   173.3028   69.77505  
396.154    104.8922   0          7.645279   7.406528   7.857104   8.106565   7.732116   7.711088   0.872746   7.889485   7.618253   46.11952   290.2255   174.6665   69.77454  
396.3064   106.0915   0          7.475653   6.430986   6.538837   8.706227   7.558709   7.686436   0.8680619  7.686436   7.007253   55.75901   296.0853   170.0064   63.91468  
396.4588   105.4283   0          7.85683    7.137419   6.499113   7.909642   7.58499    7.694446   0.8696517  7.694446   7.178018   62.97033   297.4325   167.9958   62.56751  
396.6112   105.1948   0          7.785054   7.276982   6.51017    7.799747   7.633356   7.590917   0.855185   7.633356   7.147612   66.96707   297.2266   167.9682   62.77341  
396.7636   108.3554   0          7.629676   7.229594   6.496432   7.81038    7.605838   7.527017   0.853599   7.605838   7.063054   67.37054   299.5786   168.7768   60.42142  
396.916    111.8058   0          7.537065   7.257002   6.796552   7.690402   7.599477   7.386117   0.8782855  7.599477   7.166808   65.74464   300.7868   171.0189   59.21317  
397.0684   113.6793   0          7.389806   7.078908   7.060589   7.730108   7.606403   7.324028   0.8833867  7.606403   7.225197   62.42185   301.5094   172.1701   58.49064  
397.2208   112.5505   0          7.577654   6.941222   7.214612   7.804277   7.649704   7.459765   0.8899568  7.649704   7.368684   55.61801   302.5683   169.9821   57.43172  
397.3732   109.9798   0          7.371664   6.944234   7.422515   7.806428   7.708066   7.452312   0.8441957  7.708066   7.370093   45.95926   299.1995   170.7803   60.80049  
397.5256   109.0818   0          7.469208   7.062093   7.431746   7.833175   7.84605    7.519197   0.8529132  7.84605    7.440075   34.93807   298.0664   171.0154   61.93356  
397.678    109.0598   0          8.414573   8.394586   8.456963   8.067282   8.277578   8.387043   0.8242189  8.509257   8.19515    25.8637    297.6439   171.4159   62.35612  
397.8304   111.0049   0          9.015259   8.888582   8.853989   8.447629   9.009232   8.818715   0.914475   9.009232   8.668105   21.93362   297.1409   173.864    62.85911  
397.9828   109.4186   0          9.124285   8.864689   8.963509   8.71355    9.17603    9.040762   0.8979312  9.17603    8.789119   22.11966   296.9929   172.4259   63.00713  
398.1352   108.9858   0          7.756391   7.499977   9.051179   8.453852   8.478117   7.816075   0.8524359  8.51915    7.816075   25.32359   296.2729   172.7122   63.72709  
398.2876   111.6298   0          7.954695   7.319541   8.572017   8.051107   8.109872   7.658193   0.8794812  8.263356   7.658193   30.35947   302.2533   169.3806   57.74672  
398.44     112.4193   0          7.648789   7.72341    8.674351   7.915407   8.086132   7.67195    0.849027   8.16157    7.67195    34.39201   303.4604   168.9589   56.53964  
398.5924   112.4566   0          7.634605   7.778213   8.680231   7.923023   8.097766   7.680026   0.8201161  8.157417   7.680026   34.76547   300.5999   171.8567   59.4001   
398.7448   112.7994   0          7.761962   7.847613   8.731811   7.995958   8.474168   7.881251   0.8164948  8.498687   7.881251   31.04884   302.8107   169.9888   57.18933  
398.8972   109.8278   0          9.299348   9.262052   8.932184   8.872922   9.153858   8.601905   0.887507   9.153858   8.601905   26.08319   301.2687   168.5592   58.73132  
399.0496   110.4499   0          9.462421   9.536455   9.402311   9.337942   9.328721   9.475596   0.9048134  9.475596   9.328721   23.28493   301.5344   168.9155   58.46559  
399.202    106.7609   0          9.146507   8.164674   7.630888   8.892616   8.389081   8.532156   0.8749831  8.532266   8.383642   23.55616   300.3645   166.397    59.6355   
399.3544   106.2791   0          7.966818   7.554379   7.498622   8.620497   8.054685   7.972166   0.9187661  8.094068   7.732719   24.29636   300.0885   166.1908   59.91151  
399.5068   108.281    0          7.617812   7.847357   7.817797   8.560328   8.075743   7.741424   0.8594745  8.203843   7.717805   24.51281   297.1897   171.0913   62.81034  
399.6592   107.6755   0          7.762972   7.926479   7.819559   8.598984   8.126872   7.779541   0.795626   8.262732   7.772259   25.84344   296.4311   171.2439   63.56886  
399.8116   101.2941   0          7.845195   7.903008   7.932043   8.561987   8.182238   7.750841   0.8175979  8.232497   7.750841   31.27749   291.8378   169.4568   68.1622   
