~Version
 VERS              .         2.0                           : CWLS LOG ASCII STANDARD - VERSION 2.0
 WRAP              .         NO                            : ONE LINE PER DEPTH STEP
 DLM               .         SPACE                         : DELIMITING CHARACTER(SPACE TAB OR COMMA)
~Well Information
#_______________________________________________________________________________
#
#PARAMETER_NAME    .UNIT     VALUE                         : DESCRIPTION
#_______________________________________________________________________________
STRT               .m        154.6                         : First reference value
STOP               .m        412.0036                      : Last reference value
STEP               .m        0.1524                        : Step increment
NULL               .         -9999                         : Missing value
COMP               .                                       : Company
WELL               .         B                             : Well name
FLD                .                                       : Field
LOC                .                                       : Location
CNTY               .                                       : County
STAT               .                                       : State
CTRY               .                                       : Country
SRVC               .                                       : Service Company
DATE               .                                       : Date
API                .                                       : API number
~Parameter Information Block
#_______________________________________________________________________________
#
#PARAMETER_NAME    .UNIT     VALUE                         : DESCRIPTION
#_______________________________________________________________________________
SET                .         Inclination                   : 
TLFamily_AZI       .         Hole Azimuth                  : 
TLFamily_AZ_OF_P1  .                                       : 
TLFamily_CAL2      .         Caliper 2                     : 
TLFamily_CAL4      .         Caliper                       : 
TLFamily_CAL6      .         Caliper                       : 
TLFamily_CAL8      .         Caliper                       : 
TLFamily_CALX      .         Caliper 1                     : 
TLFamily_CALY      .         Caliper 2                     : 
TLFamily_DEV       .         Hole Deviation                : 
TLFamily_DMAX      .         Caliper                       : 
TLFamily_DMIN      .         Caliper                       : 
TLFamily_GR        .         Gamma Ray                     : 
TLFamily_HAZI      .         Hole Azimuth                  : 
TLFamily_MD        .         Measured Depth                : 
TLFamily_RB_OF_P1  .         Relative Bearing              : 
TLFamily_ROT       .         Relative Bearing              : 
~Curve Information
#_______________________________________________________________________________
#
#LOGNAME           .UNIT     LOG_ID                        : DESCRIPTION
#_______________________________________________________________________________
MD                 .m                                      :  
AZ_OF_P1           .deg                                    : Unrecognised 
AZI                .deg                                    : AZIMUTH OF FIRST PIXEL OF IMAGE ARRAY 
CAL2               .in                                     : Unrecognised 
CAL4               .in                                     : Unrecognised 
CAL6               .in                                     : Unrecognised 
CAL8               .in                                     : Unrecognised 
CALX               .in                                     : Unrecognised 
CALY               .in                                     : Unrecognised 
DEV                .deg                                    : Unrecognised 
DMAX               .in                                     : Unrecognised 
DMIN               .in                                     : Unrecognised 
GR                 .gAPI                                   : Gamma Ray 
HAZI               .deg                                    : HOLE AZIMUTH 
RB_OF_P1           .deg                                    : Unrecognised 
ROT                .deg                                    : RELATIVE BEARING OF FIRST PIXEL OF IMAGE ARRAY 
~Ascii
# ...
168.6208   159.1566   0          7.936729   8.093678   7.969996   7.8509     7.99706    8.009994   1.800644   8.011095   7.953362   76.73687   333.9735   185.1831   26.02648  
168.7732   159.8009   0          7.944936   8.008301   7.964101   7.879694   8.051561   7.992611   1.80458    8.051561   7.940981   79.38405   334.9103   184.8907   25.08972  
168.9256   158.4847   0          7.945458   8.025812   7.994374   7.8572     8.126316   8.005297   1.79175    8.126316   7.941506   81.56294   333.68     184.8047   26.32003  
169.078    156.0232   0          8.001048   7.999947   7.965225   7.796597   8.201234   8.055138   1.78668    8.201234   7.898272   85.28728   331.947    184.0762   28.05303  
169.2304   156.3383   0          7.908228   8.033064   8.254538   7.826162   8.182804   8.108247   1.796514   8.182804   7.929613   89.02759   332.0034   184.3349   27.99656  
169.3828   159.0565   0          8.045343   8.094448   8.10397    7.914502   8.178288   8.062989   1.827167   8.178288   8.004475   89.13516   334.037    185.0194   25.96296  
169.5352   160.5387   0          8.140663   8.108097   8.111249   7.853879   8.196397   8.123203   1.78927    8.196397   7.980988   81.47604   334.3695   186.1692   25.63049  
169.6876   161.7225   0          8.121612   8.04355    8.186607   7.861341   8.196885   8.11119    1.797101   8.196885   7.952446   66.19975   334.9662   186.7564   25.03385  
169.84     161.5859   0          8.311385   8.097259   8.905471   7.907812   8.358844   8.352505   1.790363   8.608427   8.002535   50.04311   334.3641   187.2218   25.63592  
169.9924   162.5976   0          8.804031   8.384471   9.507824   8.109572   8.620852   8.923738   1.783168   9.155928   8.247022   38.53497   334.962    187.6359   25.03798  
170.1448   167.5011   0          9.081427   8.529087   9.161845   8.352675   8.625292   8.952929   1.811423   9.121636   8.440882   34.058     337.3358   190.1652   22.66422  
170.2972   169.2573   0          8.984782   8.416304   9.029888   8.302855   8.57927    8.832103   1.831283   9.007335   8.359579   32.11507   338.4732   190.7842   21.52681  
170.4496   168.6509   0          9.206892   8.434832   9.104265   8.350752   8.643587   8.921286   1.817225   9.155579   8.392792   31.6446    338.8344   189.8166   21.16565  
170.602    167.6306   0          9.724494   8.592768   9.496118   8.401416   8.699102   9.196936   1.815924   9.610307   8.497092   33.37413   337.004    190.6266   22.99599  
170.7544   166.131    0          10.12558   9.478831   9.654289   8.754773   9.092763   9.53681    1.76667    9.889933   9.084874   36.50041   337.0427   189.0883   22.9573   
170.9068   164.6766   0          9.577546   9.65212    10.16488   9.072618   9.237417   9.400119   1.77203    9.871213   9.237417   39.48404   336.9049   187.7714   23.09507  
171.0592   167.2637   0          9.425761   8.727003   8.505364   8.746152   8.759396   8.900339   1.79741    9.004663   8.676026   40.22142   336.8947   190.369    23.10532  
171.2116   168.8553   0          8.961108   8.705383   8.696264   8.589205   8.776793   8.796851   1.844904   8.828687   8.647294   39.52417   337.8464   191.0089   22.15356  
171.364    170.2533   0          9.48234    9.391133   10.13781   8.651552   9.376636   9.349194   1.806046   9.810077   9.021342   38.87605   337.853    192.4003   22.14696  
171.5164   170.1185   0          9.771241   9.679068   10.42453   8.532637   9.504401   9.491833   1.768992   10.09788   9.105852   39.37848   338.9334   191.1851   21.0666   
171.6688   169.6886   0          9.641107   9.215123   9.555285   8.764112   9.45799    9.374238   1.86335    9.598196   8.989618   41.02107   338.9773   190.7113   21.0227   
171.8212   168.6628   0          9.874314   9.222407   9.525387   8.714174   9.462341   9.332378   1.892625   9.699851   8.96829    43.36088   338.5233   190.1395   21.47676  
171.9736   170.1718   0          10.13141   9.51031    9.625209   9.518896   9.440126   9.531014   1.886617   9.878308   9.33205    47.28381   338.9026   191.2691   21.09742  
172.126    171.171    0          8.989301   7.744603   7.911282   8.840407   8.370702   8.361238   1.832975   8.457811   8.292505   52.80563   338.4368   192.7342   21.56316  
172.2784   170.4613   0          8.166029   7.981544   8.106077   8.053817   8.170853   8.078817   1.806551   8.170853   8.017679   60.54623   338.9622   191.4991   21.03779  
172.4308   169.4626   0          8.251266   8.123437   8.070395   7.966736   8.208798   8.095413   1.794893   8.208798   8.045086   66.43381   338.4018   191.0608   21.59816  
172.5832   168.6137   0          8.207232   8.104776   8.040938   8.018383   8.196361   8.102432   1.826087   8.196361   8.06158    67.10473   337.5223   191.0914   22.47771  
172.7356   168.4699   0          8.162214   8.207519   8.154469   8.01242    8.240345   8.174148   1.827288   8.240345   8.109968   64.86559   337.5914   190.8786   22.40864  
172.888    169.7991   0          8.164884   8.534655   8.34736    7.99899    8.348702   8.292551   1.84722    8.348702   8.249417   63.49683   338.16     191.6391   21.83997  
173.0404   172.2537   0          8.525288   8.220792   8.150982   8.36642    8.2054     8.470209   1.827153   8.470209   8.20256    64.85134   338.3755   193.8782   21.62452  
173.1928   176.2862   0          8.668095   8.0574     7.875125   8.555872   8.110635   8.449053   1.858463   8.449053   8.110635   66.26618   339.5403   196.7459   20.45974  
173.3452   178.0963   0          8.333135   8.217262   8.023261   8.230851   8.310234   8.211937   1.848899   8.310234   8.178198   65.21942   340.6724   197.424    19.32762  
173.4976   181.0805   0          8.13102    8.301452   8.158831   7.828756   8.099456   8.120229   1.787513   8.14653    8.065045   63.39956   341.3346   199.7459   18.66537  
173.65     184.7832   0          8.31152    8.164952   8.185991   8.017603   8.17784    8.233668   1.765604   8.253284   8.091277   63.8508    342.3943   202.389    17.60575  
173.8024   185.5577   0          8.500445   8.667146   8.719928   8.21997    8.550475   8.434587   1.782889   8.612985   8.431544   65.60127   343.4664   202.0913   16.53361  
173.9548   185.0827   0          8.673599   8.780642   9.335811   8.639146   9.072872   8.78394    1.804273   9.072872   8.709893   68.9549    343.0069   202.0758   16.99306  
174.1072   187.4878   0          9.004019   8.936638   8.959547   8.745384   9.064642   8.794754   1.787409   9.064642   8.794754   73.75034   343.9063   203.5815   16.09371  
174.2596   190.5236   0          8.43281    8.481506   8.61636    8.341409   8.556695   8.420898   1.806432   8.556695   8.398342   79.07825   345.8975   204.6263   14.10252  
174.412    195.03     0          7.52873    8.157255   8.106776   8.036012   8.079774   8.026076   1.788999   8.102388   7.817753   81.38422   347.4911   207.5386   12.50884  
174.5644   199.1664   0          6.857134   7.951185   7.818402   7.986935   7.780197   7.882329   1.749844   7.96906    7.337768   77.24895   348.7398   210.4266   11.26018  
174.7168   200.3233   0          7.065567   7.986579   7.717299   7.5333     7.798973   7.838587   1.78261    7.838587   7.391433   73.1017    349.5864   210.7369   10.41361  
174.8692   198.9586   0          7.49933    7.915092   7.632817   7.79944    7.737281   7.878294   1.773777   7.878294   7.566073   74.04353   348.8637   210.0948   11.13627  
175.0216   197.4008   0          7.449212   7.732747   7.835223   8.066533   7.725178   7.911818   1.805445   7.916635   7.642218   80.29062   348.1221   209.2787   11.87791  
175.174    197.9848   0          7.395652   7.742954   7.83817    8.211416   7.72834    7.949685   1.815467   7.977185   7.616911   87.99331   348.1986   209.7862   11.80137  
175.3264   198.8371   0          7.589194   7.759432   7.810831   8.310246   7.810044   7.943512   1.825854   8.03484    7.700013   93.20726   348.394    210.4431   11.60604  
175.4788   198.3322   0          7.910218   7.8584     7.936653   8.368203   7.913963   7.963247   1.824115   8.113301   7.884515   97.70875   348.3819   209.9503   11.61813  
