~Version
 VERS              .         2.0                           : CWLS LOG ASCII STANDARD - VERSION 2.0
 WRAP              .         NO                            : ONE LINE PER DEPTH STEP
 DLM               .         SPACE                         : DELIMITING CHARACTER(SPACE TAB OR COMMA)
~Well Information
#_______________________________________________________________________________
#
#PARAMETER_NAME    .UNIT     VALUE                         : DESCRIPTION
#_______________________________________________________________________________
STRT               .m        154.6                         : First reference value
STOP               .m        412.0036                      : Last reference value
STEP               .m        0.1524                        : Step increment
NULL               .         -9999                         : Missing value
COMP               .                                       : Company
WELL               .         B                             : Well name
FLD                .                                       : Field
LOC                .                                       : Location
CNTY               .                                       : County
STAT               .                                       : State
CTRY               .                                       : Country
SRVC               .                                       : Service Company
DATE               .                                       : Date
API                .                                       : API number
~Parameter Information Block
#_______________________________________________________________________________
#
#PARAMETER_NAME    .UNIT     VALUE                         : DESCRIPTION
#_______________________________________________________________________________
SET                .         Inclination                   : 
TLFamily_AZI       .         Hole Azimuth                  : 
TLFamily_AZ_OF_P1  .                                       : 
TLFamily_CAL2      .         Caliper 2                     : 
TLFamily_CAL4      .         Caliper                       : 
TLFamily_CAL6      .         Caliper                       : 
TLFamily_CAL8      .         Caliper                       : 
TLFamily_CALX      .         Caliper 1                     : 
TLFamily_CALY      .         Caliper 2                     : 
TLFamily_DEV       .         Hole Deviation                : 
TLFamily_DMAX      .         Caliper                       : 
TLFamily_DMIN      .         Caliper                       : 
TLFamily_GR        .         Gamma Ray                     : 
TLFamily_HAZI      .         Hole Azimuth                  : 
TLFamily_MD        .         Measured Depth                : 
TLFamily_RB_OF_P1  .         Relative Bearing              : 
TLFamily_ROT       .         Relative Bearing              : 
~Curve Information
#_______________________________________________________________________________
#
#LOGNAME           .UNIT     LOG_ID                        : DESCRIPTION
#_______________________________________________________________________________
MD                 .m                                      :  
AZ_OF_P1           .deg                                    : Unrecognised 
AZI                .deg                                    : AZIMUTH OF FIRST PIXEL OF IMAGE ARRAY 
CAL2               .in                                     : Unrecognised 
CAL4               .in                                     : Unrecognised 
CAL6               .in                                     : Unrecognised 
CAL8               .in                                     : Unrecognised 
CALX               .in                                     : Unrecognised 
CALY               .in                                     : Unrecognised 
DEV                .deg                                    : Unrecognised 
DMAX               .in                                     : Unrecognised 
DMIN               .in                                     : Unrecognised 
GR                 .gAPI                                   : Gamma Ray 
HAZI               .deg                                    : HOLE AZIMUTH 
RB_OF_P1           .deg                                    : Unrecognised 
ROT                .deg                                    : RELATIVE BEARING OF FIRST PIXEL OF IMAGE ARRAY 
~Ascii
# ...
252.7456   269.052    0          7.579964   8.326192   8.308916   7.810251   7.952435   8.141639   1.389596   8.141639   7.926402   50.79135   13.46061   255.5914   346.5394  
252.898    270.9966   0          7.87376    8.300377   7.961914   7.75331    7.898795   8.134419   1.381595   8.134419   7.897654   57.07822   14.27895   256.7177   345.721   
253.0504   272.759    0          7.97743    8.081008   7.952495   7.82501    8.139918   8.145283   1.328779   8.168345   7.928127   61.21898   15.38435   257.3746   344.6157  
253.2028   273.7021   0          8.19206    7.950584   7.666215   8.05733    8.04339    8.136847   1.313821   8.136847   7.929138   62.91725   16.26928   257.4328   343.7307  
253.3552   276.2014   0          8.150151   8.021405   7.556612   7.967125   7.960198   8.060988   1.304781   8.060988   7.853382   63.07062   16.24398   259.9575   343.756   
253.5076   279.3052   0          8.073195   8.048407   7.677389   7.953126   7.966522   8.024405   1.290567   8.024405   7.875292   59.1576    17.27428   262.0309   342.7257  
253.66     281.6794   0          8.006299   7.986418   7.704963   7.933721   7.93512    8.005586   1.269929   8.005586   7.855631   51.99969   17.9378    263.7418   342.0622  
253.8124   283.1634   0          8.023309   7.397103   7.705293   8.391973   7.998611   8.117663   1.200962   8.117663   7.864301   46.30768   17.89262   265.2708   342.1074  
253.9648   282.2503   0          8.0779     7.558064   7.634336   8.139448   7.980996   8.055854   1.204471   8.055854   7.832237   42.16635   17.97555   264.2747   342.0244  
254.1172   281.7134   0          8.231385   7.63828    7.649699   8.141466   8.111131   8.089548   1.22366    8.119234   7.889874   39.753     17.46193   264.2515   342.5381  
254.2696   281.1909   0          8.206401   7.926481   7.71617    8.151892   8.133349   8.0835     1.26145    8.147673   7.956427   39.04629   16.8493    264.3416   343.1507  
254.422    280.7119   0          8.279122   8.227056   7.795888   8.19769    8.150211   8.002801   1.24187    8.212373   8.002801   39.61104   15.32393   265.388    344.6761  
254.5744   281.2784   0          8.280939   8.04861    7.912068   8.283386   8.198012   7.916577   1.286117   8.214609   7.916577   42.60607   15.2473    266.0311   344.7527  
254.7268   279.8391   0          8.234381   7.887362   8.183767   8.040823   8.26458    8.026394   1.273672   8.301429   7.956968   47.86939   15.49659   264.3425   344.5034  
254.8792   279.4597   0          7.896708   7.817772   8.113277   7.955477   8.03166    8.050207   1.285776   8.07794    7.880827   55.22361   15.23772   264.222    344.7623  
255.0316   281.0718   0          7.945185   7.666641   7.977832   7.930668   8.036417   8.017805   1.254628   8.036417   7.798654   64.27647   16.17699   264.8948   343.823   
255.184    283.0216   0          7.971935   7.522187   7.883921   7.836072   8.035873   7.9345     1.233208   8.035873   7.67913    70.84851   15.39578   267.6259   344.6042  
255.3364   285.3968   0          7.990009   7.445255   7.773936   7.867962   8.000831   7.860653   1.235345   8.000831   7.656609   72.59969   16.33739   269.0595   343.6626  
255.4888   288.6161   0          8.026134   7.520622   7.83062    7.761354   8.014697   7.841161   1.179694   8.014697   7.640988   73.13124   18.33406   270.2821   341.666   
255.6412   289.5718   0          8.022779   7.499683   7.867022   7.66263    8.078654   8.090429   1.14385    8.092288   7.581156   76.44727   17.18391   272.3878   342.8161  
255.7936   291.0614   0          8.162131   8.000343   8.027347   8.001121   8.215331   8.139219   1.151183   8.215331   8.000731   82.12235   17.76      273.3015   342.24    
255.946    290.856    0          8.210212   8.001022   8.003421   8.046288   8.209384   8.141731   1.169019   8.209384   8.023655   86.79717   17.74017   273.1158   342.2598  
256.0984   291.8028   0          8.221935   8.061544   7.939731   7.951563   8.23391    8.107721   1.144986   8.23391    8.006554   87.60556   16.91611   274.8867   343.0839  
256.2508   293.2458   0          8.228175   8.002628   7.97949    7.940196   8.247408   8.07015    1.125759   8.247408   7.971412   87.25846   18.49708   274.7487   341.5029  
256.4032   296.3319   0          8.259468   7.912737   7.977297   8.011957   8.169649   8.039243   1.080716   8.169649   7.962347   87.72188   19.26963   277.0623   340.7304  
256.5556   297.9494   0          8.253304   7.822263   7.952357   8.013885   8.22731    7.989838   1.060646   8.22731    7.918074   86.69445   21.26666   276.6827   338.7333  
256.708    299.221    0          8.261016   7.890259   7.916248   7.976067   8.284217   8.059988   1.046724   8.284217   7.930795   85.19745   21.18725   278.0337   338.8127  
256.8604   302.2374   0          8.158467   7.921207   7.926265   7.943286   8.203568   7.904366   1.000122   8.203568   7.904366   83.21471   19.31961   282.9179   340.6804  
257.0128   304.8306   0          8.386132   7.852163   7.769048   7.943591   8.335714   8.091152   0.9923311  8.335714   7.897877   82.96484   20.07302   284.7576   339.927   
257.1652   308.0094   0          8.275453   7.852479   7.935725   7.882593   8.298639   7.973818   1.005509   8.298639   7.867536   85.11777   18.61777   289.3918   341.3822  
257.3176   309.4211   0          8.248034   7.8163     7.779313   8.0066     8.215899   7.939329   0.9411241  8.215899   7.91145    88.54386   19.08619   290.335    340.9138  
257.47     308.7966   0          8.18593    7.741297   7.625179   8.051008   8.101078   7.904201   0.9721187  8.101078   7.891493   90.93024   21.2209    287.5757   338.7791  
257.6224   309.2155   0          8.120021   7.811119   7.688049   7.973944   8.154891   7.898415   0.9117459  8.154891   7.879198   89.0337    22.6104    286.6049   337.3896  
257.7748   311.4578   0          8.188378   7.898357   7.89113    7.997447   8.188861   7.926528   0.9009769  8.188861   7.926528   83.54477   20.78945   290.6683   339.2105  
257.9272   313.1089   0          8.141421   7.693014   7.53471    8.005595   8.141288   7.744235   0.9233981  8.141288   7.744235   77.63784   21.33043   291.7785   338.6696  
258.0796   314.7147   0          7.991669   7.500052   7.596826   7.924428   8.128705   7.731553   0.8972791  8.128705   7.697718   72.85724   20.71413   294.0006   339.2859  
258.232    315.3354   0          7.894475   7.439334   7.694783   7.986001   8.12969    7.779417   0.8877046  8.12969    7.712667   69.76009   19.32098   296.0144   340.679   
258.3844   314.9252   0          7.917377   7.556434   7.70319    7.977163   8.132253   7.816618   0.9196708  8.132253   7.766799   67.45693   19.86149   295.0637   340.1385  
258.5368   314.6103   0          7.984211   7.528286   7.705139   7.944154   8.15242    7.85731    0.9201341  8.15242    7.73622    66.07471   19.33811   295.2722   340.6619  
258.6892   315.1202   0          8.014086   7.462131   7.744307   7.886997   8.167728   7.876143   0.9355576  8.167728   7.674563   65.90158   19.95421   295.1659   340.0458  
258.8416   315.5719   0          8.053652   7.544804   7.828381   7.859936   8.180483   7.918409   0.9199603  8.180483   7.70237    64.57449   17.95423   297.6177   342.0458  
258.994    315.2787   0          7.968345   7.513218   7.884013   7.883781   8.157269   7.897      0.8742831  8.157269   7.6985     60.30115   19.04272   296.2359   340.9573  
259.1464   314.8144   0          7.972023   7.540751   7.855793   7.975003   8.141174   7.915504   0.9161425  8.141174   7.757877   53.74785   20.06362   294.7508   339.9364  
259.2988   313.8808   0          7.978106   7.638429   7.85175    7.884814   8.102052   7.918802   0.9156726  8.102052   7.761621   48.34999   19.1987    294.6821   340.8013  
259.4512   313.5154   0          8.043846   7.691223   7.813099   7.934107   8.074399   7.877214   0.9180284  8.074399   7.812665   48.66559   18.78365   294.7317   341.2163  
259.6036   313.6018   0          8.059478   7.714311   7.780485   7.986217   8.083672   7.867453   0.9416344  8.083672   7.849066   52.28164   19.58096   294.0208   340.419   
