~Version
 VERS              .         2.0                           : CWLS LOG ASCII STANDARD - VERSION 2.0
 WRAP              .         NO                            : ONE LINE PER DEPTH STEP
 DLM               .         SPACE                         : DELIMITING CHARACTER(SPACE TAB OR COMMA)
~Well Information
#_______________________________________________________________________________
#
#PARAMETER_NAME    .UNIT     VALUE                         : DESCRIPTION
#_______________________________________________________________________________
STRT               .m        154.6                         : First reference value
STOP               .m        412.0036                      : Last reference value
STEP               .m        0.1524                        : Step increment
NULL               .         -9999                         : Missing value
COMP               .                                       : Company
WELL               .         B                             : Well name
FLD                .                                       : Field
LOC                .                                       : Location
CNTY               .                                       : County
STAT               .                                       : State
CTRY               .                                       : Country
SRVC               .                                       : Service Company
DATE               .                                       : Date
API                .                                       : API number
~Parameter Information Block
#_______________________________________________________________________________
#
#PARAMETER_NAME    .UNIT     VALUE                         : DESCRIPTION
#_______________________________________________________________________________
SET                .         Inclination                   : 
TLFamily_AZI       .         Hole Azimuth                  : 
TLFamily_AZ_OF_P1  .                                       : 
TLFamily_CAL2      .         Caliper 2                     : 
TLFamily_CAL4      .         Caliper                       : 
TLFamily_CAL6      .         Caliper                       : 
TLFamily_CAL8      .         Caliper                       : 
TLFamily_CALX      .         Caliper 1                     : 
TLFamily_CALY      .         Caliper 2                     : 
TLFamily_DEV       .         Hole Deviation                : 
TLFamily_DMAX      .         Caliper                       : 
TLFamily_DMIN      .         Caliper                       : 
TLFamily_GR        .         Gamma Ray                     : 
TLFamily_HAZI      .         Hole Azimuth                  : 
TLFamily_MD        .         Measured Depth                : 
TLFamily_RB_OF_P1  .         Relative Bearing              : 
TLFamily_ROT       .         Relative Bearing              : 
~Curve Information
#_______________________________________________________________________________
#
#LOGNAME           .UNIT     LOG_ID                        : DESCRIPTION
#_______________________________________________________________________________
MD                 .m                                      :  
AZ_OF_P1           .deg                                    : Unrecognised 
AZI                .deg                                    : AZIMUTH OF FIRST PIXEL OF IMAGE ARRAY 
CAL2               .in                                     : Unrecognised 
CAL4               .in                                     : Unrecognised 
CAL6               .in                                     : Unrecognised 
CAL8               .in                                     : Unrecognised 
CALX               .in                                     : Unrecognised 
CALY               .in                                     : Unrecognised 
DEV                .deg                                    : Unrecognised 
DMAX               .in                                     : Unrecognised 
DMIN               .in                                     : Unrecognised 
GR                 .gAPI                                   : Gamma Ray 
HAZI               .deg                                    : HOLE AZIMUTH 
RB_OF_P1           .deg                                    : Unrecognised 
ROT                .deg                                    : RELATIVE BEARING OF FIRST PIXEL OF IMAGE ARRAY 
~Ascii
# ...
322.8496   344.823    0          8.142165   7.598216   7.387411   7.974976   8.102458   7.799542   0.4701777  8.102458   7.744445   82.76463   24.53511   320.2879   335.4649  
323.002    341.1991   0          8.265096   7.571899   7.270761   8.061517   8.223563   7.647027   0.4928246  8.223563   7.647027   81.00035   27.25207   313.9472   332.7479  
323.1544   340.3425   0          8.180108   7.491023   7.256016   8.0759     8.238697   7.635838   0.4898528  8.238697   7.635838   78.26411   24.85665   315.4859   335.1433  
323.3068   339.9585   0          8.209141   7.549748   7.275553   8.059272   8.211767   7.68353    0.5060698  8.211767   7.681292   74.55618   26.34064   313.6178   333.6594  
323.4592   339.629    0          8.147205   7.574659   7.301737   8.014826   8.179345   7.784508   0.5047851  8.179345   7.724471   74.68842   22.97955   316.6494   337.0204  
323.6116   340.2824   0          8.071584   7.455629   7.371057   7.977075   8.200903   7.616078   0.5056699  8.200903   7.616078   78.59228   23.92301   316.3595   336.077   
323.764    340.6712   0          7.955936   7.543046   7.360615   7.82069    8.232948   7.61122    0.50669    8.232948   7.61122    84.7651    22.76762   317.9036   337.2324  
323.9164   341.8131   0          8.113135   7.5588     7.484362   7.963634   8.265297   7.703297   0.4553792  8.265297   7.691438   89.61093   20.80266   321.0106   339.1973  
324.0688   342.5513   0          8.200977   7.619881   7.62607    8.019846   8.278915   7.94067    0.4720382  8.278915   7.819864   90.69683   21.64991   320.9014   338.3501  
324.2212   342.9731   0          8.102989   7.700386   7.933628   8.036257   8.311957   7.959396   0.4652219  8.311957   7.859914   89.93678   25.61995   317.3532   334.3801  
324.3736   343.4128   0          8.283981   7.716999   7.907401   8.037649   8.316882   7.862144   0.4256289  8.316882   7.862144   89.39275   24.69564   318.7171   335.3044  
324.526    343.0928   0          7.933475   7.811333   7.898962   8.023732   8.35032    8.005503   0.4175638  8.35032    7.9038     90.66238   25.79194   317.3013   334.2081  
324.6784   342.7137   0          8.229411   7.803329   7.889084   8.235382   8.338264   7.975888   0.4389103  8.338264   7.948915   92.36726   26.0035    316.7103   333.9965  
324.8308   342.558    0          8.113982   7.781178   7.869224   8.185252   8.373955   7.798344   0.4975795  8.373955   7.798344   92.32409   23.52745   319.0305   336.4725  
324.9832   342.409    0          8.160224   7.824993   7.852088   8.151191   8.335873   7.90447    0.5128933  8.335873   7.90447    90.95805   22.78018   319.6288   337.2198  
325.1356   342.37     0          8.144355   7.805393   7.742645   8.09446    8.344069   7.923891   0.4752602  8.344069   7.923891   89.00694   23.76526   318.6047   336.2347  
325.288    342.2959   0          8.009338   7.716063   7.721671   8.127282   8.327128   7.884127   0.4767535  8.327128   7.862342   87.54      24.91883   317.3771   335.0812  
325.4404   342.1472   0          8.233483   7.799498   7.802937   8.070461   8.368524   7.954854   0.4664373  8.368524   7.931342   87.46067   25.25842   316.8888   334.7416  
325.5928   342.4428   0          8.166396   7.830496   7.879702   8.169571   8.3787     7.980152   0.4684245  8.3787     7.980152   87.96461   25.10783   317.3346   334.8922  
325.7452   343.6734   0          8.198878   7.785906   7.879934   8.138335   8.381771   8.005325   0.4742244  8.381771   7.962121   88.22627   19.65455   324.0191   340.3455  
325.8976   345.6914   0          8.181932   7.889867   7.967506   8.164467   8.31124    8.014421   0.4538905  8.31124    8.012473   88.71694   21.21702   324.4743   338.783   
326.05     347.1906   0          8.296195   8.016054   7.954477   8.060686   8.360249   8.056086   0.439332   8.360249   8.036953   89.68423   25.47119   321.7194   334.5288  
326.2024   347.1557   0          8.387313   7.938263   7.903937   8.278925   8.465937   8.081844   0.4396874  8.465937   8.079222   88.61247   20.80222   326.3533   339.1978  
326.3548   346.2417   0          8.214535   7.86388    7.957303   7.907615   8.347615   7.980031   0.4231425  8.347615   7.885747   87.97005   24.6698    321.5718   335.3302  
326.5072   345.8822   0          8.17211    7.684831   7.779408   7.630518   8.308615   7.928948   0.4369582  8.308615   7.657674   87.41552   24.05429   321.8278   335.9457  
326.6596   346.9197   0          7.792738   7.959799   7.828303   7.845991   8.212153   8.055541   0.4355456  8.212153   7.776587   89.80081   19.43925   327.4805   340.5608  
326.812    347.8411   0          7.703853   7.621016   7.702226   8.12596    8.041556   7.768906   0.4249851  8.041556   7.703039   93.52729   20.9346    326.9065   339.0654  
326.9644   347.8021   0          7.820441   7.621607   7.44276    8.071001   8.124351   7.678819   0.4215331  8.124351   7.6316     95.24018   22.34107   325.4611   337.6589  
327.1168   347.8598   0          7.875041   7.803977   7.521902   8.015477   8.233454   7.729615   0.4046327  8.233454   7.698472   96.32979   21.88559   325.9742   338.1144  
327.2692   348.3351   0          8.244501   7.916842   7.714699   7.940133   8.356377   8.014382   0.4115505  8.356377   7.903754   96.46933   20.09819   328.2369   339.9018  
327.4216   347.5611   0          8.234731   7.813019   7.812871   7.961138   8.338957   7.996063   0.3935621  8.338957   7.887078   95.95137   22.32991   325.2308   337.6701  
327.574    345.9435   0          8.101078   7.771963   7.866975   7.84422    8.313356   8.041104   0.4271899  8.313356   7.808091   94.88687   23.48567   322.4579   336.5143  
327.7264   344.4788   0          8.054496   7.671873   7.898644   8.023793   8.307373   8.048586   0.460279   8.307373   7.847833   93.46279   23.09467   321.3844   336.9053  
327.8788   341.8628   0          8.264541   7.800092   7.842012   7.943526   8.28599    8.052773   0.4757359  8.28599    7.871809   93.05594   27.57681   314.2855   332.4232  
328.0312   339.7803   0          8.169557   7.847353   8.044478   8.040233   8.220905   8.041097   0.4728491  8.220905   7.943793   92.64224   27.65022   312.1304   332.3498  
328.1836   339.2286   0          7.97441    7.866326   8.147308   7.990438   8.345288   8.050736   0.4865743  8.345288   7.928382   90.61989   28.83969   310.3889   331.1603  
328.336    339.2746   0          8.027848   7.806436   7.924779   8.063266   8.28443    7.98405    0.4997737  8.28443    7.934851   88.90319   28.38217   310.8924   331.6178  
328.4884   340.2552   0          8.429898   7.78537    7.768315   8.032572   8.316239   8.01896    0.4739063  8.316239   7.908971   87.10834   27.7563    312.4989   332.2437  
328.6408   341.1112   0          8.267439   7.810209   7.763464   8.023687   8.323519   8.017836   0.4400375  8.323519   7.916948   86.45978   26.07722   315.034    333.9228  
328.7932   341.7696   0          8.303831   7.966827   8.048227   8.084176   8.381248   8.116452   0.4399049  8.381248   8.025501   86.65697   29.47533   312.2943   330.5247  
328.9456   342.0027   0          8.289267   7.861245   8.036065   8.159197   8.383868   8.189051   0.4421969  8.383868   8.010221   86.21749   27.29305   314.7097   332.7069  
329.098    339.0528   0          8.170991   7.892092   8.021194   7.997159   8.146668   8.32792    0.4872447  8.329099   7.944625   86.04056   30.89272   308.1583   329.1073  
329.2504   337.16     0          8.251252   7.724789   7.96802    8.089608   8.135812   8.226334   0.4690308  8.246054   7.907199   85.84096   33.03002   304.1301   326.97    
329.4028   339.283    0          8.300262   7.87305    7.838167   7.963068   8.065334   8.136861   0.4822323  8.136861   7.918058   85.08748   33.13115   306.1521   326.8688  
329.5552   341.5134   0          8.312174   7.860028   7.874458   8.32457    8.297881   8.204185   0.4556043  8.301305   8.042986   83.76806   27.76824   313.7452   332.2318  
329.7076   340.8772   0          8.246199   7.778166   7.780321   8.38076    8.335482   8.019414   0.4594699  8.335482   8.013259   83.59795   29.25375   311.6232   330.7462  
