~Version
 VERS              .         2.0                           : CWLS LOG ASCII STANDARD - VERSION 2.0
 WRAP              .         NO                            : ONE LINE PER DEPTH STEP
 DLM               .         SPACE                         : DELIMITING CHARACTER(SPACE TAB OR COMMA)
~Well Information
#_______________________________________________________________________________
#
#PARAMETER_NAME    .UNIT     VALUE                         : DESCRIPTION
#_______________________________________________________________________________
STRT               .m        154.6                         : First reference value
STOP               .m        412.0036                      : Last reference value
STEP               .m        0.1524                        : Step increment
NULL               .         -9999                         : Missing value
COMP               .                                       : Company
WELL               .         B                             : Well name
FLD                .                                       : Field
LOC                .                                       : Location
CNTY               .                                       : County
STAT               .                                       : State
CTRY               .                                       : Country
SRVC               .                                       : Service Company
DATE               .                                       : Date
API                .                                       : API number
~Parameter Information Block
#_______________________________________________________________________________
#
#PARAMETER_NAME    .UNIT     VALUE                         : DESCRIPTION
#_______________________________________________________________________________
SET                .         Inclination                   : 
TLFamily_AZI       .         Hole Azimuth                  : 
TLFamily_AZ_OF_P1  .                                       : 
TLFamily_CAL2      .         Caliper 2                     : 
TLFamily_CAL4      .         Caliper                       : 
TLFamily_CAL6      .         Caliper                       : 
TLFamily_CAL8      .         Caliper                       : 
TLFamily_CALX      .         Caliper 1                     : 
TLFamily_CALY      .         Caliper 2                     : 
TLFamily_DEV       .         Hole Deviation                : 
TLFamily_DMAX      .         Caliper                       : 
TLFamily_DMIN      .         Caliper                       : 
TLFamily_GR        .         Gamma Ray                     : 
TLFamily_HAZI      .         Hole Azimuth                  : 
TLFamily_MD        .         Measured Depth                : 
TLFamily_RB_OF_P1  .         Relative Bearing              : 
TLFamily_ROT       .         Relative Bearing              : 
~Curve Information
#_______________________________________________________________________________
#
#LOGNAME           .UNIT     LOG_ID                        : DESCRIPTION
#_______________________________________________________________________________
MD                 .m                                      :  
AZ_OF_P1           .deg                                    : Unrecognised 
AZI                .deg                                    : AZIMUTH OF FIRST PIXEL OF IMAGE ARRAY 
CAL2               .in                                     : Unrecognised 
CAL4               .in                                     : Unrecognised 
CAL6               .in                                     : Unrecognised 
CAL8               .in                                     : Unrecognised 
CALX               .in                                     : Unrecognised 
CALY               .in                                     : Unrecognised 
DEV                .deg                                    : Unrecognised 
DMAX               .in                                     : Unrecognised 
DMIN               .in                                     : Unrecognised 
GR                 .gAPI                                   : Gamma Ray 
HAZI               .deg                                    : HOLE AZIMUTH 
RB_OF_P1           .deg                                    : Unrecognised 
ROT                .deg                                    : RELATIVE BEARING OF FIRST PIXEL OF IMAGE ARRAY 
~Ascii
# ...
336.8704   324.2933   0          8.013532   7.573265   7.360577   7.947669   8.202554   7.651672   0.564144   8.202554   7.639625   41.26506   36.44672   287.8465   323.5533  
337.0228   325.383    0          8.040076   7.531536   7.179494   7.913816   8.195354   7.566608   0.5442955  8.195354   7.562495   40.73137   35.54789   289.8349   324.4521  
337.1752   326.6356   0          8.187788   7.38266    7.200487   7.880271   8.186175   7.515718   0.5042055  8.186175   7.515718   39.31151   33.44496   293.1906   326.5551  
337.3276   328.1154   0          7.996195   7.565066   7.096009   7.72106    8.172358   7.57157    0.505291   8.172358   7.546102   37.49886   32.47312   295.6416   327.5269  
337.48     335.0555   0          8.092677   7.749931   7.052043   7.769418   8.171136   7.570216   0.4341477  8.171136   7.559862   35.33117   29.06617   305.9906   330.9338  
337.6324   337.7955   0          7.711855   7.766467   7.104239   7.751487   8.159635   7.533129   0.365367   8.159635   7.408047   35.08793   28.35561   309.4399   331.6444  
337.7848   338.7647   0          7.662095   7.7953     7.153113   7.76682    8.175754   7.515156   0.4166083  8.175754   7.407604   37.55906   26.6213    312.1437   333.3787  
337.9372   339.6583   0          7.668794   7.797491   7.341905   7.562376   8.005142   7.449681   0.378172   8.005142   7.449681   45.09098   27.64558   312.0128   332.3544  
338.0896   340.0664   0          7.899896   7.784442   7.304879   7.406882   7.835904   7.611825   0.3593344  7.835904   7.582561   58.38114   22.97194   317.096    337.0281  
338.242    336.184    0          7.710505   7.735044   7.425431   7.786411   7.887398   7.717398   0.4102784  7.887398   7.567968   73.4168    27.26505   308.9155   332.735   
338.3944   335.4303   0          7.886925   7.671567   7.348547   7.809343   7.949846   7.69668    0.459508   7.949846   7.617736   84.62636   30.064     305.3664   329.936   
338.5468   337.3077   0          7.672312   7.676359   7.382984   7.806162   7.781415   7.678463   0.3941011  7.781415   7.527648   86.37151   32.25002   305.0576   327.75    
338.6992   339.0732   0          7.749708   7.643038   7.344667   7.761756   7.765538   7.684332   0.3810394  7.765538   7.547187   82.45295   30.57764   308.4956   329.4224  
338.8516   338.1367   0          7.922462   7.73465    7.438983   7.762423   7.75306    7.896408   0.3611375  7.932384   7.642427   75.15575   30.78159   307.3551   329.2184  
339.004    337.5464   0          7.434572   7.676715   7.484406   7.848522   7.614699   7.893775   0.3668507  7.893775   7.459489   67.1886    33.42601   304.1204   326.574   
339.1564   339.7534   0          7.583205   7.680802   7.43765    7.912609   7.645974   7.789923   0.3387427  7.804079   7.510427   62.97048   36.8158    302.9377   323.1842  
339.3088   342.5551   0          7.660301   7.629028   7.347344   7.876683   7.654862   7.789321   0.29856    7.789321   7.503822   64.70156   37.22361   305.3297   322.7764  
339.4612   345.3069   0          7.699094   7.591167   7.344167   7.846673   7.674541   7.85042    0.3027847  7.85042    7.52163    69.76658   30.87646   314.4305   329.1235  
339.6136   345.7639   0          7.967133   7.625235   7.375449   7.880836   7.764581   7.914705   0.2862986  7.914705   7.658586   75.0713    29.85663   315.9078   330.1434  
339.766    343.4277   0          8.202399   7.476134   7.406751   7.910989   7.752064   7.941208   0.3228931  7.941208   7.693562   82.55726   33.5921    309.8357   326.4079  
339.9184   341.8215   0          8.101381   7.460932   7.50236    7.900416   7.797199   7.904089   0.3468534  7.904089   7.680674   91.1386    33.47021   308.3521   326.5298  
340.0708   340.5743   0          8.123549   7.486021   7.535607   7.894162   7.811384   7.89389    0.3560121  7.89389    7.690091   98.5646    38.53288   302.0419   321.4671  
340.2232   339.6764   0          8.129853   7.464769   7.547482   7.88797    7.879498   7.893707   0.3744506  7.895062   7.67637    102.4002   34.74944   304.9268   325.2505  
340.3756   339.1998   0          8.176204   7.526169   7.601697   7.878418   7.987147   7.895174   0.3716576  7.987147   7.702294   103.3339   39.18565   300.0142   320.8144  
340.528    338.5555   0          8.20091    7.574377   7.643663   7.878508   8.025463   7.894646   0.3571323  8.025463   7.726443   102.7112   40.36582   298.1896   319.6342  
340.6804   337.8029   0          8.17734    7.576452   7.646574   7.887882   7.9588     7.890763   0.3734704  7.9588     7.732167   98.51434   39.1506    298.6523   320.8494  
340.8328   337.3708   0          8.162176   7.53333    7.561297   7.904154   7.892224   7.891033   0.3626126  7.908024   7.718742   90.17094   40.66562   296.7052   319.3344  
340.9852   337.4972   0          8.146067   7.454134   7.53957    7.868598   7.843958   7.973772   0.3450137  7.973772   7.661366   81.5624    42.64905   294.8479   317.351   
341.1376   337.8821   0          8.140831   7.460661   7.583864   7.931163   7.893642   7.969724   0.3745505  7.987178   7.695912   80.51395   38.97654   298.9057   321.0235  
341.29     337.9593   0          8.196132   7.52805    7.649118   8.062003   8.109972   7.880681   0.3653456  8.109972   7.795026   86.45218   39.90787   298.0511   320.0921  
341.4424   338.3304   0          8.220675   7.687122   7.644335   8.012824   8.125279   7.883163   0.3741512  8.125279   7.849973   91.74395   42.51825   295.8122   317.4818  
341.5948   338.9485   0          8.281043   7.688626   7.688121   8.015795   8.117741   7.926092   0.3772024  8.117741   7.852211   91.0972    40.49275   298.4557   319.5073  
341.7472   339.856    0          8.332573   7.689625   7.692344   8.014889   8.195832   7.957033   0.3396341  8.195832   7.852257   87.89244   43.15546   296.7006   316.8445  
341.8996   339.6137   0          8.324034   7.740472   7.772727   7.959141   8.319383   7.977463   0.3513508  8.319383   7.849806   89.39001   39.12679   300.4873   320.8732  
342.052    339.2678   0          8.187057   7.737371   7.769797   7.960861   8.288524   7.878051   0.3682689  8.288524   7.849116   96.77806   36.18459   303.0832   323.8154  
342.2044   339.9837   0          8.156475   7.721723   7.710815   7.943158   8.214723   7.869874   0.3416615  8.214723   7.832441   102.7084   40.50139   299.4824   319.4986  
342.3568   340.4005   0          8.171771   7.71034    7.73155    7.975932   8.208302   7.869973   0.3246291  8.208302   7.843136   102.0111   40.76022   299.6403   319.2398  
342.5092   340.2692   0          8.17509    7.740722   7.685088   7.960624   8.238065   7.869438   0.3456018  8.238065   7.850673   98.68442   43.74805   296.5211   316.252   
342.6616   340.4561   0          8.155531   7.735731   7.723242   7.971129   8.244983   7.88775    0.3329994  8.244983   7.85343    97.59187   44.07105   296.385    315.929   
342.814    340.7014   0          8.216792   7.764804   7.737815   8.024526   8.252406   7.926044   0.3134447  8.252406   7.894665   97.05355   44.53934   296.162    315.4607  
342.9664   341.6483   0          8.128248   7.770954   7.757746   8.004167   8.19421    7.948666   0.3200945  8.19421    7.88756    94.78043   43.16383   298.4845   316.8362  
343.1188   341.6554   0          8.138299   7.772494   7.743876   8.044711   8.272751   7.923504   0.3382201  8.272751   7.899184   91.4949    42.51941   299.1361   317.4806  
343.2712   339.0952   0          8.225128   7.708002   7.716335   8.102153   8.406458   7.847218   0.3658764  8.406458   7.847218   90.76297   40.12568   298.9689   319.8743  
343.4236   337.0006   0          8.097966   7.715207   7.83813    8.10846    8.391829   7.811656   0.3779409  8.391829   7.811656   93.6011    38.56499   298.4356   321.435   
343.576    335.7401   0          8.157993   7.709677   7.737609   8.098282   8.398975   7.80246    0.371471   8.398975   7.80246    97.089     40.7282    295.0118   319.2718  
343.7284   334.7402   0          8.21609    7.728519   7.687227   8.055796   8.393375   7.799211   0.3751155  8.393375   7.799211   97.55584   39.89834   294.8418   320.1017  
