~Version
 VERS              .         2.0                           : CWLS LOG ASCII STANDARD - VERSION 2.0
 WRAP              .         NO                            : ONE LINE PER DEPTH STEP
 DLM               .         SPACE                         : DELIMITING CHARACTER(SPACE TAB OR COMMA)
~Well Information
#_______________________________________________________________________________
#
#PARAMETER_NAME    .UNIT     VALUE                         : DESCRIPTION
#_______________________________________________________________________________
STRT               .m        154.6                         : First reference value
STOP               .m        412.0036                      : Last reference value
STEP               .m        0.1524                        : Step increment
NULL               .         -9999                         : Missing value
COMP               .                                       : Company
WELL               .         B                             : Well name
FLD                .                                       : Field
LOC                .                                       : Location
CNTY               .                                       : County
STAT               .                                       : State
CTRY               .                                       : Country
SRVC               .                                       : Service Company
DATE               .                                       : Date
API                .                                       : API number
~Parameter Information Block
#_______________________________________________________________________________
#
#PARAMETER_NAME    .UNIT     VALUE                         : DESCRIPTION
#_______________________________________________________________________________
SET                .         Inclination                   : 
TLFamily_AZI       .         Hole Azimuth                  : 
TLFamily_AZ_OF_P1  .                                       : 
TLFamily_CAL2      .         Caliper 2                     : 
TLFamily_CAL4      .         Caliper                       : 
TLFamily_CAL6      .         Caliper                       : 
TLFamily_CAL8      .         Caliper                       : 
TLFamily_CALX      .         Caliper 1                     : 
TLFamily_CALY      .         Caliper 2                     : 
TLFamily_DEV       .         Hole Deviation                : 
TLFamily_DMAX      .         Caliper                       : 
TLFamily_DMIN      .         Caliper                       : 
TLFamily_GR        .         Gamma Ray                     : 
TLFamily_HAZI      .         Hole Azimuth                  : 
TLFamily_MD        .         Measured Depth                : 
TLFamily_RB_OF_P1  .         Relative Bearing              : 
TLFamily_ROT       .         Relative Bearing              : 
~Curve Information
#_______________________________________________________________________________
#
#LOGNAME           .UNIT     LOG_ID                        : DESCRIPTION
#_______________________________________________________________________________
MD                 .m                                      :  
AZ_OF_P1           .deg                                    : Unrecognised 
AZI                .deg                                    : AZIMUTH OF FIRST PIXEL OF IMAGE ARRAY 
CAL2               .in                                     : Unrecognised 
CAL4               .in                                     : Unrecognised 
CAL6               .in                                     : Unrecognised 
CAL8               .in                                     : Unrecognised 
CALX               .in                                     : Unrecognised 
CALY               .in                                     : Unrecognised 
DEV                .deg                                    : Unrecognised 
DMAX               .in                                     : Unrecognised 
DMIN               .in                                     : Unrecognised 
GR                 .gAPI                                   : Gamma Ray 
HAZI               .deg                                    : HOLE AZIMUTH 
RB_OF_P1           .deg                                    : Unrecognised 
ROT                .deg                                    : RELATIVE BEARING OF FIRST PIXEL OF IMAGE ARRAY 
~Ascii
# ...
308.8288   320.6409   0          7.750315   7.790501   7.568974   7.509319   7.772577   7.762295   0.7374581  7.772577   7.644937   83.62926   32.38914   288.2518   327.6109  
308.9812   321.4807   0          7.701045   7.650511   7.566477   7.533074   7.90644    7.705484   0.72109    7.90644    7.588547   85.17677   31.94564   289.5351   328.0544  
309.1336   323.1042   0          7.785403   7.63467    7.651552   7.586875   8.099144   7.729841   0.7102793  8.099144   7.608416   85.92986   30.59672   292.5075   329.4033  
309.286    317.3178   0          8.536711   7.745103   7.453746   8.012044   7.885628   7.653254   0.7707324  8.070292   7.653254   85.70494   33.04565   284.2701   326.9543  
309.4384   312.2701   0          8.270843   7.88862    7.738058   7.817096   8.037805   8.051141   0.839088   8.07754    7.852858   87.42223   32.87362   279.3967   327.1264  
309.5908   312.3236   0          8.153149   7.534897   7.820236   7.905037   7.868226   8.0401     0.8261456  8.0401     7.719967   91.23597   30.23945   282.0841   329.7606  
309.7432   312.8764   0          8.163072   7.730952   7.886436   7.756745   7.975219   8.034454   0.8164641  8.037215   7.743849   92.52818   29.65459   283.2218   330.3454  
309.8956   312.89     0          8.079401   7.828273   7.809775   7.855988   8.085394   8.04298    0.8330067  8.088301   7.842131   92.10756   31.19675   281.6932   328.8033  
310.048    313.5896   0          7.688163   7.833992   7.85047    7.821843   8.00504    7.892663   0.8220994  8.00504    7.752051   89.47779   31.44841   282.1412   328.5516  
310.2004   312.6841   0          7.575413   7.785331   7.493097   7.645193   7.810274   7.704699   0.8107643  7.810274   7.534255   86.84105   31.76304   280.921    328.237   
310.3528   312.276    0          7.581952   7.792244   7.448589   7.612774   7.862752   7.645109   0.8335236  7.862752   7.51527    87.85049   32.26214   280.0138   327.7379  
310.5052   313.3151   0          7.421827   7.799499   7.505482   7.568548   7.876577   7.612499   0.8246228  7.876577   7.463655   87.03802   31.99699   281.3181   328.003   
310.6576   315.9247   0          7.284177   7.854257   7.437343   7.447542   7.884302   7.801685   0.7886443  7.884302   7.36076    83.86429   31.6068    284.3178   328.3932  
310.81     315.5359   0          7.304753   7.659694   7.482593   6.984511   7.857747   7.802758   0.7978897  7.868653   7.322103   80.3988    31.54597   283.9901   328.454   
310.9624   314.1852   0          7.717357   7.62185    7.494574   6.81775    7.689057   7.806033   0.8373184  7.806033   7.2198     77.62469   32.96353   281.2217   327.0365  
311.1148   315.5733   0          7.929827   7.565705   7.48267    6.937694   7.744746   7.788489   0.8319899  7.810514   7.251699   77.90435   32.20967   283.3636   327.7903  
311.2672   322.2252   0          8.008217   7.520087   7.571572   7.040049   7.921834   7.75714    0.7416188  7.921834   7.280068   78.20737   32.32534   289.8996   327.6747  
311.4196   325.7641   0          8.039886   7.567188   7.623551   6.901061   7.892539   7.708666   0.7022763  7.892539   7.234124   77.1523    31.6445    294.1196   328.3555  
311.572    328.0549   0          7.838593   7.568991   7.626315   6.595882   7.934203   7.706964   0.6798245  7.934203   7.082437   74.49712   31.32421   296.7307   328.6758  
311.7244   328.5046   0          7.807868   7.505672   7.660729   6.559222   8.031987   7.638204   0.6767892  8.031987   7.032447   72.41233   30.04146   298.4632   329.9585  
311.8768   329.3968   0          7.910843   7.471942   7.677686   6.458218   8.022644   7.675721   0.6878344  8.022644   6.96508    72.35921   30.36827   299.0285   329.6317  
312.0292   331.1523   0          7.843268   7.587682   7.608132   6.450756   7.895347   7.70431    0.6801016  7.895347   7.019219   70.62154   31.99829   299.1539   328.0017  
312.1816   332.5011   0          7.564054   7.621687   7.51157    6.443716   7.871867   7.672638   0.6187881  7.871867   7.032701   66.85164   32.3357    300.1654   327.6643  
312.334    332.284    0          7.978125   7.664233   7.372512   6.69194    8.037324   7.736638   0.6464115  8.037324   7.178086   63.33927   29.77458   302.5093   330.2254  
312.4864   330.3      0          8.114502   7.4764     7.414117   6.705792   7.658322   7.747706   0.6619779  7.810476   7.091096   63.09756   29.96745   300.3325   330.0326  
312.6388   329.4931   0          7.930612   7.154888   7.179814   6.622369   7.048458   7.623994   0.6187605  7.623994   6.790349   66.09024   31.15635   298.3368   328.8437  
312.7912   328.0703   0          7.772226   6.811956   6.987286   6.68448    6.489921   7.507605   0.6609167  7.507605   6.489921   69.28129   31.01143   297.0586   328.9886  
312.9436   327.9921   0          7.952416   6.731824   6.895925   7.057216   6.806752   7.539854   0.6782052  7.539854   6.723375   71.4224    31.79486   296.1972   328.2051  
313.096    333.1975   0          8.230913   6.784503   6.925195   8.189482   7.772768   7.589444   0.6054245  7.78864    7.486992   71.71416   32.03867   301.1595   327.9613  
313.2484   338.1297   0          8.184511   7.153887   7.289234   8.127156   7.831387   7.629566   0.5682709  7.874152   7.617839   70.96494   29.99558   308.1341   330.0044  
313.4008   339.0759   0          7.948799   7.081442   7.47007    7.933847   7.55406    7.545586   0.5577716  7.712214   7.507645   69.75321   25.915     313.1609   334.085   
313.5532   338.2495   0          7.92869    6.665485   7.519367   7.933933   8.072241   7.56698    0.5646021  8.072241   7.299709   68.95234   27.07314   311.1764   332.9268  
313.7056   337.9023   0          7.859829   6.765332   7.658841   7.800048   8.065903   7.590514   0.5217632  8.065903   7.28269    69.73704   24.8802    313.0221   335.1198  
313.858    337.44     0          7.875696   6.998161   7.683875   8.003869   8.04377    7.635638   0.5615014  8.04377    7.501015   71.26057   28.57788   308.8621   331.4221  
314.0104   337.8018   0          7.867744   7.061248   7.78067    8.001842   8.034739   7.692033   0.5501176  8.034739   7.531545   72.60461   28.47757   309.3242   331.5224  
314.1628   337.6088   0          7.844126   7.030132   7.828529   7.984059   8.016632   7.745337   0.5592949  8.016632   7.507096   71.37116   27.57439   310.0344   332.4256  
314.3152   337.2598   0          7.865698   7.102173   7.795352   8.160233   8.024527   7.75448    0.5649481  8.024527   7.631203   68.60647   28.28533   308.9744   331.7147  
314.4676   336.9614   0          7.874909   7.22634    7.799185   8.127531   8.063582   7.784931   0.58732    8.063582   7.676935   67.8372    27.74176   309.2196   332.2582  
314.62     336.9513   0          7.945313   6.97475    7.787868   7.852732   8.003641   7.793312   0.6075068  8.003641   7.413741   68.31279   26.80657   310.1445   333.1934  
314.7724   336.7887   0          7.939282   7.051036   7.796297   7.611682   7.909104   7.812905   0.5544719  7.909104   7.331359   69.58057   25.67931   311.1095   334.3207  
314.9248   335.0307   0          7.980337   7.401742   7.779229   7.718359   7.962188   7.827712   0.5790492  7.962188   7.56005    68.92808   28.27851   306.752    331.7215  
315.0772   334.032    0          7.995899   7.64046    7.781436   7.829601   7.996264   7.856453   0.5920299  7.996264   7.73503    64.30363   31.85375   302.1781   328.1462  
315.2296   334.4869   0          7.806494   7.5814     7.881333   8.256895   8.073219   7.927332   0.5872886  8.109476   7.814069   60.81372   33.31266   301.1742   326.6873  
315.382    337.2669   0          7.466415   7.3072     7.821308   8.102734   7.799802   7.747572   0.5722503  7.82185    7.625542   60.94833   29.74215   307.5255   330.2578  
315.5344   339.1123   0          7.735705   7.439075   7.246359   8.00498    7.780525   7.649212   0.5080852  7.780525   7.491033   65.53558   26.50342   312.6089   333.4966  
315.6868   341.869    0          7.397733   7.395737   7.107444   7.922588   7.766708   7.596086   0.4609418  7.766708   7.252589   71.99895   23.60052   318.2685   336.3995  
