~Version
 VERS              .         2.0                           : CWLS LOG ASCII STANDARD - VERSION 2.0
 WRAP              .         NO                            : ONE LINE PER DEPTH STEP
 DLM               .         SPACE                         : DELIMITING CHARACTER(SPACE TAB OR COMMA)
~Well Information
#_______________________________________________________________________________
#
#PARAMETER_NAME    .UNIT     VALUE                         : DESCRIPTION
#_______________________________________________________________________________
STRT               .m        154.6                         : First reference value
STOP               .m        412.0036                      : Last reference value
STEP               .m        0.1524                        : Step increment
NULL               .         -9999                         : Missing value
COMP               .                                       : Company
WELL               .         B                             : Well name
FLD                .                                       : Field
LOC                .                                       : Location
CNTY               .                                       : County
STAT               .                                       : State
CTRY               .                                       : Country
SRVC               .                                       : Service Company
DATE               .                                       : Date
API                .                                       : API number
~Parameter Information Block
#_______________________________________________________________________________
#
#PARAMETER_NAME    .UNIT     VALUE                         : DESCRIPTION
#_______________________________________________________________________________
SET                .         Inclination                   : 
TLFamily_AZI       .         Hole Azimuth                  : 
TLFamily_AZ_OF_P1  .                                       : 
TLFamily_CAL2      .         Caliper 2                     : 
TLFamily_CAL4      .         Caliper                       : 
TLFamily_CAL6      .         Caliper                       : 
TLFamily_CAL8      .         Caliper                       : 
TLFamily_CALX      .         Caliper 1                     : 
TLFamily_CALY      .         Caliper 2                     : 
TLFamily_DEV       .         Hole Deviation                : 
TLFamily_DMAX      .         Caliper                       : 
TLFamily_DMIN      .         Caliper                       : 
TLFamily_GR        .         Gamma Ray                     : 
TLFamily_HAZI      .         Hole Azimuth                  : 
TLFamily_MD        .         Measured Depth                : 
TLFamily_RB_OF_P1  .         Relative Bearing              : 
TLFamily_ROT       .         Relative Bearing              : 
~Curve Information
#_______________________________________________________________________________
#
#LOGNAME           .UNIT     LOG_ID                        : DESCRIPTION
#_______________________________________________________________________________
MD                 .m                                      :  
AZ_OF_P1           .deg                                    : Unrecognised 
AZI                .deg                                    : AZIMUTH OF FIRST PIXEL OF IMAGE ARRAY 
CAL2               .in                                     : Unrecognised 
CAL4               .in                                     : Unrecognised 
CAL6               .in                                     : Unrecognised 
CAL8               .in                                     : Unrecognised 
CALX               .in                                     : Unrecognised 
CALY               .in                                     : Unrecognised 
DEV                .deg                                    : Unrecognised 
DMAX               .in                                     : Unrecognised 
DMIN               .in                                     : Unrecognised 
GR                 .gAPI                                   : Gamma Ray 
HAZI               .deg                                    : HOLE AZIMUTH 
RB_OF_P1           .deg                                    : Unrecognised 
ROT                .deg                                    : RELATIVE BEARING OF FIRST PIXEL OF IMAGE ARRAY 
~Ascii
# ...
371.9224   77.51366   0          8.876829   8.397057   8.574768   8.600284   8.70687    8.575284   0.724687   8.725799   8.498671   27.755     286.1942   151.3192   73.80583  
372.0748   79.31108   0          8.855382   8.586773   8.597336   8.788362   8.655757   8.671836   0.7158884  8.727164   8.630639   28.07912   284.8416   154.4695   75.15835  
372.2272   80.79297   0          8.800967   8.669751   8.501537   8.843912   8.664836   8.689964   0.7339019  8.756831   8.641072   28.74265   286.1216   154.6713   73.87839  
372.3796   80.67647   0          8.754871   8.794585   8.513958   8.710189   8.745688   8.620043   0.7318839  8.760797   8.614896   29.66556   286.1666   154.5098   73.83337  
372.532    80.99739   0          8.820615   8.808168   8.525736   8.736828   8.843845   8.636062   0.7303549  8.843845   8.623517   29.65596   288.5881   152.4093   71.41193  
372.6844   81.84306   0          8.948933   8.905144   8.352743   8.876091   8.985806   8.735381   0.7687907  8.985806   8.650838   28.39971   290.4622   151.3809   69.5378   
372.8368   82.63342   0          9.167733   9.302369   8.962891   8.955161   9.237168   8.932624   0.7632978  9.237168   8.932624   26.43131   291.0564   151.5771   68.9436   
372.9892   84.15591   0          9.231197   9.241429   8.819407   8.772471   9.176908   8.699258   0.7586199  9.176908   8.699258   25.43428   292.0731   152.0827   67.92692  
373.1416   86.16342   0          8.843145   9.143818   8.606331   8.489533   8.901318   8.63671    0.820634   8.901318   8.627537   26.21098   291.9417   154.2218   68.05829  
373.294    85.90329   0          8.541817   8.85721    8.649854   8.877163   8.89827    8.667023   0.7913634  8.89827    8.595836   27.46327   290.3604   155.5423   69.63963  
373.4464   87.37579   0          8.537743   9.153038   8.629366   8.97516    8.919501   8.75206    0.8385572  9.064098   8.583554   28.98956   286.4073   160.9688   73.5927   
373.5988   87.27182   0          8.772964   8.301605   8.494321   9.118131   8.756048   8.607868   0.8172537  8.759062   8.605101   30.82062   289.0652   158.2064   70.93481  
373.7512   88.86488   0          7.972772   7.148929   8.049825   8.828876   8.167611   8.041623   0.8191192  8.184561   7.980149   32.59491   292.9207   155.9441   67.07924  
373.9036   91.70109   0          8.219479   7.724345   7.812765   8.69635    8.225966   8.106164   0.8460468  8.225966   8.015132   33.63165   294.0016   157.6995   65.99837  
374.056    93.30976   0          8.120142   8.019794   7.837945   8.236693   8.269191   7.989069   0.8508857  8.269191   7.966959   32.13736   295.5127   157.7973   64.4873   
374.2084   99.95735   0          8.067257   8.065635   7.941628   8.224299   8.341394   8.01253    0.8409262  8.341394   8.003932   28.80128   298.8796   161.0817   61.12036  
374.3608   111.134    0          8.105628   8.21904    7.984115   8.30162    8.472847   8.06227    0.9451356  8.472847   8.042493   24.77703   305.9494   165.1844   54.0506   
374.5132   113.1928   0          8.396763   8.517933   8.317323   8.489276   8.71243    8.262177   0.9457704  8.71243    8.254864   22.21855   309.0296   164.1632   50.9704   
374.6656   114.2311   0          8.693974   9.28209    8.743211   8.56248    9.032835   8.769597   0.9449755  9.032835   8.718593   22.84872   308.3005   165.9306   51.69947  
374.818    114.3444   0          8.682766   9.246427   8.829481   8.473446   8.877368   8.684537   0.9526352  8.879942   8.672344   25.52324   307.2788   167.0657   52.72115  
374.9704   111.9983   0          8.52654    8.246861   8.513034   8.605058   8.617752   8.403997   0.9453475  8.621984   8.383946   27.86027   307.3657   164.6327   52.63433  
375.1228   110.8269   0          8.320643   8.048952   8.462372   8.236465   8.453604   8.26512    0.9183609  8.456483   8.142709   28.13605   305.5803   165.2466   54.41975  
375.2752   110.754    0          8.531326   8.107317   8.503058   8.255282   8.453316   8.310629   0.9398096  8.517192   8.1813     27.14955   305.4744   165.2797   54.52564  
375.4276   110.3908   0          8.604233   8.231382   8.474185   8.349666   8.462123   8.301275   0.9329304  8.539208   8.266512   26.40442   305.1387   165.2521   54.86131  
375.58     108.2894   0          8.642561   8.355474   8.277609   8.199404   8.500023   8.171948   0.9038435  8.509968   8.171948   26.76855   304.2047   164.0844   55.79536  
375.7324   103.7876   0          8.583287   8.441475   8.076369   8.312452   8.50684    8.12677    0.8876245  8.50684    8.12677    27.12599   302.1274   161.6604   57.87262  
375.8848   102.4181   0          8.599916   8.790152   8.294432   8.495001   8.606327   8.273613   0.91995    8.659454   8.273613   27.26441   302.2094   160.2087   57.79066  
376.0372   103.8676   0          8.911087   8.714013   8.495325   8.807715   8.767027   8.698397   0.9076442  8.767567   8.659511   28.74575   301.4809   162.3868   58.51906  
376.1896   104.5615   0          8.756997   8.415304   8.482438   8.92382    8.676453   8.515837   0.8979174  8.676453   8.515837   30.6295    299.8596   164.7019   60.14042  
376.342    104.5076   0          8.590438   8.251893   8.19217    8.519245   8.466094   8.223935   0.9121512  8.466094   8.223935   31.47462   300.7137   163.794    59.28633  
376.4944   104.9626   0          8.45852    8.290353   8.247367   8.392146   8.467705   8.217362   0.8707622  8.467705   8.217362   31.74257   301.1664   163.7962   58.83361  
376.6468   104.3916   0          8.427871   8.319194   8.33343    8.380929   8.520245   8.228374   0.8815255  8.520245   8.228374   33.82836   300.6024   163.7892   59.39759  
376.7992   102.7196   0          8.436085   8.30823    8.333424   8.388209   8.49579    8.239897   0.8967354  8.49579    8.239897   39.89449   300.2296   162.49     59.77042  
376.9516   101.4361   0          8.290232   8.196198   8.245356   8.33797    8.414987   8.10793    0.8576757  8.414987   8.10793    49.5293    300.1866   161.2496   59.81341  
377.104    101.5173   0          8.249427   8.087925   8.091317   8.28606    8.329247   8.020509   0.8760667  8.329247   8.020509   58.15228   299.7225   161.7948   60.27753  
377.2564   101.347    0          8.176764   7.941171   8.07411    8.326246   8.323322   8.036002   0.8404884  8.323322   8.036002   64.28297   298.9299   162.4171   61.07008  
377.4088   101.5034   0          8.182412   8.055217   8.100025   8.329659   8.387849   8.050323   0.838654   8.387849   8.050323   67.1132    298.9096   162.5938   61.09042  
377.5612   101.6708   0          8.203885   8.085978   8.091406   8.280684   8.356431   8.043914   0.8521882  8.356431   8.043914   66.49254   299.2879   162.3829   60.71212  
377.7136   102.2105   0          8.179602   8.055386   8.003817   8.266596   8.337542   8.053087   0.8650568  8.337542   8.053087   61.65815   298.1898   164.0207   61.8102   
377.866    102.8007   0          8.224695   8.078083   8.083804   8.263699   8.3897     8.102775   0.8697025  8.3897     8.102775   51.19227   298.7953   164.0053   61.20465  
378.0184   102.8566   0          8.382048   8.269932   8.331021   8.400909   8.498224   8.232672   0.8723598  8.498224   8.232672   40.1386    298.6138   164.2428   61.3862   
378.1708   103.2164   0          8.73472    8.41601    8.403456   8.59167    8.638757   8.467526   0.8849576  8.638757   8.467526   31.46345   299.3223   163.8941   60.67766  
378.3232   104.0598   0          8.67637    8.448932   8.484725   8.586308   8.651672   8.479579   0.8837067  8.651672   8.479579   26.58339   300.3989   163.6609   59.60113  
378.4756   104.2368   0          8.690756   8.551234   8.491059   8.60907    8.649067   8.516889   0.8270932  8.649067   8.516889   24.99019   298.4258   165.811    61.57414  
378.628    104.6274   0          8.698649   8.57549    8.393347   8.495747   8.728812   8.434587   0.8684731  8.728812   8.434587   24.63309   299.3723   165.2551   60.62769  
378.7804   104.9557   0          8.639654   8.532653   8.506305   8.495989   8.711253   8.494126   0.8939326  8.711253   8.494126   24.32115   300.2966   164.6591   59.7034   
