~Version
 VERS              .         2.0                           : CWLS LOG ASCII STANDARD - VERSION 2.0
 WRAP              .         NO                            : ONE LINE PER DEPTH STEP
 DLM               .         SPACE                         : DELIMITING CHARACTER(SPACE TAB OR COMMA)
~Well Information
#_______________________________________________________________________________
#
#PARAMETER_NAME    .UNIT     VALUE                         : DESCRIPTION
#_______________________________________________________________________________
STRT               .m        154.6                         : First reference value
STOP               .m        412.0036                      : Last reference value
STEP               .m        0.1524                        : Step increment
NULL               .         -9999                         : Missing value
COMP               .                                       : Company
WELL               .         B                             : Well name
FLD                .                                       : Field
LOC                .                                       : Location
CNTY               .                                       : County
STAT               .                                       : State
CTRY               .                                       : Country
SRVC               .                                       : Service Company
DATE               .                                       : Date
API                .                                       : API number
~Parameter Information Block
#_______________________________________________________________________________
#
#PARAMETER_NAME    .UNIT     VALUE                         : DESCRIPTION
#_______________________________________________________________________________
SET                .         Inclination                   : 
TLFamily_AZI       .         Hole Azimuth                  : 
TLFamily_AZ_OF_P1  .                                       : 
TLFamily_CAL2      .         Caliper 2                     : 
TLFamily_CAL4      .         Caliper                       : 
TLFamily_CAL6      .         Caliper                       : 
TLFamily_CAL8      .         Caliper                       : 
TLFamily_CALX      .         Caliper 1                     : 
TLFamily_CALY      .         Caliper 2                     : 
TLFamily_DEV       .         Hole Deviation                : 
TLFamily_DMAX      .         Caliper                       : 
TLFamily_DMIN      .         Caliper                       : 
TLFamily_GR        .         Gamma Ray                     : 
TLFamily_HAZI      .         Hole Azimuth                  : 
TLFamily_MD        .         Measured Depth                : 
TLFamily_RB_OF_P1  .         Relative Bearing              : 
TLFamily_ROT       .         Relative Bearing              : 
~Curve Information
#_______________________________________________________________________________
#
#LOGNAME           .UNIT     LOG_ID                        : DESCRIPTION
#_______________________________________________________________________________
MD                 .m                                      :  
AZ_OF_P1           .deg                                    : Unrecognised 
AZI                .deg                                    : AZIMUTH OF FIRST PIXEL OF IMAGE ARRAY 
CAL2               .in                                     : Unrecognised 
CAL4               .in                                     : Unrecognised 
CAL6               .in                                     : Unrecognised 
CAL8               .in                                     : Unrecognised 
CALX               .in                                     : Unrecognised 
CALY               .in                                     : Unrecognised 
DEV                .deg                                    : Unrecognised 
DMAX               .in                                     : Unrecognised 
DMIN               .in                                     : Unrecognised 
GR                 .gAPI                                   : Gamma Ray 
HAZI               .deg                                    : HOLE AZIMUTH 
RB_OF_P1           .deg                                    : Unrecognised 
ROT                .deg                                    : RELATIVE BEARING OF FIRST PIXEL OF IMAGE ARRAY 
~Ascii
# ...
273.7768   349.3526   0          7.935829   7.485044   7.090158   7.744247   7.796129   7.043029   0.5622617  7.796129   7.043029   57.03249   10.11838   339.2343   349.8816  
273.9292   348.0182   0          8.229826   7.502823   7.049173   7.491162   7.787634   7.014488   0.5725642  7.787634   7.014488   57.93108   12.35373   335.6642   347.6463  
274.0816   348.643    0          8.126555   7.50329    6.923243   7.537008   7.83006    7.00942    0.5698501  7.83006    7.00942    59.76412   12.01369   336.6291   347.9863  
274.234    350.2692   0          7.760323   7.572705   6.90012    7.644139   7.772074   7.159136   0.5509798  7.772074   7.159136   59.72118   10.63934   339.6299   349.3607  
274.3864   346.9323   0          8.108711   7.649403   7.027483   7.555744   7.846136   7.377346   0.6016184  7.846136   7.377346   58.86787   15.25215   331.6776   344.7478  
274.5388   344.853    0          8.067569   7.467637   7.082916   7.729256   7.833573   7.371121   0.596567   7.833573   7.371121   56.77666   14.72512   330.1278   345.2749  
274.6912   344.968    0          7.953792   7.475891   7.175607   7.745693   7.921494   7.49299    0.5666857  7.921494   7.49299    55.61251   15.18068   329.7874   344.8193  
274.8436   344.9372   0          7.941932   7.314432   6.916303   7.724072   7.767296   6.831316   0.6322273  7.767296   6.831316   56.7635    15.40268   329.5345   344.5973  
274.996    345.8706   0          7.930665   7.298648   6.807245   7.84384    7.75555    6.763741   0.6103925  7.75555    6.763741   58.48709   15.06666   330.8038   344.9333  
275.1484   347.1562   0          7.811459   7.330185   6.817112   7.729774   7.769027   6.818329   0.5908862  7.769027   6.818329   60.67665   11.89617   335.2601   348.1038  
275.3008   345.9789   0          7.877168   7.476981   6.81185    7.64252    7.812029   6.994307   0.5888356  7.812029   6.994307   62.18569   14.72306   331.2562   345.2769  
275.4532   340.3662   0          7.900698   7.24136    6.812118   7.616275   7.696238   7.0249     0.6221099  7.696238   7.0249     63.12933   16.72533   323.6409   343.2747  
275.6056   338.5789   0          7.022934   7.073548   6.612222   7.332706   7.529455   7.004913   0.6718158  7.529455   6.817578   63.44066   16.78243   321.7965   343.2176  
275.758    336.2758   0          5.680414   7.214687   6.350667   7.268142   7.219895   6.746459   0.6755089  7.275617   6.015541   63.65554   17.73822   318.5375   342.2618  
275.9104   334.2414   0          4.922465   7.402408   6.030468   7.310641   7.21077    6.735107   0.6843043  7.356963   5.476467   63.33222   18.27254   315.9689   341.7275  
276.0628   335.4453   0          6.470642   7.571819   6.071344   7.27497    7.4346     6.839647   0.6754938  7.4346     6.270993   63.16488   17.31888   318.1266   342.6811  
276.2152   336.6177   0          7.755265   7.708596   6.981436   7.204028   7.761038   7.282891   0.7172397  7.761038   7.263301   64.51213   16.50654   320.1112   343.4935  
276.3676   336.6351   0          7.861784   7.416029   7.111813   7.27368    7.817039   7.441848   0.7035879  7.817039   7.344855   64.60992   18.27682   318.3582   341.7232  
276.52     337.4922   0          7.809278   7.254135   7.094339   7.815758   7.756004   7.096118   0.6873342  7.756004   7.096118   63.62272   18.20559   319.2865   341.7944  
276.6724   337.5865   0          7.582895   7.38417    6.999653   7.589441   7.682384   7.134064   0.6733667  7.682384   7.134064   62.34525   17.62113   319.9654   342.3789  
276.8248   337.8993   0          7.618379   7.484216   7.012425   7.514328   7.67663    7.273882   0.6670798  7.67663    7.268803   61.41874   16.52064   321.3787   343.4794  
276.9772   340.0555   0          7.961613   7.578857   7.085866   7.558969   7.88532    7.342698   0.6735618  7.88532    7.342698   62.74679   13.51304   326.5432   346.487   
277.1296   341.3864   0          7.853879   7.658989   7.243551   7.69741    8.009315   7.52917    0.6279554  8.009315   7.52917    65.00974   15.03163   326.3549   344.9684  
277.282    340.9416   0          7.821885   7.3986     7.156353   7.825564   7.963121   7.506631   0.6634948  7.963121   7.483031   66.9167    16.66356   324.278    343.3365  
277.4344   341.3885   0          7.816551   7.369507   7.14194    7.846057   7.940281   7.504601   0.6481767  7.940281   7.468832   68.10583   16.45138   324.9371   343.5486  
277.5868   339.7076   0          7.949122   7.398088   7.170609   7.832257   7.953133   7.410504   0.6515832  7.953133   7.410504   68.03828   17.30669   322.4003   342.6933  
277.7392   338.0672   0          7.660606   7.230492   7.096294   7.799105   7.879511   6.997416   0.6761171  7.879511   6.997416   66.12852   17.80138   320.2658   342.1986  
277.8916   339.2213   0          7.716861   7.129517   7.073421   7.75498    7.880731   7.032307   0.6470405  7.880731   7.032307   63.97884   16.67358   322.5479   343.3264  
278.044    339.5094   0          8.041899   7.246467   7.102011   7.700746   7.933774   7.262886   0.666491   7.933774   7.262886   62.9874    16.63776   322.8716   343.3622  
278.1964   339.2577   0          7.794615   7.18481    7.145303   7.734281   7.948889   7.227114   0.6357958  7.948889   7.227114   63.11705   17.60903   321.6487   342.391   
278.3488   338.8457   0          7.934009   7.133795   7.141936   7.689921   7.952503   7.045176   0.6710785  7.952503   7.045176   63.34352   19.46241   319.3833   340.5376  
278.5012   338.1152   0          8.225884   7.139719   6.992955   7.593785   7.927037   6.993284   0.6817876  7.927037   6.993284   62.73735   16.10199   322.0132   343.898   
278.6536   337.9952   0          8.151984   7.191013   6.989419   7.55946    7.946229   6.833587   0.6802385  7.946229   6.833587   61.53097   17.19442   320.8008   342.8056  
278.806    338.6752   0          8.034398   7.308345   7.066412   7.596733   7.901258   7.008718   0.6316947  7.901258   7.008718   62.35511   18.0578    320.6174   341.9422  
278.9584   336.5516   0          7.807455   7.318594   7.110301   7.575541   7.843812   6.938461   0.6758152  7.843812   6.938461   65.6981    19.62893   316.9229   340.3711  
279.1108   333.1791   0          7.954133   7.211307   7.024171   7.524386   7.750736   6.617283   0.6983961  7.750736   6.617283   67.24651   21.6069    311.572    338.3931  
279.2632   332.3039   0          7.874734   7.373738   6.877975   6.622005   7.734649   6.535287   0.695891   7.734649   6.535287   65.07957   20.93303   311.3708   339.067   
279.4156   332.2902   0          7.832959   7.468384   6.932979   6.304031   7.644551   6.623033   0.6840637  7.644551   6.623033   62.0715    20.69703   311.5931   339.303   
279.568    331.8436   0          7.649607   7.68016    7.116658   7.052323   7.594415   6.967271   0.7020866  7.594415   6.967271   61.36198   21.0495    310.7943   338.9505  
279.7204   330.4505   0          7.737752   7.997006   7.351136   7.340909   7.852263   7.619402   0.7229747  7.852263   7.544445   63.07442   22.78423   307.6661   337.2158  
279.8728   331.1339   0          7.642733   7.716959   7.450593   7.65443    7.91543    7.729238   0.7125053  7.91543    7.546663   64.63043   21.49119   309.6425   338.5088  
280.0252   333.7408   0          7.72416    7.478161   7.517231   7.776599   7.905445   7.483984   0.7073954  7.905445   7.483984   64.28003   20.34212   313.3988   339.6579  
280.1776   334.1841   0          7.760222   7.367328   7.712624   7.897553   7.853403   7.637272   0.6964191  7.853403   7.616076   63.598     20.70854   313.4756   339.2915  
280.33     333.7291   0          7.664658   7.222208   7.789027   7.941533   7.820806   7.585618   0.7234255  7.820806   7.551138   63.37765   20.99648   312.7325   339.0035  
280.4824   333.9919   0          7.718476   7.199864   7.706726   7.865654   7.826179   7.427292   0.7431227  7.826179   7.427292   63.18662   20.86151   313.1304   339.1385  
280.6348   333.5582   0          7.798702   7.194512   7.497561   7.730898   7.694244   7.357309   0.7050767  7.697186   7.357309   64.4604    22.13451   311.4237   337.8655  
