~Version
 VERS              .         2.0                           : CWLS LOG ASCII STANDARD - VERSION 2.0
 WRAP              .         NO                            : ONE LINE PER DEPTH STEP
 DLM               .         SPACE                         : DELIMITING CHARACTER(SPACE TAB OR COMMA)
~Well Information
#_______________________________________________________________________________
#
#PARAMETER_NAME    .UNIT     VALUE                         : DESCRIPTION
#_______________________________________________________________________________
STRT               .m        154.6                         : First reference value
STOP               .m        412.0036                      : Last reference value
STEP               .m        0.1524                        : Step increment
NULL               .         -9999                         : Missing value
COMP               .                                       : Company
WELL               .         B                             : Well name
FLD                .                                       : Field
LOC                .                                       : Location
CNTY               .                                       : County
STAT               .                                       : State
CTRY               .                                       : Country
SRVC               .                                       : Service Company
DATE               .                                       : Date
API                .                                       : API number
~Parameter Information Block
#_______________________________________________________________________________
#
#PARAMETER_NAME    .UNIT     VALUE                         : DESCRIPTION
#_______________________________________________________________________________
SET                .         Inclination                   : 
TLFamily_AZI       .         Hole Azimuth                  : 
TLFamily_AZ_OF_P1  .                                       : 
TLFamily_CAL2      .         Caliper 2                     : 
TLFamily_CAL4      .         Caliper                       : 
TLFamily_CAL6      .         Caliper                       : 
TLFamily_CAL8      .         Caliper                       : 
TLFamily_CALX      .         Caliper 1                     : 
TLFamily_CALY      .         Caliper 2                     : 
TLFamily_DEV       .         Hole Deviation                : 
TLFamily_DMAX      .         Caliper                       : 
TLFamily_DMIN      .         Caliper                       : 
TLFamily_GR        .         Gamma Ray                     : 
TLFamily_HAZI      .         Hole Azimuth                  : 
TLFamily_MD        .         Measured Depth                : 
TLFamily_RB_OF_P1  .         Relative Bearing              : 
TLFamily_ROT       .         Relative Bearing              : 
~Curve Information
#_______________________________________________________________________________
#
#LOGNAME           .UNIT     LOG_ID                        : DESCRIPTION
#_______________________________________________________________________________
MD                 .m                                      :  
AZ_OF_P1           .deg                                    : Unrecognised 
AZI                .deg                                    : AZIMUTH OF FIRST PIXEL OF IMAGE ARRAY 
CAL2               .in                                     : Unrecognised 
CAL4               .in                                     : Unrecognised 
CAL6               .in                                     : Unrecognised 
CAL8               .in                                     : Unrecognised 
CALX               .in                                     : Unrecognised 
CALY               .in                                     : Unrecognised 
DEV                .deg                                    : Unrecognised 
DMAX               .in                                     : Unrecognised 
DMIN               .in                                     : Unrecognised 
GR                 .gAPI                                   : Gamma Ray 
HAZI               .deg                                    : HOLE AZIMUTH 
RB_OF_P1           .deg                                    : Unrecognised 
ROT                .deg                                    : RELATIVE BEARING OF FIRST PIXEL OF IMAGE ARRAY 
~Ascii
# ...
287.7976   316.0826   0          6.11067    7.597714   7.527194   7.042778   7.510908   7.582802   0.8317929  7.582802   6.818932   68.78034   31.28818   284.7943   328.7118  
287.95     314.2785   0          6.11974    7.607247   7.449591   6.88604    7.511573   7.554737   0.8670896  7.554737   6.784666   69.33568   30.61478   283.6637   329.3852  
288.1024   314.3092   0          6.201231   7.691186   7.503882   6.829095   7.525595   7.611575   0.8401974  7.611582   6.852557   70.51832   30.64456   283.6645   329.3554  
288.2548   312.6667   0          6.46434    7.731352   7.565954   7.601185   7.742555   7.736841   0.8594124  7.780012   7.015147   72.43798   29.36671   283.2998   330.6333  
288.4072   303.0348   0          7.073054   7.765625   7.432319   7.918967   7.840889   7.906479   0.9927174  7.9087     7.252687   76.50767   28.54144   274.4932   331.4586  
288.5596   297.4995   0          7.876919   7.820078   7.587123   7.993377   8.108701   8.070539   1.090213   8.108701   7.732021   82.40404   26.55887   270.9406   333.4411  
288.712    299.6423   0          8.064306   7.887612   7.743697   7.952862   8.133769   8.128672   1.064372   8.133769   7.904001   85.4232    28.74353   270.8988   331.2565  
288.8644   302.1372   0          8.07302    7.944652   7.646023   7.787736   8.141685   8.128371   1.022744   8.141685   7.824914   85.15538   30.21159   271.9256   329.7884  
289.0168   301.8941   0          8.071607   7.888541   7.845465   7.609506   8.11053    8.121979   1.00168    8.121979   7.749023   84.12018   29.38468   272.5095   330.6153  
289.1692   302.0622   0          8.039799   7.856195   7.882593   7.704926   8.03822    8.109337   1.03861    8.109337   7.78056    84.73653   29.26911   272.793    330.7309  
289.3216   303.0892   0          8.160294   7.944214   7.791992   7.567581   8.104018   8.100058   1.009975   8.104018   7.755898   87.07698   27.92867   275.1605   332.0713  
289.474    303.2683   0          8.102045   7.905357   7.857061   7.834683   8.07773    8.100789   0.9839063  8.10178    7.87002    88.84151   28.74633   274.522    331.2537  
289.6264   303.8554   0          7.776451   7.893222   7.882167   7.85361    8.036839   8.096063   1.017146   8.096063   7.829309   89.79059   28.27004   275.5854   331.7299  
289.7788   305.1962   0          8.074351   7.973526   7.845012   7.778388   8.076794   8.140697   0.9898852  8.140697   7.865642   90.41398   28.09379   277.1024   331.9062  
289.9312   305.74     0          8.15173    7.978935   7.852101   7.793975   8.038134   8.201691   0.9726418  8.201691   7.886455   90.83737   26.32796   279.4121   333.672   
290.0836   306.3382   0          8.19201    7.913908   7.843716   7.849265   8.071041   8.193013   0.9568062  8.193013   7.881587   91.16779   27.46252   278.8757   332.5375  
290.236    307.9347   0          8.242394   7.994933   7.805656   7.834505   8.105032   8.179296   0.9622139  8.179296   7.914719   91.22459   28.01232   279.9223   331.9877  
290.3884   309.4112   0          8.243818   7.988599   7.960608   7.798446   8.107484   8.187098   0.9234336  8.187098   7.893522   91.88232   30.25341   279.1577   329.7466  
290.5408   311.425    0          8.143258   7.998543   7.990275   7.87343    8.17693    8.14667    0.9049046  8.180115   7.935987   92.35564   29.69991   281.7252   330.3001  
290.6932   313.4584   0          8.157722   7.896108   7.998694   7.863088   8.093299   8.145986   0.8883524  8.151559   7.879598   91.55408   29.76445   283.694    330.2356  
290.8456   314.0905   0          7.710929   7.78421    7.822085   7.798224   7.884955   7.977276   0.8817059  7.983152   7.754398   89.59468   29.09402   284.9965   330.906   
290.998    311.8803   0          7.699266   7.796844   7.59566    7.913773   7.765191   8.033261   0.9142317  8.033261   7.647463   88.36819   28.82703   283.0533   331.173   
291.1504   307.9474   0          7.961702   7.764098   7.613726   8.006307   8.005103   8.046105   0.9409152  8.090982   7.784316   89.96368   28.21544   279.732    331.7845  
291.3028   307.1839   0          8.092666   7.883236   7.752721   7.950134   8.124458   7.983208   0.9638166  8.124458   7.915945   92.54308   27.944     279.2398   332.056   
291.4552   306.4707   0          7.635127   7.765829   7.689744   7.964595   8.035068   7.973947   0.9602563  8.036882   7.662435   94.57603   27.87924   278.5915   332.1208  
291.6076   305.9449   0          7.165593   7.688641   7.675723   7.991001   7.84883    7.958817   0.9653857  7.958817   7.420658   93.85472   29.4984    276.4465   330.5016  
291.76     305.3983   0          7.442188   7.76807    7.576109   7.997317   7.909935   7.976181   0.9728626  7.976181   7.509149   90.98388   29.59061   275.8076   330.4094  
291.9124   304.8693   0          8.078357   7.875058   7.634656   7.93729    8.096836   8.025265   0.9643537  8.096836   7.856506   88.79806   28.85963   276.0097   331.1404  
292.0648   304.0611   0          8.051155   7.882616   7.64607    7.545513   8.012255   8.02166    0.9934202  8.041581   7.704697   89.18176   27.66602   276.3951   332.334   
292.2172   302.1066   0          8.025245   7.896012   7.575222   7.812574   8.029636   8.0258     1.006569   8.034335   7.800233   91.52872   28.06971   274.0368   331.9303  
292.3696   301.8367   0          7.540761   7.834793   7.674439   7.863693   8.029884   8.108092   1.004969   8.108092   7.6076     93.7112    28.66998   273.1666   331.33    
292.522    304.9984   0          8.052547   7.598375   7.727896   7.970701   8.020403   8.00188    0.9846416  8.020403   7.784538   93.93494   28.23582   276.7628   331.7642  
292.6744   306.2322   0          8.023011   7.631841   7.672539   7.819798   8.003468   7.967451   0.9882938  8.003468   7.725819   93.42542   27.88053   278.3517   332.1195  
292.8268   306.2417   0          8.05279    7.863351   7.820188   7.70206    8.007413   8.05573    0.9654461  8.05573    7.782706   93.47665   28.24959   277.9921   331.7504  
292.9792   305.3593   0          8.069203   7.80372    7.779776   7.791288   8.036813   8.06945    0.9632078  8.06945    7.797504   94.88828   30.45541   274.9037   329.5446  
293.1316   305.5059   0          8.244368   7.911435   7.734728   7.898049   8.076217   8.07607    0.9603568  8.077159   7.902513   97.63108   30.4003    275.1056   329.5997  
293.284    306.3723   0          8.203021   7.969376   7.717368   7.938365   8.090052   8.052334   0.9542577  8.090052   7.952742   100.5888   30.92612   275.4462   329.0739  
293.4364   306.8755   0          8.236344   7.906994   7.70834    7.894719   8.126303   7.98278    0.9701558  8.126303   7.900857   103.5807   30.69035   276.1851   329.3097  
293.5888   306.6485   0          8.20085    7.981695   7.694283   7.875805   8.133088   8.143564   0.9686887  8.150331   7.92875    105.4117   29.40829   277.2404   330.5917  
293.7412   304.6666   0          8.135746   7.966636   7.841476   7.989415   8.130795   8.162939   0.9818008  8.181795   7.952494   105.5099   30.4165    274.25     329.5835  
293.8936   304.3936   0          8.235658   8.02979    7.856191   7.981921   8.196722   8.101902   0.9826077  8.196722   8.005855   103.8876   29.73052   274.6631   330.2695  
294.046    304.6177   0          8.11548    7.917647   7.827349   7.999413   8.148096   8.114847   0.9593375  8.148096   7.95853    101.4981   29.5571    275.0606   330.4429  
294.1984   304.0512   0          8.348504   7.947843   7.696616   7.976796   8.182549   8.218005   0.9496329  8.21845    7.962319   99.91581   27.64633   276.4048   332.3537  
294.3508   302.9179   0          8.19178    8.018096   7.858448   7.976257   8.167634   8.217768   0.987922   8.217768   7.997177   98.52481   28.51423   274.4037   331.4858  
294.5032   302.7139   0          8.28046    7.947032   7.772552   7.511043   8.176657   8.140404   0.9921024  8.176657   7.729038   96.83995   29.69548   273.0185   330.3045  
294.6556   303.5915   0          8.282865   8.028559   7.8731     7.733153   8.231933   8.093804   0.9633512  8.231933   7.880856   94.78137   29.82019   273.7713   330.1798  
