~Version
 VERS              .         2.0                           : CWLS LOG ASCII STANDARD - VERSION 2.0
 WRAP              .         NO                            : ONE LINE PER DEPTH STEP
 DLM               .         SPACE                         : DELIMITING CHARACTER(SPACE TAB OR COMMA)
~Well Information
#_______________________________________________________________________________
#
#PARAMETER_NAME    .UNIT     VALUE                         : DESCRIPTION
#_______________________________________________________________________________
STRT               .m        154.6                         : First reference value
STOP               .m        412.0036                      : Last reference value
STEP               .m        0.1524                        : Step increment
NULL               .         -9999                         : Missing value
COMP               .                                       : Company
WELL               .         B                             : Well name
FLD                .                                       : Field
LOC                .                                       : Location
CNTY               .                                       : County
STAT               .                                       : State
CTRY               .                                       : Country
SRVC               .                                       : Service Company
DATE               .                                       : Date
API                .                                       : API number
~Parameter Information Block
#_______________________________________________________________________________
#
#PARAMETER_NAME    .UNIT     VALUE                         : DESCRIPTION
#_______________________________________________________________________________
SET                .         Inclination                   : 
TLFamily_AZI       .         Hole Azimuth                  : 
TLFamily_AZ_OF_P1  .                                       : 
TLFamily_CAL2      .         Caliper 2                     : 
TLFamily_CAL4      .         Caliper                       : 
TLFamily_CAL6      .         Caliper                       : 
TLFamily_CAL8      .         Caliper                       : 
TLFamily_CALX      .         Caliper 1                     : 
TLFamily_CALY      .         Caliper 2                     : 
TLFamily_DEV       .         Hole Deviation                : 
TLFamily_DMAX      .         Caliper                       : 
TLFamily_DMIN      .         Caliper                       : 
TLFamily_GR        .         Gamma Ray                     : 
TLFamily_HAZI      .         Hole Azimuth                  : 
TLFamily_MD        .         Measured Depth                : 
TLFamily_RB_OF_P1  .         Relative Bearing              : 
TLFamily_ROT       .         Relative Bearing              : 
~Curve Information
#_______________________________________________________________________________
#
#LOGNAME           .UNIT     LOG_ID                        : DESCRIPTION
#_______________________________________________________________________________
MD                 .m                                      :  
AZ_OF_P1           .deg                                    : Unrecognised 
AZI                .deg                                    : AZIMUTH OF FIRST PIXEL OF IMAGE ARRAY 
CAL2               .in                                     : Unrecognised 
CAL4               .in                                     : Unrecognised 
CAL6               .in                                     : Unrecognised 
CAL8               .in                                     : Unrecognised 
CALX               .in                                     : Unrecognised 
CALY               .in                                     : Unrecognised 
DEV                .deg                                    : Unrecognised 
DMAX               .in                                     : Unrecognised 
DMIN               .in                                     : Unrecognised 
GR                 .gAPI                                   : Gamma Ray 
HAZI               .deg                                    : HOLE AZIMUTH 
RB_OF_P1           .deg                                    : Unrecognised 
ROT                .deg                                    : RELATIVE BEARING OF FIRST PIXEL OF IMAGE ARRAY 
~Ascii
154.6000   74.94769   0          8.528069   8.510318   8.477365   8.712665   8.656509   8.575049   1.085769   8.656509   8.502716   93.44109   300.1863   134.7614   59.81374  
154.7524   76.28888   0          8.522603   8.572565   8.618565   8.723742   8.694402   8.598342   1.109919   8.694402   8.570583   94.06497   302.7529   133.5359   57.24707  
154.9048   77.93746   0          8.45911    8.473389   8.467736   8.468641   8.527072   8.470573   1.114564   8.527072   8.462577   93.75564   302.1169   135.8206   57.88308  
155.0572   79.63593   0          8.483005   8.397974   8.502478   8.548809   8.523703   8.473844   1.14104    8.523703   8.469889   92.41304   301.4121   138.2238   58.58786  
155.2096   80.80612   0          8.545315   8.339484   8.381001   8.560487   8.486737   8.453547   1.171494   8.487628   8.446683   91.01308   303.4975   137.3087   56.50253  
155.362    82.30882   0          8.620588   8.328548   8.254115   8.604595   8.442336   8.439789   1.173269   8.466572   8.430982   90.37238   304.919    137.3898   55.08095  
155.5144   83.82195   0          8.5708     8.330693   8.207215   8.576186   8.404874   8.439564   1.210571   8.46087    8.389008   90.98415   306.1654   137.6566   53.83461  
155.6668   84.96272   0          8.585313   8.308212   8.273213   8.614393   8.513464   8.426238   1.191296   8.513464   8.425541   92.0046    307.5123   137.4505   52.48772  
155.8192   85.54211   0          8.577723   8.423651   8.335066   8.496139   8.54816    8.403738   1.206084   8.54816    8.403738   92.83568   306.7911   138.7511   53.20893  
155.9716   86.35723   0          8.533748   8.450419   8.282537   8.315589   8.460542   8.365693   1.201846   8.460542   8.365693   92.9898    306.0516   140.3056   53.94838  
156.124    87.47058   0          8.501841   8.446571   8.402142   8.363098   8.417967   8.439816   1.205709   8.455793   8.404835   92.39083   305.4981   141.9725   54.5019   
156.2764   88.82009   0          8.438226   8.380103   8.374663   8.380051   8.442204   8.435292   1.226608   8.442204   8.380076   90.3359    306.6122   142.208    53.38786  
156.4288   89.8537    0          8.352912   8.369736   8.427164   8.338579   8.395004   8.429662   1.252302   8.429662   8.354157   88.58115   307.0233   142.8305   52.97674  
156.5812   90.89565   0          8.360554   7.973741   8.374249   8.280773   8.36698    8.21278    1.232532   8.379209   8.127256   86.57602   309.3345   141.5612   50.66549  
156.7336   91.27614   0          8.283592   7.485825   8.38234    8.179626   8.326539   8.014482   1.244955   8.33823    7.824702   86.68079   308.3737   142.9024   51.62629  
156.886    92.72393   0          8.359262   7.957469   8.210577   7.909018   8.255912   7.936073   1.282593   8.284921   7.9299     89.16639   307.459    145.2649   52.54097  
157.0384   95.94649   0          8.150085   7.989059   8.225784   7.984682   8.211704   8.027542   1.312207   8.211704   7.98687    92.4334    308.8604   147.086    51.13958  
157.1908   96.77078   0          8.015388   8.184381   8.417604   8.103425   8.249165   8.228405   1.331092   8.249165   8.143904   94.12608   310.6491   146.1217   49.35087  
157.3432   97.60097   0          8.25998    8.35557    8.422995   8.451474   8.448709   8.422463   1.32221    8.448709   8.317132   94.19392   310.2266   147.3744   49.77345  
157.4956   97.59268   0          8.326915   8.343006   8.53569    8.408871   8.517706   8.363609   1.340826   8.517706   8.36015    94.50955   311.2123   146.3803   48.78769  
157.648    97.28985   0          8.338016   8.317636   8.426985   8.41522    8.404346   8.37739    1.335438   8.406035   8.365105   94.57375   311.2592   146.0307   48.74085  
157.8004   98.13516   0          8.270129   8.333284   8.366514   8.462018   8.37305    8.400948   1.339319   8.400948   8.318321   93.79649   311.3767   146.7585   48.62333  
157.9528   99.41121   0          8.341455   8.321251   8.340127   8.438731   8.41633    8.411414   1.333761   8.431713   8.340792   90.51267   311.2881   148.1231   48.71189  
158.1052   100.5015   0          8.237351   8.354449   8.407002   8.43594    8.46331    8.19992    1.35528    8.468969   8.19992    87.90693   310.544    149.9575   49.45597  
158.2576   100.4648   0          8.08188    8.410279   8.278248   8.121331   8.243829   8.078176   1.371746   8.289972   8.078176   88.92799   311.9859   148.4789   48.01406  
158.41     100.7354   0          8.075217   8.205505   8.176939   8.118685   8.183139   8.043      1.371066   8.184479   8.043      92.20144   312.0041   148.7314   47.99594  
158.5624   102.3542   0          8.040451   8.116056   8.116887   8.098168   8.089397   8.043178   1.380405   8.107113   8.043178   95.37891   312.1675   150.1867   47.83247  
158.7148   104.2399   0          7.927181   8.057063   8.167909   8.073786   8.035429   8.062271   1.399888   8.073876   8.031884   97.72486   312.1535   152.0864   47.84653  
158.8672   105.1092   0          7.884011   8.014859   8.331145   8.018733   8.043168   8.056212   1.405973   8.107578   8.016796   97.99012   312.6047   152.5045   47.39534  
159.0196   105.528    0          8.039976   7.989956   8.403691   7.961998   8.068219   8.059371   1.406057   8.221834   7.975976   96.30755   313.3683   152.1597   46.63172  
159.172    105.8857   0          8.096576   8.017352   8.520626   8.048688   8.131156   8.190613   1.417908   8.3086     8.033021   92.94624   313.1957   152.6901   46.80432  
159.3244   106.86     0          8.234038   8.087946   8.608068   8.452774   8.20823    8.533567   1.427573   8.533567   8.206006   90.68375   313.3867   153.4735   46.61334  
159.4768   108.3946   0          8.538818   8.327509   8.723003   8.746988   8.516789   8.766076   1.445832   8.766076   8.514674   92.54623   313.7068   154.6879   46.29325  
159.6292   109.8498   0          8.672948   8.660708   8.756164   8.644744   8.679465   8.7925     1.502238   8.7925     8.652726   96.04002   315.9653   153.8846   44.03466  
159.7816   111.2859   0          8.73605    8.729467   8.775652   8.785137   8.802758   8.794272   1.485395   8.823482   8.732403   98.51131   316.0556   155.2304   43.94439  
159.934    111.7975   0          8.722501   8.709164   8.791884   8.788094   8.771702   8.823428   1.472467   8.823428   8.738988   97.89048   315.7722   156.0254   44.22783  
160.0864   111.9903   0          8.731094   8.654135   8.852283   8.81881    8.773306   8.880176   1.475978   8.880176   8.736472   95.99995   316.675    155.3153   43.325    
160.2388   111.9018   0          8.737331   8.667359   8.797377   8.806343   8.809371   8.889561   1.463447   8.889561   8.733183   93.43939   316.086    155.8158   43.91397  
160.3912   113.0953   0          8.812274   8.689088   8.760089   8.813216   8.721725   8.779243   1.498925   8.794355   8.721725   90.64716   318.0387   155.0566   41.96126  
160.5436   114.646    0          8.859853   8.648986   8.711797   8.834106   8.709882   8.804825   1.509502   8.805571   8.709882   89.69044   317.5271   157.1189   42.47289  
160.696    116.4837   0          8.937562   8.780422   8.825383   8.942698   8.87471    8.907689   1.511514   8.907758   8.861555   90.14671   316.5147   159.969    43.48526  
160.8484   118.9647   0          8.927018   8.841319   8.571764   8.72366    8.617758   8.754903   1.598723   8.795574   8.617758   92.33589   318.4464   160.5184   41.55365  
161.0008   121.2514   0          8.384994   8.244902   8.358229   8.511007   8.364528   8.444232   1.550531   8.444232   8.364426   93.02477   321.2062   160.0453   38.7938   
161.1532   123.0914   0          8.315875   8.25513    8.344437   8.30846    8.309143   8.326107   1.564365   8.334809   8.281796   91.5488    320.6338   162.4577   39.3662   
161.3056   124.6072   0          8.26324    8.199058   8.377499   8.108189   8.221062   8.1274     1.593061   8.32037    8.123389   90.44384   321.6364   162.9708   38.36362  
161.458    126.3618   0          8.279968   8.092991   8.217706   8.149188   8.247526   8.19867    1.59461    8.253798   8.121089   90.08122   323.2431   163.1187   36.75686  
