~Version
 VERS              .         2.0                           : CWLS LOG ASCII STANDARD - VERSION 2.0
 WRAP              .         NO                            : ONE LINE PER DEPTH STEP
 DLM               .         SPACE                         : DELIMITING CHARACTER(SPACE TAB OR COMMA)
~Well Information
#_______________________________________________________________________________
#
#PARAMETER_NAME    .UNIT     VALUE                         : DESCRIPTION
#_______________________________________________________________________________
STRT               .m        154.6                         : First reference value
STOP               .m        412.0036                      : Last reference value
STEP               .m        0.1524                        : Step increment
NULL               .         -9999                         : Missing value
COMP               .                                       : Company
WELL               .         B                             : Well name
FLD                .                                       : Field
LOC                .                                       : Location
CNTY               .                                       : County
STAT               .                                       : State
CTRY               .                                       : Country
SRVC               .                                       : Service Company
DATE               .                                       : Date
API                .                                       : API number
~Parameter Information Block
#_______________________________________________________________________________
#
#PARAMETER_NAME    .UNIT     VALUE                         : DESCRIPTION
#_______________________________________________________________________________
SET                .         Inclination                   : 
TLFamily_AZI       .         Hole Azimuth                  : 
TLFamily_AZ_OF_P1  .                                       : 
TLFamily_CAL2      .         Caliper 2                     : 
TLFamily_CAL4      .         Caliper                       : 
TLFamily_CAL6      .         Caliper                       : 
TLFamily_CAL8      .         Caliper                       : 
TLFamily_CALX      .         Caliper 1                     : 
TLFamily_CALY      .         Caliper 2                     : 
TLFamily_DEV       .         Hole Deviation                : 
TLFamily_DMAX      .         Caliper                       : 
TLFamily_DMIN      .         Caliper                       : 
TLFamily_GR        .         Gamma Ray                     : 
TLFamily_HAZI      .         Hole Azimuth                  : 
TLFamily_MD        .         Measured Depth                : 
TLFamily_RB_OF_P1  .         Relative Bearing              : 
TLFamily_ROT       .         Relative Bearing              : 
~Curve Information
#_______________________________________________________________________________
#
#LOGNAME           .UNIT     LOG_ID                        : DESCRIPTION
#_______________________________________________________________________________
MD                 .m                                      :  
AZ_OF_P1           .deg                                    : Unrecognised 
AZI                .deg                                    : AZIMUTH OF FIRST PIXEL OF IMAGE ARRAY 
CAL2               .in                                     : Unrecognised 
CAL4               .in                                     : Unrecognised 
CAL6               .in                                     : Unrecognised 
CAL8               .in                                     : Unrecognised 
CALX               .in                                     : Unrecognised 
CALY               .in                                     : Unrecognised 
DEV                .deg                                    : Unrecognised 
DMAX               .in                                     : Unrecognised 
DMIN               .in                                     : Unrecognised 
GR                 .gAPI                                   : Gamma Ray 
HAZI               .deg                                    : HOLE AZIMUTH 
RB_OF_P1           .deg                                    : Unrecognised 
ROT                .deg                                    : RELATIVE BEARING OF FIRST PIXEL OF IMAGE ARRAY 
~Ascii
# ...
203.6728   306.2214   0          8.860223   8.593508   8.671839   8.406319   8.766272   8.598269   0.9354816  8.825812   8.499913   29.49542   13.40645   292.8138   346.5935  
203.8252   309.3978   0          9.151088   8.394485   7.971026   8.744555   8.614907   8.820125   0.9189776  8.860929   8.537135   26.63165   10.65001   298.7485   349.35    
203.9776   309.7038   0          8.964984   8.254532   8.520751   8.392089   8.777169   8.457877   0.8924087  8.792792   8.323311   26.81864   12.70506   296.9987   347.295   
204.13     309.5926   0          8.495899   8.211761   8.513996   8.282222   8.509747   8.264992   0.9246808  8.558373   8.211409   30.80759   11.7468    297.8459   348.2532  
204.2824   311.9298   0          8.283013   7.80248    7.783874   8.530892   8.339063   8.176485   0.8671803  8.339063   8.029583   40.67867   12.87036   299.0595   347.1296  
204.4348   310.363    0          8.276881   7.459398   7.703342   8.273149   8.163261   7.985212   0.8860505  8.163261   7.866273   55.24292   13.24832   297.1147   346.7517  
204.5872   309.8335   0          8.212972   7.429167   7.730936   8.125786   8.206242   7.76901    0.8703616  8.206242   7.766201   68.86028   12.56811   297.2654   347.4319  
204.7396   311.1142   0          8.134921   7.413417   7.709439   8.050327   8.240682   7.725207   0.8634688  8.240682   7.721331   77.69167   12.8752    298.239    347.1248  
204.892    312.4865   0          8.073048   7.422203   7.665268   8.001951   8.210485   7.742305   0.855266   8.210485   7.712077   80.87533   11.63367   300.8529   348.3663  
205.0444   313.8338   0          8.078245   7.457036   7.674516   8.019866   8.20591    7.751473   0.8181634  8.20591    7.738451   81.03813   12.34572   301.4881   347.6543  
205.1968   315.5329   0          8.064898   7.447061   7.65073    8.023299   8.22443    7.752897   0.8086606  8.22443    7.73518    80.73882   10.18279   305.3503   349.8172  
205.3492   317.2683   0          8.049095   7.455788   7.611217   7.951489   8.174754   7.757118   0.7899452  8.174754   7.703639   80.83292   9.723796   307.5445   350.2762  
205.5016   318.6474   0          8.1028     7.546064   7.611231   7.959719   8.166459   7.728088   0.792547   8.166459   7.728088   82.23769   10.34679   308.3007   349.6532  
205.654    319.8889   0          8.182624   7.744457   7.511514   7.773894   8.197671   7.700912   0.7541935  8.197671   7.700912   83.39914   9.706278   310.1826   350.2937  
205.8064   320.4947   0          8.263863   7.926253   7.540981   7.753763   8.13374    7.89409    0.7493535  8.13374    7.840008   84.96813   9.751562   310.7431   350.2484  
205.9588   321.029    0          8.124144   7.765697   7.693594   7.945553   8.065928   7.881851   0.7540071  8.065928   7.855625   85.03888   9.904758   311.1242   350.0952  
206.1112   323.1365   0          8.103032   7.700509   7.704467   7.949809   8.104761   7.902321   0.7555291  8.104761   7.825159   82.59121   9.651124   313.4847   350.3489  
206.2636   326.9048   0          8.048351   7.772783   7.714667   7.95096    8.053794   7.938015   0.7057927  8.053794   7.861872   81.24944   7.796324   319.1084   352.2037  
206.416    328.4066   0          8.036252   7.759129   7.697987   7.952324   8.000787   7.94923    0.6785401  8.000787   7.855726   82.2452    6.852826   321.5538   353.1472  
206.5684   328.8336   0          8.048542   7.6869     7.643673   7.959298   8.002126   7.92541    0.6922013  8.002126   7.823099   85.33685   7.903923   320.9299   352.0961  
206.7208   326.9634   0          8.064178   7.606714   7.7222     8.016695   8.026133   7.917593   0.6933534  8.026133   7.811705   88.16147   10.09569   316.8673   349.9043  
206.8732   325.2712   0          8.092      7.63617    7.692203   8.112446   8.107725   7.89332    0.724329   8.107725   7.874308   89.18456   10.35283   314.9183   349.6472  
207.0256   325.6959   0          8.067968   7.678225   7.653513   7.988626   8.093888   7.866378   0.7192724  8.093888   7.833426   90.19316   9.301031   316.3949   350.699   
207.178    325.8996   0          8.12526    7.601325   7.637804   7.967356   8.038225   7.888104   0.7079297  8.038225   7.78434    91.8333    8.195255   317.7043   351.8047  
207.3304   327.2125   0          8.11361    7.513786   7.663003   8.035198   8.041789   7.931582   0.6875651  8.041789   7.774493   93.11319   7.357052   319.8555   352.6429  
207.4828   328.791    0          8.06359    7.454453   7.728132   8.039118   8.055777   7.96134    0.6801889  8.055777   7.746786   96.77213   7.001113   321.79     352.9989  
207.6352   328.5719   0          8.097024   7.54083    7.688492   8.023885   8.05125    7.971564   0.6580949  8.05125    7.782357   102.6411   6.574717   321.9973   353.4253  
207.7876   328.3858   0          8.083032   7.471921   7.758023   7.994157   8.053813   7.978682   0.6735973  8.053813   7.733039   108.106    7.841965   320.5439   352.158   
207.94     328.252    0          8.121502   7.455586   7.78461    8.033369   8.088676   7.97214    0.6586118  8.088676   7.744478   110.3595   7.956116   320.2958   352.0439  
208.0924   327.3112   0          8.149504   7.409412   7.724383   8.037612   8.141384   7.957854   0.6971781  8.141384   7.723512   110.6775   6.829819   320.4814   353.1702  
208.2448   326.0201   0          8.131031   7.464615   7.793393   8.016591   8.17525    7.956874   0.7110366  8.17525    7.740603   112.7859   7.532035   318.4882   352.468   
208.3972   324.6007   0          8.016681   7.756838   7.854249   7.956488   8.113232   7.914398   0.6978318  8.113232   7.856663   115.9476   8.608405   315.9923   351.3916  
208.5496   322.4241   0          8.033868   7.691274   7.778315   7.990374   8.082582   7.83253    0.7558459  8.082582   7.83253    119.1392   9.40063    313.0235   350.5994  
208.702    321.6716   0          8.028866   7.693467   7.780311   8.009412   8.125423   7.876808   0.7377239  8.125423   7.851439   120.9004   10.10822   311.5634   349.8918  
208.8544   321.8012   0          7.949937   7.781608   7.867129   7.860051   8.143923   7.88082    0.7228613  8.143923   7.820829   121.3774   10.12999   311.6712   349.87    
209.0068   320.882    0          7.9459     7.8265     7.912834   8.034766   8.207944   7.871157   0.737808   8.207944   7.871157   121.5562   12.58888   308.293    347.4111  
209.1592   321.1563   0          8.071868   7.759385   7.805192   7.979668   8.05534    7.870481   0.7301134  8.05534    7.866581   121.313    13.52703   307.6292   346.473   
209.3116   322.6086   0          8.083028   7.586369   7.745663   8.008919   8.046208   7.880981   0.7183166  8.046208   7.797644   120.1646   10.94678   311.662    349.0532  
209.464    322.0348   0          8.083463   7.530752   7.822996   8.022856   8.094982   7.890886   0.7373751  8.094982   7.776804   117.5162   9.876882   312.1579   350.1231  
209.6164   322.3568   0          8.079449   7.444374   7.822965   8.106383   8.135373   7.907124   0.7287796  8.135373   7.775379   114.5882   10.65784   311.6989   349.3422  
209.7688   323.1696   0          8.135569   7.747562   7.785177   8.088339   8.186698   7.977268   0.7204646  8.186698   7.91795    110.7219   11.40017   311.7695   348.5998  
209.9212   323.48     0          8.073989   7.698901   7.977581   8.058817   8.233394   8.036998   0.6942406  8.233394   7.878859   107.1337   11.3833    312.0963   348.6167  
210.0736   324.521    0          8.407468   8.17515    7.934779   8.194756   8.410998   8.088151   0.7065846  8.410998   8.038171   105.5081   8.49971    316.0213   351.5003  
210.226    325.3905   0          8.324302   7.936346   7.897516   8.363404   8.34269    8.03766    0.6827739  8.34269    8.03766    104.8619   9.332919   316.0576   350.6671  
210.3784   324.8288   0          8.253808   7.852694   7.931951   8.248796   8.188451   8.097933   0.6907957  8.188451   8.027759   105.6777   10.59705   314.2318   349.403   
210.5308   325.4644   0          8.355515   7.749368   7.896767   8.263116   8.22849    8.127398   0.6646803  8.22849    8.006242   104.4417   10.22689   315.2375   349.7731  
