~Version
 VERS              .         2.0                           : CWLS LOG ASCII STANDARD - VERSION 2.0
 WRAP              .         NO                            : ONE LINE PER DEPTH STEP
 DLM               .         SPACE                         : DELIMITING CHARACTER(SPACE TAB OR COMMA)
~Well Information
#_______________________________________________________________________________
#
#PARAMETER_NAME    .UNIT     VALUE                         : DESCRIPTION
#_______________________________________________________________________________
STRT               .m        154.6                         : First reference value
STOP               .m        412.0036                      : Last reference value
STEP               .m        0.1524                        : Step increment
NULL               .         -9999                         : Missing value
COMP               .                                       : Company
WELL               .         B                             : Well name
FLD                .                                       : Field
LOC                .                                       : Location
CNTY               .                                       : County
STAT               .                                       : State
CTRY               .                                       : Country
SRVC               .                                       : Service Company
DATE               .                                       : Date
API                .                                       : API number
~Parameter Information Block
#_______________________________________________________________________________
#
#PARAMETER_NAME    .UNIT     VALUE                         : DESCRIPTION
#_______________________________________________________________________________
SET                .         Inclination                   : 
TLFamily_AZI       .         Hole Azimuth                  : 
TLFamily_AZ_OF_P1  .                                       : 
TLFamily_CAL2      .         Caliper 2                     : 
TLFamily_CAL4      .         Caliper                       : 
TLFamily_CAL6      .         Caliper                       : 
TLFamily_CAL8      .         Caliper                       : 
TLFamily_CALX      .         Caliper 1                     : 
TLFamily_CALY      .         Caliper 2                     : 
TLFamily_DEV       .         Hole Deviation                : 
TLFamily_DMAX      .         Caliper                       : 
TLFamily_DMIN      .         Caliper                       : 
TLFamily_GR        .         Gamma Ray                     : 
TLFamily_HAZI      .         Hole Azimuth                  : 
TLFamily_MD        .         Measured Depth                : 
TLFamily_RB_OF_P1  .         Relative Bearing              : 
TLFamily_ROT       .         Relative Bearing              : 
~Curve Information
#_______________________________________________________________________________
#
#LOGNAME           .UNIT     LOG_ID                        : DESCRIPTION
#_______________________________________________________________________________
MD                 .m                                      :  
AZ_OF_P1           .deg                                    : Unrecognised 
AZI                .deg                                    : AZIMUTH OF FIRST PIXEL OF IMAGE ARRAY 
CAL2               .in                                     : Unrecognised 
CAL4               .in                                     : Unrecognised 
CAL6               .in                                     : Unrecognised 
CAL8               .in                                     : Unrecognised 
CALX               .in                                     : Unrecognised 
CALY               .in                                     : Unrecognised 
DEV                .deg                                    : Unrecognised 
DMAX               .in                                     : Unrecognised 
DMIN               .in                                     : Unrecognised 
GR                 .gAPI                                   : Gamma Ray 
HAZI               .deg                                    : HOLE AZIMUTH 
RB_OF_P1           .deg                                    : Unrecognised 
ROT                .deg                                    : RELATIVE BEARING OF FIRST PIXEL OF IMAGE ARRAY 
~Ascii
# ...
238.7248   191.5276   0          8.010399   8.209043   8.109678   8.073975   8.040818   8.175405   1.827326   8.175405   8.032145   51.45849   347.7339   203.7938   12.26613  
238.8772   191.7308   0          7.963371   8.159194   8.14909    8.126597   8.100404   8.09916    1.830052   8.156075   8.056315   50.42892   348.2066   203.5243   11.79342  
239.0296   193.1369   0          7.917311   8.070451   8.081216   8.1024     8.068902   8.088725   1.800881   8.09184    7.999263   50.41754   348.5977   204.5392   11.40227  
239.182    195.2719   0          7.963202   7.93123    8.102413   8.123132   8.109332   8.094635   1.802399   8.115687   8.011054   51.8063    349.7799   205.4919   10.22009  
239.3344   196.5003   0          7.644419   7.675959   8.153308   8.022826   8.137153   8.101724   1.833249   8.137153   7.849392   52.92576   349.6946   206.8057   10.30541  
239.4868   195.773    0          8.036456   7.956951   8.174925   8.095805   8.14377    8.127754   1.828988   8.14377    8.026378   53.48956   349.5272   206.2457   10.47278  
239.6392   194.8939   0          8.146758   8.04458    8.160955   8.140497   8.171173   8.165427   1.81398    8.173903   8.092539   52.479     349.6704   205.2235   10.32962  
239.7916   197.2137   0          8.210161   8.103122   8.153327   8.192448   8.223123   8.195581   1.826887   8.223707   8.147785   51.03658   350.0302   207.1835   9.969831  
239.944    198.0211   0          8.254206   8.164828   8.179234   8.276809   8.259999   8.278133   1.821232   8.289656   8.204772   50.02574   350.3057   207.7154   9.694348  
240.0964   196.7562   0          8.267699   8.262243   8.307176   8.358342   8.390664   8.278797   1.794732   8.390664   8.27736    48.91808   349.2904   207.4658   10.70956  
240.2488   193.8801   0          8.267542   8.261291   8.487199   8.511135   8.502701   8.327288   1.814605   8.502701   8.327288   48.21995   348.2607   205.6195   11.73934  
240.4012   194.7035   0          8.296465   8.318806   8.734707   8.997071   8.642197   8.517883   1.816131   8.659972   8.514133   47.46864   349.1473   205.5564   10.85266  
240.5536   196.2578   0          8.414063   8.649197   8.822804   8.883798   8.671193   8.885701   1.80476    8.885701   8.618433   47.19596   349.5011   206.7567   10.49889  
240.706    193.6608   0          8.542403   9.05923    8.696874   8.822352   8.891562   8.918549   1.819041   8.940792   8.619638   47.2827    349.6263   204.0344   10.37371  
240.8584   196.2588   0          8.860362   9.06777    8.572456   8.942612   8.832399   9.039475   1.797587   9.040153   8.716409   47.54221   350.7629   205.4959   9.237113  
241.0108   197.5231   0          9.016708   9.090627   8.594337   8.967909   8.865742   9.156384   1.79094    9.156384   8.805523   48.27938   350.615    206.9081   9.384981  
241.1632   198.8819   0          9.016532   9.120166   8.593607   8.939044   9.000943   9.162303   1.776105   9.162303   8.80507    50.36619   350.9538   207.9281   9.046193  
241.3156   201.3409   0          9.119531   9.095915   8.588057   9.016047   9.058328   9.21137    1.767378   9.21137    8.853793   51.44967   351.9956   209.3452   8.004399  
241.468    203.5542   0          9.200857   9.106174   8.647045   9.179901   9.074883   9.217689   1.777493   9.217689   8.92395    49.75299   352.0972   211.457    7.902819  
241.6204   204.0684   0          9.357263   9.175875   8.74545    9.183747   9.221372   9.238585   1.754635   9.243879   9.051356   47.43539   353.0523   211.0161   6.947733  
241.7728   202.3778   0          9.281778   9.242915   8.828608   9.135286   9.236774   9.212481   1.730003   9.236774   9.055193   45.49074   352.4554   209.9212   7.54458   
241.9252   194.6308   0          9.36648    9.318773   9.059825   9.318811   9.364344   9.418973   1.748425   9.418973   9.213153   44.22424   349.8734   204.7586   10.12663  
242.0776   189.8548   0          9.759048   9.610947   9.271394   9.559543   9.732023   9.586964   1.791945   9.745623   9.515222   42.18258   348.1866   201.6682   11.81337  
242.23     188.4869   0          7.978345   9.494704   9.266941   6.821723   8.232512   8.86121    1.822705   8.86121    8.158214   38.88704   346.7055   201.7814   13.29446  
242.3824   189.2392   0          7.058724   8.354517   8.68539    7.064949   7.891282   8.080872   1.81869    8.080872   7.709733   35.55417   347.1742   202.065    12.82582  
242.5348   190.1455   0          8.076965   8.036727   8.021628   7.652639   7.959665   8.026727   1.874834   8.051443   7.844683   32.87269   348.0253   202.1202   11.97468  
242.6872   190.3481   0          8.27598    7.946637   7.839428   7.779542   7.950561   8.04054    1.913703   8.057704   7.863089   30.38707   347.6578   202.6903   12.34222  
242.8396   191.1308   0          8.256332   7.928646   7.763      7.813087   7.940065   8.042309   1.849458   8.046242   7.870866   28.40827   347.9608   203.17     12.03924  
242.992    192.9723   0          8.164776   7.934965   7.60979    7.794155   7.862556   8.044371   1.851097   8.044371   7.858289   27.65432   349.8336   203.1388   10.16644  
243.1444   195.827    0          8.158483   7.922983   7.639553   7.821719   7.83864    8.10245    1.849768   8.10245    7.83864    28.52004   351.0339   204.7931   8.966126  
243.2968   196.8604   0          8.16604    7.936188   7.659586   7.803533   7.893801   8.135387   1.844421   8.135387   7.869496   30.51856   350.325    206.5354   9.674955  
243.4492   197.871    0          8.309428   7.997094   8.099427   8.086836   8.227624   8.411558   1.827329   8.411558   8.026136   33.29478   351.7493   206.1217   8.250714  
243.6016   202.317    0          8.703454   8.176537   8.685575   8.574035   8.621929   8.562164   1.82291    8.694514   8.375285   35.71725   353.3745   208.9424   6.625488  
243.754    204.8643   0          8.808109   8.483021   8.574601   8.445584   8.644272   8.554343   1.80963    8.691356   8.464303   37.12397   353.885    210.9794   6.115017  
243.9064   206.3598   0          8.789371   8.563046   8.581517   8.400355   8.673507   8.553342   1.817793   8.685445   8.4817     38.15495   353.6952   212.6647   6.304842  
244.0588   206.761    0          9.038186   8.901361   8.607001   8.367883   8.769418   8.736484   1.817307   8.822594   8.634622   39.51399   353.6755   213.0856   6.324511  
244.2112   208.2305   0          8.88354    8.839996   8.730556   8.626562   8.907621   8.628461   1.771741   8.907621   8.628461   41.63232   354.5291   213.7015   5.47095   
244.3636   208.3652   0          8.858999   8.879005   8.762808   8.656382   8.964287   8.647801   1.798682   8.964287   8.647801   44.29233   354.593    213.7723   5.407039  
244.516    208.6585   0          8.906322   9.023723   8.886158   8.730015   9.045158   8.66018    1.805864   9.045158   8.66018    45.24874   355.1598   213.4987   4.840202  
244.6684   210.9234   0          8.975157   9.145265   8.824897   8.786234   9.039869   8.825809   1.8492     9.039869   8.825809   44.41981   355.7387   215.1847   4.261298  
244.8208   213.2083   0          9.097327   9.202103   8.801115   8.889774   9.100595   8.993163   1.789722   9.106173   8.949222   43.82452   355.7064   217.5019   4.293569  
244.9732   213.5967   0          9.548165   9.379384   8.565701   9.073465   9.227871   9.155335   1.768802   9.235058   9.056933   44.01199   355.3563   218.2404   4.643715  
245.1256   214.007    0          9.318986   8.970059   8.378747   8.910952   9.128544   8.845379   1.797985   9.128544   8.845379   44.74655   355.6479   218.3591   4.352128  
245.278    214.2373   0          9.027767   9.145719   8.530663   8.740689   9.084583   8.8497     1.783465   9.084583   8.77792    45.24485   356.7299   217.5073   3.270077  
245.4304   214.6154   0          9.033304   9.145927   8.525171   8.770338   9.097687   8.866802   1.791283   9.097687   8.779239   45.80453   356.3744   218.2411   3.625637  
245.5828   216.3753   0          9.252455   9.436205   8.916092   8.982571   9.340794   9.042354   1.775485   9.340794   9.020715   48.47998   356.1786   220.1967   3.821363  
