~Version
 VERS              .         2.0                           : CWLS LOG ASCII STANDARD - VERSION 2.0
 WRAP              .         NO                            : ONE LINE PER DEPTH STEP
 DLM               .         SPACE                         : DELIMITING CHARACTER(SPACE TAB OR COMMA)
~Well Information
#_______________________________________________________________________________
#
#PARAMETER_NAME    .UNIT     VALUE                         : DESCRIPTION
#_______________________________________________________________________________
STRT               .m        154.6                         : First reference value
STOP               .m        412.0036                      : Last reference value
STEP               .m        0.1524                        : Step increment
NULL               .         -9999                         : Missing value
COMP               .                                       : Company
WELL               .         B                             : Well name
FLD                .                                       : Field
LOC                .                                       : Location
CNTY               .                                       : County
STAT               .                                       : State
CTRY               .                                       : Country
SRVC               .                                       : Service Company
DATE               .                                       : Date
API                .                                       : API number
~Parameter Information Block
#_______________________________________________________________________________
#
#PARAMETER_NAME    .UNIT     VALUE                         : DESCRIPTION
#_______________________________________________________________________________
SET                .         Inclination                   : 
TLFamily_AZI       .         Hole Azimuth                  : 
TLFamily_AZ_OF_P1  .                                       : 
TLFamily_CAL2      .         Caliper 2                     : 
TLFamily_CAL4      .         Caliper                       : 
TLFamily_CAL6      .         Caliper                       : 
TLFamily_CAL8      .         Caliper                       : 
TLFamily_CALX      .         Caliper 1                     : 
TLFamily_CALY      .         Caliper 2                     : 
TLFamily_DEV       .         Hole Deviation                : 
TLFamily_DMAX      .         Caliper                       : 
TLFamily_DMIN      .         Caliper                       : 
TLFamily_GR        .         Gamma Ray                     : 
TLFamily_HAZI      .         Hole Azimuth                  : 
TLFamily_MD        .         Measured Depth                : 
TLFamily_RB_OF_P1  .         Relative Bearing              : 
TLFamily_ROT       .         Relative Bearing              : 
~Curve Information
#_______________________________________________________________________________
#
#LOGNAME           .UNIT     LOG_ID                        : DESCRIPTION
#_______________________________________________________________________________
MD                 .m                                      :  
AZ_OF_P1           .deg                                    : Unrecognised 
AZI                .deg                                    : AZIMUTH OF FIRST PIXEL OF IMAGE ARRAY 
CAL2               .in                                     : Unrecognised 
CAL4               .in                                     : Unrecognised 
CAL6               .in                                     : Unrecognised 
CAL8               .in                                     : Unrecognised 
CALX               .in                                     : Unrecognised 
CALY               .in                                     : Unrecognised 
DEV                .deg                                    : Unrecognised 
DMAX               .in                                     : Unrecognised 
DMIN               .in                                     : Unrecognised 
GR                 .gAPI                                   : Gamma Ray 
HAZI               .deg                                    : HOLE AZIMUTH 
RB_OF_P1           .deg                                    : Unrecognised 
ROT                .deg                                    : RELATIVE BEARING OF FIRST PIXEL OF IMAGE ARRAY 
~Ascii
# ...
224.704    105.8831   0          8.22568    7.886412   7.934567   8.22068    7.979343   7.957253   1.525155   8.080124   7.957253   54.59565   319.9022   145.9809   40.0978   
224.8564   106.9162   0          8.254951   7.892373   7.875133   8.18013    8.04318    7.936305   1.540116   8.065042   7.936305   60.80332   319.6025   147.3137   40.39749  
225.0088   108.4347   0          8.252285   8.02789    7.867807   8.060843   8.04125    7.878656   1.575973   8.06174    7.878656   65.04819   321.1863   147.2484   38.81367  
225.1612   110.2421   0          8.161665   7.88742    7.860666   8.091251   8.020168   7.876968   1.557878   8.020168   7.876968   64.92846   321.9709   148.2712   38.02906  
225.3136   112.624    0          8.150784   7.886333   7.822124   8.064686   7.987274   7.913308   1.57437    7.987274   7.913308   61.34081   321.9489   150.6751   38.05112  
225.466    114.2785   0          8.156804   7.902458   7.817837   8.100123   8.00716    7.9513     1.623603   8.00716    7.9513     58.27291   322.1192   152.1593   37.88076  
225.6184   114.616    0          8.198448   7.893576   7.702341   8.197028   8.06941    7.968996   1.640125   8.072184   7.950395   58.76062   322.722    151.8941   37.27802  
225.7708   114.4934   0          8.18414    7.900175   7.776009   8.096854   8.010476   7.914467   1.604584   8.014877   7.904988   62.17068   322.2133   152.2801   37.78668  
225.9232   115.3337   0          8.082168   7.808607   7.846432   8.0491     7.975333   7.907928   1.622006   7.975333   7.904098   66.55759   322.6826   152.6511   37.31736  
226.0756   115.4648   0          8.058316   7.787588   7.844007   8.061507   8.034931   7.943867   1.6416     8.034931   7.924495   68.28761   322.1666   153.2982   37.83343  
226.228    115.2837   0          8.045732   7.800206   7.917602   8.015402   8.026973   7.943334   1.630104   8.026973   7.907804   65.7241    322.5811   152.7025   37.41885  
226.3804   115.6296   0          7.966546   7.808762   7.926612   8.010983   8.009161   7.944566   1.635707   8.009161   7.909873   61.79326   322.3879   153.2417   37.61207  
226.5328   116.3712   0          7.960271   7.852421   7.933485   8.047126   8.006346   7.945543   1.629045   8.006346   7.939472   58.96273   322.8223   153.5489   37.17768  
226.6852   117.9056   0          7.954085   7.911303   7.947893   7.959999   8.01865    7.961524   1.649037   8.01865    7.935651   56.25904   322.7137   155.1919   37.28624  
226.8376   118.3275   0          7.931765   7.926475   7.945815   7.913655   8.01279    7.983814   1.640608   8.01279    7.920065   52.63936   323.5128   154.8147   36.4872   
226.99     118.0494   0          8.001533   7.899393   7.9174     7.837005   8.02063    8.001953   1.660429   8.02063    7.868198   50.51499   323.6941   154.3553   36.30589  
227.1424   118.821    0          7.997312   7.930775   7.938989   7.742234   8.005763   8.00257    1.681333   8.007442   7.836505   51.95658   324.0103   154.8107   35.98975  
227.2948   118.5232   0          7.950871   7.950964   7.919107   7.910985   8.028823   7.947853   1.644839   8.028823   7.927821   53.94538   323.8629   154.6603   36.13712  
227.4472   116.4128   0          7.954227   7.891124   7.941171   7.933954   8.041973   7.945038   1.592078   8.041973   7.912539   53.52792   323.0469   153.3659   36.95311  
227.5996   116.3365   0          7.927042   7.78682    7.912642   7.915954   8.033467   7.945026   1.625278   8.033467   7.851388   51.26216   323.446    152.8905   36.55397  
227.752    117.2796   0          7.616501   8.012144   7.943436   7.850262   8.035145   7.951739   1.608419   8.035145   7.779969   50.4319    322.4637   154.816    37.53634  
227.9044   115.431    0          7.896333   8.035648   7.946639   7.891273   8.051558   7.919843   1.590092   8.051558   7.919247   51.52805   322.2529   153.1781   37.74714  
228.0568   113.9067   0          7.907156   8.055492   7.946661   7.794344   8.052794   7.977892   1.626578   8.052794   7.905896   55.82082   322.0626   151.8441   37.93737  
228.2092   114.8129   0          7.845261   7.805287   7.978067   7.704664   8.055714   8.014898   1.60977    8.055714   7.754975   61.77697   322.0316   152.7814   37.96844  
228.3616   117.1445   0          8.0074     7.953513   8.007463   7.932712   8.108022   8.015223   1.608176   8.108022   7.9119     64.59432   322.2788   154.8656   37.72123  
228.514    119.5068   0          7.93859    8.039161   7.991815   7.840518   8.007883   7.966003   1.623339   8.007883   7.937606   61.94827   322.3448   157.1622   37.65521  
228.6664   127.1207   0          7.678455   8.015      7.94871    7.787093   7.978568   7.926365   1.671455   7.978568   7.813583   56.55427   324.9836   162.1366   35.01643  
228.8188   132.0811   0          7.878455   8.039157   7.938213   7.922246   7.99051    7.965256   1.718478   7.99051    7.908334   55.39571   327.2415   164.8395   32.75848  
228.9712   133.1886   0          7.986654   8.031848   7.968297   7.891047   7.989454   7.973772   1.706355   8.010125   7.932571   59.8507    327.8027   165.3859   32.19726  
229.1236   135.4649   0          8.051025   7.833633   7.983254   7.890101   7.989924   8.004181   1.735432   8.017139   7.861867   64.3691    328.3144   167.1505   31.6856   
229.276    138.173    0          8.007797   7.999653   8.002133   7.93946    7.978147   7.954792   1.739096   8.004966   7.929758   63.49153   328.8073   169.3658   31.19275  
229.4284   138.5106   0          7.944795   8.028852   8.006207   7.937945   7.950314   7.947663   1.751911   7.983399   7.94418    58.90181   329.1536   169.357    30.84642  
229.5808   140.6058   0          7.966867   7.974066   8.001679   7.980733   7.944345   7.952614   1.764531   7.985192   7.944345   54.89799   329.7034   170.9024   30.29658  
229.7332   144.1047   0          7.968243   7.95218    8.019688   8.022861   7.936869   7.911376   1.795217   7.997209   7.911376   54.44584   331.1426   172.9621   28.85741  
229.8856   147.4129   0          7.957964   7.926858   7.987157   8.020029   7.929852   7.912886   1.816237   7.977645   7.912886   55.7611    332.1368   175.2761   27.86317  
230.038    148.5257   0          7.904151   7.908339   7.959425   7.998841   7.855999   7.899777   1.816684   7.95359    7.855999   56.54636   332.7123   175.8134   27.28765  
230.1904   148.8519   0          7.905609   7.902294   7.88792    8.095985   7.847713   7.897424   1.803845   7.99914    7.847713   57.02852   332.9182   175.9337   27.08177  
230.3428   148.9208   0          7.955564   7.912966   7.848111   8.09057    7.831694   7.86075    1.829292   8.001768   7.831694   56.606     332.8972   176.0236   27.10275  
230.4952   148.367    0          7.95883    7.898094   7.861499   8.105046   7.798223   7.845567   1.81175    8.00157    7.798223   55.97216   333.0919   175.2751   26.90812  
230.6476   147.562    0          7.980326   7.907065   7.865554   8.1136     7.782129   7.909828   1.787323   8.010332   7.782129   54.69316   332.5894   174.9727   27.41065  
230.8      147.5945   0          7.986887   7.894675   7.87483    8.161493   7.773479   7.907154   1.79016    8.028084   7.773479   53.65969   333.2397   174.3548   26.76024  
230.9524   148.7332   0          7.961362   7.87265    7.899957   8.191922   7.77429    7.909698   1.800774   8.032287   7.77429    54.66223   332.8825   175.8507   27.11747  
231.1048   149.372    0          7.925223   7.820311   7.922562   8.220483   7.774323   7.911788   1.799606   8.020397   7.774323   55.76283   333.0449   176.3272   26.95513  
231.2572   150.6492   0          8.023549   7.829598   7.934103   8.211266   7.753913   7.915117   1.827414   8.020432   7.753913   56.03969   333.7204   176.9288   26.27963  
231.4096   151.1209   0          7.999414   7.83653    7.917691   8.236431   7.734267   7.919238   1.835476   8.036481   7.734267   54.58845   332.726    178.395    27.27406  
231.562    151.9531   0          8.022211   7.864293   7.909142   8.257779   7.793964   7.938773   1.811205   8.061035   7.793964   53.42804   333.7062   178.247    26.29382  
