~Version
 VERS              .         2.0                           : CWLS LOG ASCII STANDARD - VERSION 2.0
 WRAP              .         NO                            : ONE LINE PER DEPTH STEP
 DLM               .         SPACE                         : DELIMITING CHARACTER(SPACE TAB OR COMMA)
~Well Information
#_______________________________________________________________________________
#
#PARAMETER_NAME    .UNIT     VALUE                         : DESCRIPTION
#_______________________________________________________________________________
STRT               .m        154.6                         : First reference value
STOP               .m        412.0036                      : Last reference value
STEP               .m        0.1524                        : Step increment
NULL               .         -9999                         : Missing value
COMP               .                                       : Company
WELL               .         B                             : Well name
FLD                .                                       : Field
LOC                .                                       : Location
CNTY               .                                       : County
STAT               .                                       : State
CTRY               .                                       : Country
SRVC               .                                       : Service Company
DATE               .                                       : Date
API                .                                       : API number
~Parameter Information Block
#_______________________________________________________________________________
#
#PARAMETER_NAME    .UNIT     VALUE                         : DESCRIPTION
#_______________________________________________________________________________
SET                .         Inclination                   : 
TLFamily_AZI       .         Hole Azimuth                  : 
TLFamily_AZ_OF_P1  .                                       : 
TLFamily_CAL2      .         Caliper 2                     : 
TLFamily_CAL4      .         Caliper                       : 
TLFamily_CAL6      .         Caliper                       : 
TLFamily_CAL8      .         Caliper                       : 
TLFamily_CALX      .         Caliper 1                     : 
TLFamily_CALY      .         Caliper 2                     : 
TLFamily_DEV       .         Hole Deviation                : 
TLFamily_DMAX      .         Caliper                       : 
TLFamily_DMIN      .         Caliper                       : 
TLFamily_GR        .         Gamma Ray                     : 
TLFamily_HAZI      .         Hole Azimuth                  : 
TLFamily_MD        .         Measured Depth                : 
TLFamily_RB_OF_P1  .         Relative Bearing              : 
TLFamily_ROT       .         Relative Bearing              : 
~Curve Information
#_______________________________________________________________________________
#
#LOGNAME           .UNIT     LOG_ID                        : DESCRIPTION
#_______________________________________________________________________________
MD                 .m                                      :  
AZ_OF_P1           .deg                                    : Unrecognised 
AZI                .deg                                    : AZIMUTH OF FIRST PIXEL OF IMAGE ARRAY 
CAL2               .in                                     : Unrecognised 
CAL4               .in                                     : Unrecognised 
CAL6               .in                                     : Unrecognised 
CAL8               .in                                     : Unrecognised 
CALX               .in                                     : Unrecognised 
CALY               .in                                     : Unrecognised 
DEV                .deg                                    : Unrecognised 
DMAX               .in                                     : Unrecognised 
DMIN               .in                                     : Unrecognised 
GR                 .gAPI                                   : Gamma Ray 
HAZI               .deg                                    : HOLE AZIMUTH 
RB_OF_P1           .deg                                    : Unrecognised 
ROT                .deg                                    : RELATIVE BEARING OF FIRST PIXEL OF IMAGE ARRAY 
~Ascii
# ...
357.9016   41.76881   0          8.134961   8.194476   8.040037   8.286355   8.255185   8.133988   0.4207383  8.255185   8.086904   47.31073   271.6695   130.0993   88.33051  
358.054    42.51348   0          8.132411   8.084919   8.160782   8.299191   8.309931   8.097466   0.4599883  8.309931   8.097466   43.34204   271.398    131.1154   88.60198  
358.2064   43.29646   0          8.248042   7.990653   8.174348   8.26253    8.261104   8.135346   0.429585   8.265159   8.125298   40.57574   269.7943   133.5019   90.20565  
358.3588   45.21675   0          8.274288   7.783592   8.237983   8.291456   8.142453   8.228735   0.446399   8.256136   8.037523   39.2796    272.8637   132.3529   87.13625  
358.5112   46.31372   0          8.251214   7.846301   8.071416   8.433122   8.103418   8.34765    0.4746952  8.34765    8.103418   37.80919   272.2363   134.0772   87.76367  
358.6636   47.31705   0          8.199782   8.023725   8.15728    8.442695   8.128544   8.32029    0.4876691  8.32029    8.128544   35.66371   276.961    130.3561   83.03904  
358.816    49.40895   0          8.262      8.071018   7.786066   8.421989   8.192285   8.133159   0.4963917  8.275785   8.022197   32.36189   276.6772   132.7317   83.32285  
358.9684   52.91982   0          8.343015   8.061739   7.831497   8.291817   8.374784   8.018262   0.5193473  8.374784   8.018262   30.95202   277.0159   135.9039   82.9841   
359.1208   53.16851   0          8.386739   8.071802   8.095264   8.297641   8.448249   8.04052    0.5229829  8.448249   8.04052    31.53517   280.7653   132.4037   79.23474  
359.2732   50.75941   0          8.408305   8.0735     8.137143   8.279622   8.444774   8.130836   0.4831074  8.444774   8.130836   33.24636   278.6028   132.1553   81.39714  
359.4256   49.31981   0          8.300009   8.051805   8.093508   8.287546   8.396195   8.061071   0.4624043  8.396195   8.061071   35.54811   275.817    133.5028   84.18297  
359.578    51.43592   0          8.356243   8.173291   8.05092    8.499476   8.548257   8.000854   0.474474   8.548257   8.000854   38.8048    275.7269   135.7097   84.27313  
359.7304   54.82882   0          8.341697   8.246359   7.983969   8.272929   8.435016   7.983213   0.5244139  8.435016   7.983213   43.0574    278.3069   136.5217   81.69312  
359.8828   56.27393   0          8.292605   8.161234   8.072867   8.141802   8.375254   7.983323   0.5253661  8.375254   7.983323   47.99356   279.0305   137.2436   80.96954  
360.0352   56.80917   0          8.348028   8.077751   8.075933   8.137691   8.361567   8.047729   0.5278308  8.361567   8.047729   52.63413   277.7613   139.0479   82.23869  
360.1876   56.92285   0          8.296419   8.045674   8.055404   8.11526    8.328436   8.041203   0.5437154  8.328436   8.041203   56.10003   275.6393   141.2836   84.3607   
360.34     57.42295   0          8.250401   8.107725   8.118464   8.126205   8.330279   8.070234   0.5431728  8.330279   8.070234   58.62796   277.3391   140.0839   82.66092  
360.4924   58.98444   0          8.188107   8.144226   8.075267   8.170683   8.301826   8.026328   0.5854452  8.301826   8.026328   61.08734   276.1738   142.8107   83.82622  
360.6448   59.69138   0          8.191087   8.087016   8.05763    8.23275    8.308473   8.001172   0.595032   8.308473   8.001172   62.63145   277.4143   142.2771   82.58572  
360.7972   60.34974   0          8.198648   8.128896   7.992447   8.291912   8.327681   7.981113   0.5810273  8.327681   7.981113   59.88491   279.067    141.2826   80.93296  
360.9496   61.9426    0          8.236284   8.127356   7.975946   8.271108   8.303358   7.999973   0.5718507  8.303358   7.999973   51.99143   280.3191   141.6235   79.68087  
361.102    63.01412   0          8.214905   8.125163   8.058311   8.248395   8.317299   8.001938   0.589414   8.317299   8.001938   43.74251   278.7556   144.2585   81.24444  
361.2544   62.9582    0          8.285858   8.131864   8.103261   8.254013   8.325212   8.019409   0.6038331  8.325212   8.019409   37.96305   284.8885   138.0697   75.11148  
361.4068   63.07536   0          8.543782   8.194518   8.300442   8.260211   8.603251   8.144028   0.6174531  8.603251   8.144028   34.63349   282.7924   140.2831   77.20757  
361.5592   62.40112   0          8.465132   8.410856   8.393337   8.331006   8.665465   8.215324   0.5876794  8.665465   8.215324   31.74081   279.8059   142.5953   80.19414  
361.7116   63.01794   0          8.229845   8.497377   8.340275   8.219964   8.402034   8.231369   0.5959885  8.402034   8.227021   28.58835   280.6982   142.3197   79.3018   
361.864    63.73909   0          8.442192   8.407488   8.412244   8.207467   8.434231   8.35828    0.5845032  8.446101   8.307478   28.07109   281.1216   142.6175   78.87843  
362.0164   65.23481   0          8.646885   8.330737   8.435358   8.347482   8.432986   8.419136   0.6156859  8.541122   8.339109   29.2707    283.0879   142.1471   76.91211  
362.1688   67.23352   0          8.684355   8.285116   8.288141   8.446785   8.345926   8.493595   0.6290005  8.513899   8.336246   30.77054   283.5256   143.7078   76.47437  
362.3212   68.60143   0          8.666571   8.302971   8.223285   8.631929   8.37637    8.569892   0.5997528  8.569892   8.37637    32.08892   282.5386   146.0629   77.4614   
362.4736   70.65491   0          8.729472   8.391938   8.273926   8.793926   8.393208   8.712937   0.6574836  8.712937   8.393208   31.96585   285.2196   145.4353   74.78041  
362.626    70.53831   0          8.811268   8.509052   8.394173   8.706578   8.424022   8.742156   0.6584022  8.742156   8.424022   31.22225   284.8904   145.6479   75.10955  
362.7784   69.26728   0          8.887057   8.502704   8.521739   8.239513   8.385482   8.57203    0.6539367  8.708499   8.34929    29.71773   287.1281   142.1391   72.87185  
362.9308   69.85256   0          8.906925   8.341836   8.740884   8.038338   8.488835   8.602013   0.6408522  8.823905   8.190087   27.84447   286.4209   143.4317   73.57914  
363.0832   70.58756   0          9.056257   8.269845   9.183381   8.135413   8.562894   8.557938   0.6824579  9.119819   8.20253    27.18376   285.7259   144.8617   74.27413  
363.2356   69.59322   0          9.204638   8.428162   8.918979   8.117673   8.768419   8.424671   0.6326372  9.06181    8.272917   26.71299   283.9221   145.6711   76.07794  
363.388    66.52604   0          9.249899   8.389211   8.830505   8.378342   8.840131   8.44571    0.6224462  9.040202   8.383776   27.09491   284.653    141.8732   75.34703  
363.5404   65.98398   0          9.261779   8.393718   8.768334   8.653866   8.798663   8.540993   0.6041145  9.015057   8.520549   27.47075   285.2511   140.7329   74.74888  
363.6928   67.99886   0          9.212925   8.171384   7.713963   8.531343   8.64433    8.32774    0.6628038  8.669477   8.324097   27.73179   281.7698   146.2292   78.23019  
363.8452   68.3962    0          8.821454   8.394332   8.255357   8.449337   8.781744   8.405688   0.6465546  8.781744   8.405688   30.12508   280.3936   148.0026   79.60635  
363.9976   68.18609   0          8.886379   8.464087   8.359468   8.419863   8.805567   8.468484   0.627339   8.805567   8.441857   34.80954   282.9879   145.1981   77.01208  
364.15     68.69117   0          8.612182   8.471547   8.369645   8.442217   8.716996   8.401742   0.6280515  8.716996   8.401742   42.4173    285.8907   142.8004   74.10928  
364.3024   69.86717   0          8.481329   8.334111   8.35654    8.264315   8.46485    8.333916   0.6617972  8.46485    8.299212   50.60555   286.1933   143.6739   73.80666  
364.4548   69.81106   0          8.543311   8.228213   8.229762   8.282187   8.418072   8.303884   0.6403969  8.418072   8.2552     53.4079    285.7046   144.1065   74.29543  
364.6072   68.49664   0          8.528288   8.246789   8.204879   8.260056   8.413395   8.307922   0.6333551  8.413732   8.253423   50.381     283.2294   145.2675   76.77062  
364.7596   67.24376   0          8.532875   8.321642   8.350349   8.418623   8.600192   8.542182   0.6024076  8.602082   8.370132   42.61286   281.4504   145.7933   78.54961  
