~Version
 VERS              .         2.0                           : CWLS LOG ASCII STANDARD - VERSION 2.0
 WRAP              .         NO                            : ONE LINE PER DEPTH STEP
 DLM               .         SPACE                         : DELIMITING CHARACTER(SPACE TAB OR COMMA)
~Well Information
#_______________________________________________________________________________
#
#PARAMETER_NAME    .UNIT     VALUE                         : DESCRIPTION
#_______________________________________________________________________________
STRT               .m        154.6                         : First reference value
STOP               .m        412.0036                      : Last reference value
STEP               .m        0.1524                        : Step increment
NULL               .         -9999                         : Missing value
COMP               .                                       : Company
WELL               .         B                             : Well name
FLD                .                                       : Field
LOC                .                                       : Location
CNTY               .                                       : County
STAT               .                                       : State
CTRY               .                                       : Country
SRVC               .                                       : Service Company
DATE               .                                       : Date
API                .                                       : API number
~Parameter Information Block
#_______________________________________________________________________________
#
#PARAMETER_NAME    .UNIT     VALUE                         : DESCRIPTION
#_______________________________________________________________________________
SET                .         Inclination                   : 
TLFamily_AZI       .         Hole Azimuth                  : 
TLFamily_AZ_OF_P1  .                                       : 
TLFamily_CAL2      .         Caliper 2                     : 
TLFamily_CAL4      .         Caliper                       : 
TLFamily_CAL6      .         Caliper                       : 
TLFamily_CAL8      .         Caliper                       : 
TLFamily_CALX      .         Caliper 1                     : 
TLFamily_CALY      .         Caliper 2                     : 
TLFamily_DEV       .         Hole Deviation                : 
TLFamily_DMAX      .         Caliper                       : 
TLFamily_DMIN      .         Caliper                       : 
TLFamily_GR        .         Gamma Ray                     : 
TLFamily_HAZI      .         Hole Azimuth                  : 
TLFamily_MD        .         Measured Depth                : 
TLFamily_RB_OF_P1  .         Relative Bearing              : 
TLFamily_ROT       .         Relative Bearing              : 
~Curve Information
#_______________________________________________________________________________
#
#LOGNAME           .UNIT     LOG_ID                        : DESCRIPTION
#_______________________________________________________________________________
MD                 .m                                      :  
AZ_OF_P1           .deg                                    : Unrecognised 
AZI                .deg                                    : AZIMUTH OF FIRST PIXEL OF IMAGE ARRAY 
CAL2               .in                                     : Unrecognised 
CAL4               .in                                     : Unrecognised 
CAL6               .in                                     : Unrecognised 
CAL8               .in                                     : Unrecognised 
CALX               .in                                     : Unrecognised 
CALY               .in                                     : Unrecognised 
DEV                .deg                                    : Unrecognised 
DMAX               .in                                     : Unrecognised 
DMIN               .in                                     : Unrecognised 
GR                 .gAPI                                   : Gamma Ray 
HAZI               .deg                                    : HOLE AZIMUTH 
RB_OF_P1           .deg                                    : Unrecognised 
ROT                .deg                                    : RELATIVE BEARING OF FIRST PIXEL OF IMAGE ARRAY 
~Ascii
# ...
406.9744   50.6793    0          11.85151   12.94824   11.49403   12.96558   12.73505   11.05107   0.4658052  8.5        8.5        12.4414    248.3227   162.3566   111.6773  
407.1268   50.64903   0          11.51541   13.00721   10.6459    12.96212   12.68732   10.81968   0.4858521  8.5        8.5        13.09047   248.5291   162.1199   111.4709  
407.2792   55.37465   0          10.6392    13.0169    10.11185   12.95473   12.60587   10.90283   0.5493662  8.5        8.5        13.91268   249.6046   165.7704   110.3954  
407.4316   56.65923   0          10.92765   13.00479   10.46574   12.93107   12.7045    11.25169   0.5232645  8.5        8.5        14.15765   250.0836   166.5756   109.9164  
407.584    50.32749   0          8.632356   12.46201   10.26949   11.56319   10.9237    10.87977   0.504753   8.5        8.5        -9999      245.6806   164.6471   114.3194  
407.7364   47.24089   0          7.899392   10.01122   8.522173   10.23948   9.0238     9.006078   0.4807542  8.5        8.5        -9999      242.2286   165.0119   117.7714  
407.8888   50.14505   0          7.783752   8.833203   8.347091   9.502851   8.798854   8.559026   0.536916   8.5        8.5        -9999      245.053    165.0941   114.947   
408.0412   52.55526   0          7.804287   8.796034   8.316625   9.133407   8.817977   8.575726   0.5552206  8.5        8.5        -9999      250.2038   162.3515   109.7962  
408.1936   51.86409   0          7.906627   8.882909   8.485326   9.070233   8.902159   8.626686   0.5245422  8.5        8.5        -9999      251.4356   160.429    108.5644  
408.346    48.81918   0          7.924412   8.817616   8.44748    9.15348    8.964495   8.673011   0.5203466  8.5        8.5        -9999      250.7322   158.0871   109.2678  
408.4984   45.193     0          7.947931   8.82727    8.541894   9.225019   8.985026   8.886909   0.5029891  8.5        8.5        -9999      243.3405   161.8518   116.6595  
408.6508   43.42739   0          8.064925   9.003565   9.055069   9.265067   9.038832   8.889286   0.511891   8.5        8.5        -9999      241.1722   162.2552   118.8278  
408.8032   41.71749   0          8.144067   9.246611   8.553981   9.265673   8.930379   8.801979   0.4829691  8.5        8.5        -9999      238.6338   163.0836   121.3662  
408.9556   38.3697    0          8.705592   9.362576   8.757101   9.417602   8.874162   9.146705   0.4347804  8.5        8.5        -9999      232.1196   166.2496   127.8804  
409.108    36.55762   0          9.979104   9.707968   9.187204   9.593276   9.871799   9.370425   0.4333454  8.5        8.5        -9999      227.8264   168.7313   132.1736  
409.2604   35.20117   0          9.941683   9.874492   10.02914   10.45611   10.38855   9.956252   0.3873011  8.5        8.5        -9999      222.7303   172.4697   137.2697  
409.4128   34.31326   0          10.11227   10.02325   10.67974   10.86849   10.52762   10.55832   0.4186294  8.5        8.5        -9999      223.6367   170.6773   136.3633  
409.5652   33.25643   0          10.20025   10.52233   10.3648    10.46506   10.53899   10.30392   0.4112486  8.5        8.5        -9999      228.8145   164.4419   131.1855  
409.7176   32.98619   0          10.23905   10.65695   10.27618   10.30707   10.53315   10.28583   0.4305611  8.5        8.5        -9999      229.5582   163.4279   130.4418  
409.87     33.48853   0          9.773472   10.2625    9.956856   9.673836   10.11123   9.830177   0.4637913  8.5        8.5        -9999      227.5462   165.9424   132.4538  
410.0224   33.59579   0          9.698793   9.362035   9.473317   9.424031   9.844683   9.467379   0.4481215  8.5        8.5        -9999      224.5861   169.0097   135.4139  
410.1748   34.9238    0          9.587607   9.265707   9.519585   9.414431   9.768198   9.423946   0.4371941  8.5        8.5        -9999      226.3902   168.5324   133.6098  
410.3272   35.49697   0          9.856847   9.3473     9.514484   9.339678   9.810925   9.400196   0.4328036  8.5        8.5        -9999      240.0316   155.4657   119.9684  
410.4796   35.77742   0          9.451992   9.447394   9.54464    9.183668   9.767226   9.380382   0.4096757  8.5        8.5        -9999      230.4225   165.3546   129.5775  
410.6320000000001 35.17724   0          9.280771   9.70956    9.512061   9.086351   9.810087   9.429655   0.4132666  8.5        8.5        -9999      231.3729   163.803    128.6271  
410.7844   34.40298   0          9.181      10.20612   9.230239   9.048806   9.842654   9.560176   0.4570728  8.5        8.5        -9999      231.8869   162.5206   128.1131  
410.9368000000001 31.37705   0          9.219064   10.1379    9.462346   9.5409     9.842792   9.758839   0.4774219  8.5        8.5        -9999      216.3085   175.0655   143.6915  
411.0892   27.82571   0          9.94724    10.17977   9.733851   9.953665   9.862932   10.04382   0.5036101  8.5        8.5        -9999      210.9409   176.8844   149.0591  
411.2416000000001 27.86231   0          10.21829   10.129     9.852868   10.17301   9.955249   10.19864   0.5540265  8.5        8.5        -9999      212.3533   175.5089   147.6467  
411.394    27.6953    0          10.26792   7.300742   8.92229    10.34138   8.763153   9.849848   0.4780729  8.5        8.5        -9999      217.0512   170.644    142.9488  
411.5464000000001 27.88103   0          8.750714   7.489059   7.21825    8.654372   8.073167   8.131141   0.4614148  8.5        8.5        -9999      223.3427   164.5384   136.6573  
411.6988   26.83314   0          8.298871   8.174508   7.760483   8.182036   8.157614   8.080935   0.3914653  8.5        8.5        -9999      221.6959   165.1367   138.3041  
411.8512000000001 24.73719   0          8.151511   8.174356   7.808458   8.220434   8.14837    8.014974   0.3645378  8.5        8.5        -9999      237.2783   147.4605   122.7217  
412.0036   24.09845   0          -9999      -9999      -9999      -9999      -9999      -9999      0.4247284  -9999      -9999      -9999      270.9778   113.1162   89.02226  
