~Version
 VERS              .         2.0                           : CWLS LOG ASCII STANDARD - VERSION 2.0
 WRAP              .         NO                            : ONE LINE PER DEPTH STEP
 DLM               .         SPACE                         : DELIMITING CHARACTER(SPACE TAB OR COMMA)
~Well Information
#_______________________________________________________________________________
#
#PARAMETER_NAME    .UNIT     VALUE                         : DESCRIPTION
#_______________________________________________________________________________
STRT               .M        0                             : First reference value
STOP               .M        425.4                         : Last reference value
STEP               .M        0.1                           : Step increment
NULL               .         -9999                         : Missing value
COMP               .                                       : Company
WELL               .         B                             : Well name
FLD                .                                       : Field
LOC                .                                       : Location
CNTY               .                                       : County
STAT               .                                       : State
CTRY               .                                       : Country
SRVC               .                                       : Service Company
DATE               .                                       : Date
API                .                                       : API number
~Parameter Information Block
#_______________________________________________________________________________
#
#PARAMETER_NAME    .UNIT     VALUE                         : DESCRIPTION
#_______________________________________________________________________________
SET                .         Logs                          : 
TLFamily_DEPT      .         Measured Depth                : 
TLFamily_DT        .         Compressional Slowness        : 
TLFamily_GR        .         Gamma Ray                     : 
TLFamily_ILD       .         Resistivity - Deep            : 
TLFamily_NPOR_LIM  .         Thermal Neutron Porosity Limestone: 
TLFamily_PEF       .         Photoelectric Factor          : 
TLFamily_RHO       .         Bulk Density                  : 
~Curve Information
#_______________________________________________________________________________
#
#LOGNAME           .UNIT     LOG_ID                        : DESCRIPTION
#_______________________________________________________________________________
DEPT               .M                                      : Logged depth 
DT                 .us/m                                   : Compressional Slowness 
GR                 .GAPI                                   : MGS Gamma Ray 
ILD                .OHMM                                   : Array Ind. One Res 85 
NPOR_LIM           .V/V                                    : Base Neutron Porosity 
PEF                .B/E                                    : PE 
RHO                .K/M3                                   : Compensated Density 
~Ascii
# ...
244.7      433.8      40.611876  20.318295  0.365145   2.334445   2097.577271
244.8      434.0734   39.643311  20.475697  0.363563   2.313365   2112.637817
244.9      434.1645   39.521061  20.413002  0.361525   2.291786   2125.182373
245        434.1189   40.669151  20.662244  0.361565   2.27731    2131.006958
245.1      434.3923   42.625223  21.180311  0.36548    2.287534   2126.528809
245.2      435.0302   44.98535   21.183354  0.373582   2.317814   2110.427856
245.3      436.0327   47.387104  21.264183  0.384323   2.348216   2090.320313
245.4      437.0352   49.205463  21.562967  0.396622   2.368794   2075.628906
245.5      437.6276   50.454     21.41407   0.408312   2.382279   2068.651855
245.6      437.6731   51.332764  21.15162   0.417804   2.387583   2065.885376
245.7      437.1264   51.86488   21.115393  0.423945   2.384576   2064.78186
245.8      436.853    52.080019  21.161213  0.427832   2.384997   2064.144287
245.9      436.6251   52.039122  21.306509  0.430625   2.391268   2061.871948
246        436.8074   51.482929  21.348387  0.43258    2.394804   2060.01416
246.1      436.7162   50.23414   21.188724  0.433532   2.387844   2059.687134
246.2      436.7618   49.103825  20.858664  0.43448    2.376381   2060.198975
246.3      436.215    48.921164  20.381445  0.436507   2.367896   2061.597534
246.4      435.6227   49.120222  20.126846  0.438838   2.365577   2064.82373
246.5      435.0303   48.835045  20.089795  0.439316   2.365      2070.390259
246.6      435.167    47.716293  19.936505  0.436453   2.352342   2079.057373
246.7      435.6227   45.805431  19.634371  0.429494   2.329154   2091.949585
246.8      435.7138   43.225149  19.288383  0.41817    2.309426   2104.776123
246.9      434.848    40.39682   19.056135  0.403774   2.299515   2114.631104
247        432.9798   37.647738  19.017291  0.389361   2.2947     2123.142456
247.1      430.5647   35.22105   19.107419  0.377659   2.295187   2134.905273
247.2      428.3319   33.369745  19.046376  0.369293   2.30819    2148.161011
247.3      427.0104   32.018144  18.801907  0.364943   2.322963   2157.586304
247.4      427.3749   30.940784  18.665922  0.36561    2.320468   2164.056519
247.5      429.6989   30.199486  18.98841   0.372009   2.301044   2169.648438
247.6      433.481    29.831301  19.34022   0.382502   2.274757   2172.359009
247.7      437.6731   29.679534  19.088553  0.394255   2.242646   2167.559448
247.8      441.3641   29.459004  18.663718  0.40334    2.202392   2154.060791
247.9      443.6425   29.447914  18.277219  0.407569   2.16823    2135.560791
248        444.0526   30.013121  18.079232  0.408403   2.179645   2116.584839
248.1      442.5488   31.162746  18.174305  0.409582   2.290936   2098.342651
248.2      439.9971   32.78031   18.274579  0.412795   2.467572   2087.74646
248.3      437.0808   34.815447  18.742487  0.416767   2.629577   2093.836548
248.4      434.4379   37.204397  19.634773  0.418716   2.731815   2114.851196
248.5      432.2962   39.596865  20.082702  0.415694   2.794196   2138.323364
248.6      431.0659   41.575613  20.154142  0.406866   2.801646   2156.465088
248.7      430.2457   42.659824  20.202338  0.395884   2.730099   2170.203613
248.8      429.79     42.787788  20.277658  0.389466   2.621825   2177.755859
248.9      429.471    42.388824  19.924322  0.392579   2.530185   2173.004272
249        429.4385   41.63405   18.856368  0.405963   2.445161   2157.319092
249.1      429.79     40.998444  17.918118  0.426533   2.368293   2136.140259
249.2      430.2912   40.686975  17.397951  0.44843    2.347047   2112.624146
249.3      430.9747   40.992319  17.06279   0.465338   2.391951   2093.976562
249.4      432.114    41.296421  16.870385  0.474489   2.456315   2086.233521
249.5      433.3898   41.344021  16.847742  0.476361   2.492435   2090.029541
249.6      434.5746   41.415392  16.939433  0.473232   2.484871   2099.601563
249.7      435.4403   41.345522  17.0674    0.467564   2.424367   2108.625366
249.8      435.9416   40.523613  16.998926  0.461891   2.330089   2112.773438
249.9      436.1239   39.011072  16.580402  0.45703    2.235996   2110.536377
250        435.8961   37.414782  15.982328  0.452861   2.166426   2102.462036
250.1      435.4404   35.855978  15.411657  0.449916   2.111553   2089.071167
250.2      434.9391   34.440739  14.896626  0.450102   2.074338   2074.651367
250.3      434.6657   33.446507  14.401796  0.453719   2.074212   2062.288574
250.4      434.4835   33.315985  13.963242  0.458465   2.129614   2049.017456
250.5      434.6202   33.708096  13.572504  0.460719   2.21981    2032.058105
250.6      435.167    34.0961    13.403987  0.459117   2.298702   2019.132996
250.7      436.215    34.267769  13.654958  0.454602   2.338694   2017.911377
250.8      437.4908   34.38282   13.895678  0.449922   2.331845   2025.927795
250.9      439.0402   34.470562  13.971808  0.448397   2.276714   2038.930176
251        440.7718   34.479982  14.195955  0.452587   2.195806   2055.299316
251.1      442.8223   34.182993  14.312639  0.460817   2.129928   2063.878906
251.2      444.8728   33.838181  14.10337   0.466741   2.103758   2053.333191
251.3      447.2879   33.325209  13.744609  0.466152   2.11271    2032.896973
251.4      449.9307   32.678288  13.39167   0.458307   2.152834   2019.286133
251.5      452.9837   32.575989  13.067922  0.445641   2.216895   2017.53833
251.6      455.7178   33.692287  12.887789  0.430828   2.297366   2026.796875
251.7      457.9962   35.66222   12.900917  0.419709   2.385376   2047.50946
251.8      459.4543   37.904961  12.546936  0.416718   2.46806    2072.358765
251.9      460.4112   40.376671  11.910358  0.4209     2.533983   2090.713745
252        460.6846   42.772562  11.508086  0.426982   2.589736   2100.191284
252.1      460.7302   44.198069  11.238412  0.431149   2.641595   2108.240356
252.2      460.8213   44.142086  11.258361  0.432085   2.669843   2114.71582
252.3      461.1858   43.415524  11.806011  0.428606   2.654523   2116.904297
252.4      461.4593   42.856972  12.106991  0.42129    2.612972   2120.005371
252.5      461.6871   43.046625  11.634988  0.412664   2.570537   2129.202759
252.6      461.5959   44.637314  10.539185  0.406088   2.527678   2142.955078
252.7      461.0036   47.912306  9.335229   0.403062   2.490734   2155.5271 
252.8      459.591    52.111641  8.557676000000001 0.403066   2.475942   2163.438232
252.9      458.0417   56.11108   8.252093   0.40473    2.480927   2165.102295
253        456.857    58.934549  8.233015   0.406893   2.47946    2159.614868
253.1      456.538    60.311708  8.182266   0.409696   2.467533   2147.689087
253.2      456.9025   60.600904  8.421727000000001 0.413671   2.478556   2134.516235
253.3      457.9962   60.352968  8.78051    0.418284   2.519146   2123.89563
253.4      459.272    59.667192  8.808647000000001 0.42345    2.543796   2116.849854
253.5      459.8644   58.225664  8.845942000000001 0.428928   2.515583   2109.288452
253.6      459.9555   55.878014  8.924927   0.433951   2.447863   2097.14209
253.7      459.8188   52.494547  8.951333   0.436492   2.362273   2082.362671
253.8      459.9555   48.196154  9.892082   0.435785   2.271001   2069.969604
253.9      459.8188   43.571796  11.478569  0.431763   2.1965     2060.283447
254        459.8188   39.680731  12.47845   0.42547    2.16318    2052.454102
254.1      459.7733   37.181252  12.946269  0.418073   2.157416   2050.776489
254.2      459.8644   36.306507  13.100636  0.411082   2.148136   2056.152954
254.3      459.4998   36.76392   12.925532  0.405219   2.133002   2063.336182
254.4      459.1353   37.9104    12.519742  0.400993   2.120957   2068.262939
254.5      458.8163   39.23497   12.049817  0.399724   2.113786   2072.638672
254.6      458.1328   41.312281  11.405379  0.401681   2.116238   2076.617798
254.7      457.0392   45.065897  10.513459  0.406503   2.152368   2079.20105
254.8      456.1735   50.441874  9.518599999999999 0.413266   2.249048   2083.865723
254.9      456.5836   56.646494  8.310257   0.423757   2.404288   2094.716919
