~Version
 VERS              .         2.0                           : CWLS LOG ASCII STANDARD - VERSION 2.0
 WRAP              .         NO                            : ONE LINE PER DEPTH STEP
 DLM               .         SPACE                         : DELIMITING CHARACTER(SPACE TAB OR COMMA)
~Well Information
#_______________________________________________________________________________
#
#PARAMETER_NAME    .UNIT     VALUE                         : DESCRIPTION
#_______________________________________________________________________________
STRT               .M        0                             : First reference value
STOP               .M        425.4                         : Last reference value
STEP               .M        0.1                           : Step increment
NULL               .         -9999                         : Missing value
COMP               .                                       : Company
WELL               .         B                             : Well name
FLD                .                                       : Field
LOC                .                                       : Location
CNTY               .                                       : County
STAT               .                                       : State
CTRY               .                                       : Country
SRVC               .                                       : Service Company
DATE               .                                       : Date
API                .                                       : API number
~Parameter Information Block
#_______________________________________________________________________________
#
#PARAMETER_NAME    .UNIT     VALUE                         : DESCRIPTION
#_______________________________________________________________________________
SET                .         Logs                          : 
TLFamily_DEPT      .         Measured Depth                : 
TLFamily_DT        .         Compressional Slowness        : 
TLFamily_GR        .         Gamma Ray                     : 
TLFamily_ILD       .         Resistivity - Deep            : 
TLFamily_NPOR_LIM  .         Thermal Neutron Porosity Limestone: 
TLFamily_PEF       .         Photoelectric Factor          : 
TLFamily_RHO       .         Bulk Density                  : 
~Curve Information
#_______________________________________________________________________________
#
#LOGNAME           .UNIT     LOG_ID                        : DESCRIPTION
#_______________________________________________________________________________
DEPT               .M                                      : Logged depth 
DT                 .us/m                                   : Compressional Slowness 
GR                 .GAPI                                   : MGS Gamma Ray 
ILD                .OHMM                                   : Array Ind. One Res 85 
NPOR_LIM           .V/V                                    : Base Neutron Porosity 
PEF                .B/E                                    : PE 
RHO                .K/M3                                   : Compensated Density 
~Ascii
# ...
265.2      389.2088   48.429234  20.387799  0.400579   3.247432   2142.831787
265.3      381.5173   46.909054  22.465549  0.353462   3.635738   2223.037476
265.4      375.1222   45.403635  31.675488  0.299812   3.955141   2323.835571
265.5      369.6229   44.494158  49.37557   0.251808   4.131079   2419.938354
265.6      365.3864   44.754286  61.580034  0.220297   4.07792    2479.530884
265.7      362.4417   45.849569  56.861195  0.211108   3.785785   2483.94751
265.8      361.8606   47.298437  43.174688  0.22568    3.390174   2435.7146 
265.9      363.4889   48.615993  32.879086  0.260063   3.049939   2346.874878
266        367.8768   49.736851  28.995756  0.304828   2.812676   2242.120483
266.1      374.7195   50.691246  28.442689  0.348405   2.665789   2152.532593
266.2      383.7737   51.73167   28.605739  0.3813     2.607804   2092.662109
266.3      391.5543   52.641666  28.775149  0.399594   2.603798   2062.274658
266.4      404.0341   53.343611  28.297626  0.405308   2.598107   2052.197754
266.5      414.219    53.702639  26.897919  0.40429    2.570999   2051.790649
266.6      425.8035   53.612696  25.150882  0.40259    2.529436   2053.445679
266.7      432.4273   52.820404  23.743093  0.402969   2.489371   2055.958008
266.8      437.7375   51.715891  22.711874  0.404935   2.464838   2059.502808
266.9      439.5378   50.919029  21.892022  0.406853   2.458313   2063.468262
267        441.3105   50.281397  21.151573  0.408559   2.460223   2067.152832
267.1      439.9514   49.677767  20.530858  0.410987   2.462538   2069.665649
267.2      438.9292   49.500204  20.103483  0.415143   2.465996   2070.400757
267.3      437.95     50.103298  19.774196  0.421019   2.471133   2068.907837
267.4      436.0783   50.855852  19.596337  0.427543   2.473622   2066.356323
267.5      434.2556   51.361826  19.586033  0.434547   2.469125   2063.898193
267.6      432.2507   51.475094  19.544734  0.441361   2.462266   2062.248657
267.7      429.0154   51.08103   19.357031  0.445387   2.453794   2061.432861
267.8      424.8232   49.958719  19.162018  0.444588   2.440877   2062.318848
267.9      419.3551   48.650921  19.045989  0.439292   2.432736   2065.729858
268        410.6244   47.723783  18.950427  0.431695   2.457105   2072.239502
268.1      404.5848   47.198868  19.1508    0.422551   2.571161   2082.949463
268.2      396.3797   46.999683  19.916347  0.413858   2.757222   2098.338623
268.3      387.7979   46.99398   21.384623  0.409008   2.937081   2115.890503
268.4      379.7286   47.094288  23.762914  0.410591   3.039212   2128.869385
268.5      372.7073   47.301064  25.310694  0.417236   3.047697   2132.546387
268.6      367.5908   47.516218  24.602313  0.425681   2.96634    2126.616943
268.7      364.6289   47.601242  23.394492  0.432918   2.843966   2116.082397
268.8      363.7176   47.517498  22.699339  0.435683   2.762981   2107.057251
268.9      364.2644   47.023027  22.32414   0.432471   2.760634   2105.286865
269        366.2693   46.190744  22.484917  0.424882   2.796704   2110.466919
269.1      369.778    45.369631  22.941915  0.417414   2.806816   2116.904663
269.2      374.5626   45.016153  23.042812  0.414473   2.797123   2119.166504
269.3      381.6711   45.25762   22.711451  0.417851   2.799294   2116.678101
269.4      390.2833   45.857107  22.522127  0.424942   2.849623   2112.930664
269.5      399.4423   46.806461  22.904079  0.430901   2.941047   2110.674805
269.6      407.1887   48.118982  24.012571  0.431826   3.030046   2111.039185
269.7      413.5863   49.465237  25.006287  0.428046   3.056012   2111.685059
269.8      417.6783   50.733097  25.025074  0.421859   2.997017   2109.144653
269.9      419.908    51.881895  24.458821  0.416726   2.864727   2102.212646
270        420.9955   52.436449  23.555446  0.415129   2.712843   2093.346313
270.1      422.4689   52.247484  22.404397  0.417997   2.598646   2085.742798
270.2      423.8793   51.353529  21.402039  0.423118   2.539002   2081.203003
270.3      426.0535   50.072351  20.541895  0.427285   2.510653   2081.394165
270.4      428.4686   48.660141  19.727954  0.428427   2.489222   2085.10144
270.5      430.9292   47.595774  19.188843  0.426565   2.471468   2087.879517
270.6      433.0709   47.099514  18.946841  0.42353    2.453156   2087.309326
270.7      434.7113   47.411951  19.028343  0.421345   2.438735   2085.075073
270.8      435.8505   48.70018   19.348647  0.420838   2.432427   2082.109863
270.9      436.4884   50.434031  19.331312  0.421558   2.437665   2078.052124
271        436.7162   51.681177  19.338695  0.422065   2.445129   2074.990234
271.1      436.2606   51.710144  19.660151  0.420548   2.446356   2075.282593
271.2      435.4404   51.11578   19.640692  0.416242   2.442704   2077.415039
271.3      434.0734   50.339918  19.327812  0.410665   2.445688   2077.902832
271.4      432.4785   49.741774  19.209727  0.406927   2.45438    2076.079102
271.5      430.6102   49.778009  19.361171  0.406361   2.467539   2073.214722
271.6      428.9698   50.996511  19.587784  0.408352   2.483631   2069.531128
271.7      427.4661   52.800613  19.854454  0.411762   2.496722   2065.61145
271.8      426.2813   54.103355  20.243587  0.416572   2.500912   2062.838379
271.9      425.3244   54.682901  20.624974  0.422674   2.494924   2061.726929
272        424.6409   54.709002  20.764709  0.429062   2.485841   2063.083862
272.1      424.1397   54.6084    20.651381  0.435058   2.483582   2065.765259
272.2      423.684    54.403326  20.329604  0.440898   2.494161   2068.851074
272.3      423.2283   54.108749  19.824066  0.44667    2.509705   2071.702759
272.4      422.8638   53.971273  19.209952  0.44983    2.517151   2074.199829
272.5      422.7271   54.150326  18.759607  0.448258   2.510861   2075.924072
272.6      422.7727   54.586323  18.851436  0.442385   2.495985   2076.682495
272.7      422.8638   54.926773  19.391492  0.435518   2.47443    2076.894409
272.8      422.9094   55.114388  19.841874  0.429251   2.450148   2076.436035
272.9      422.7727   55.038748  19.952144  0.423789   2.435294   2075.921021
273        422.4537   54.709354  19.863841  0.419596   2.440073   2075.684326
273.1      422.0436   54.525896  19.754648  0.417317   2.458763   2077.172974
273.2      421.8158   54.620646  19.64684   0.415203   2.481273   2079.93335
273.3      421.7702   54.881712  19.520189  0.411522   2.504195   2083.495483
273.4      421.9525   55.252836  19.492812  0.4082     2.523982   2086.617065
273.5      422.2714   56.366859  19.561265  0.408994   2.534757   2088.105713
273.6      422.6815   57.395807  19.63798   0.414864   2.537705   2087.628906
273.7      423.0461   57.654976  19.711906  0.422781   2.544502   2085.508057
273.8      423.3195   57.340752  19.710046  0.430173   2.556574   2083.20874
273.9      423.5017   57.364746  19.415952  0.433958   2.567101   2081.278198
274        423.6385   57.405596  19.01967   0.432286   2.569607   2079.813965
274.1      423.8207   57.245106  18.924897  0.425551   2.561301   2078.6427 
274.2      424.0941   57.586435  18.694065  0.418088   2.540629   2078.295654
274.3      424.4586   58.315462  18.115864  0.413454   2.512634   2078.901245
274.4      424.7776   58.646414  17.906545  0.412592   2.486612   2080.133911
274.5      424.9143   58.070938  18.205185  0.414779   2.465153   2081.783081
274.6      424.898    57.587147  18.440855  0.419422   2.450267   2083.662354
274.7      424.5498   57.372818  18.423409  0.425065   2.446947   2084.267334
274.8      424.2308   57.196621  18.470717  0.429336   2.454907   2082.753174
274.9      423.8663   57.287907  18.583973  0.43103    2.4671     2079.747681
275        423.4562   57.9484    18.512758  0.430119   2.482712   2076.944458
275.1      422.9094   58.6446    18.386488  0.427552   2.501276   2075.993164
275.2      422.2259   58.498091  18.356369  0.4247     2.518974   2078.024048
275.3      421.4512   57.734472  18.482699  0.422013   2.534149   2082.076294
275.4      420.5854   57.240395  18.87621   0.419488   2.548507   2087.363281
