~Version
 VERS              .         2.0                           : CWLS LOG ASCII STANDARD - VERSION 2.0
 WRAP              .         NO                            : ONE LINE PER DEPTH STEP
 DLM               .         SPACE                         : DELIMITING CHARACTER(SPACE TAB OR COMMA)
~Well Information
#_______________________________________________________________________________
#
#PARAMETER_NAME    .UNIT     VALUE                         : DESCRIPTION
#_______________________________________________________________________________
STRT               .M        0                             : First reference value
STOP               .M        425.4                         : Last reference value
STEP               .M        0.1                           : Step increment
NULL               .         -9999                         : Missing value
COMP               .                                       : Company
WELL               .         B                             : Well name
FLD                .                                       : Field
LOC                .                                       : Location
CNTY               .                                       : County
STAT               .                                       : State
CTRY               .                                       : Country
SRVC               .                                       : Service Company
DATE               .                                       : Date
API                .                                       : API number
~Parameter Information Block
#_______________________________________________________________________________
#
#PARAMETER_NAME    .UNIT     VALUE                         : DESCRIPTION
#_______________________________________________________________________________
SET                .         Logs                          : 
TLFamily_DEPT      .         Measured Depth                : 
TLFamily_DT        .         Compressional Slowness        : 
TLFamily_GR        .         Gamma Ray                     : 
TLFamily_ILD       .         Resistivity - Deep            : 
TLFamily_NPOR_LIM  .         Thermal Neutron Porosity Limestone: 
TLFamily_PEF       .         Photoelectric Factor          : 
TLFamily_RHO       .         Bulk Density                  : 
~Curve Information
#_______________________________________________________________________________
#
#LOGNAME           .UNIT     LOG_ID                        : DESCRIPTION
#_______________________________________________________________________________
DEPT               .M                                      : Logged depth 
DT                 .us/m                                   : Compressional Slowness 
GR                 .GAPI                                   : MGS Gamma Ray 
ILD                .OHMM                                   : Array Ind. One Res 85 
NPOR_LIM           .V/V                                    : Base Neutron Porosity 
PEF                .B/E                                    : PE 
RHO                .K/M3                                   : Compensated Density 
~Ascii
# ...
163.3      454.7153   85.380116  3.608023   0.487687   3.050679   2311.193481
163.4      460.8669   85.086842  3.276606   0.493564   2.878144   2281.156494
163.5      466.6539   84.185028  3.197405   0.491644   2.784891   2255.964355
163.6      470.9828   82.69761699999999 3.33813    0.481682   2.738331   2238.999878
163.7      473.9446   80.56808100000001 3.824304   0.464505   2.701642   2231.75415
163.8      474.9927   78.748901  4.569573   0.444065   2.686682   2231.490601
163.9      474.2181   77.295704  4.886902   0.423515   2.682816   2231.033081
164        471.9397   76.224949  4.402276   0.405574   2.655443   2225.914185
164.1      468.8867   75.015697  4.288005   0.392409   2.586187   2215.887573
164.2      465.2413   73.07677099999999 5.606026   0.385749   2.49024    2202.8125 
164.3      461.1858   70.225639  7.4103     0.385066   2.395908   2187.57666
164.4      456.8114   66.924335  8.733783000000001 0.38735    2.324104   2172.691406
164.5      452.2546   63.941132  9.658412999999999 0.388518   2.286766   2164.13147
164.6      447.6068   61.725267  10.236505  0.385334   2.28232    2163.305054
164.7      443.2324   60.056181  10.434986  0.37826    2.285633   2166.235352
164.8      439.3592   59.058456  10.532646  0.369807   2.278365   2168.809937
164.9      436.1694   58.801168  10.708377  0.36199    2.271068   2171.081421
165        433.6632   59.220858  10.804182  0.355182   2.270704   2174.323364
165.1      431.9773   59.669552  10.808743  0.34956    2.276909   2180.358887
165.2      430.9292   60.08362   10.782097  0.345972   2.285931   2189.03186
165.3      430.3824   61.211748  10.632584  0.344247   2.297747   2200.040771
165.4      430.2457   63.526508  10.449076  0.344062   2.307493   2212.512329
165.5      430.4736   66.714539  10.476272  0.345543   2.314352   2223.808838
165.6      430.8837   70.36053099999999 10.569745  0.349637   2.324655   2230.288452
165.7      431.4305   74.751057  10.459357  0.356565   2.342919   2230.546387
165.8      431.9285   79.422703  10.207477  0.364604   2.36973    2228.638184
165.9      433.162    83.274376  9.970001999999999 0.371758   2.398077   2229.672241
166        434.2556   85.406982  9.624459   0.376198   2.414114   2236.954956
166.1      435.3492   85.866539  9.193593999999999 0.377015   2.410161   2246.420898
166.2      436.4884   84.52697000000001 9.00286    0.373634   2.387449   2251.504761
166.3      437.5365   82.150051  9.363550999999999 0.367902   2.355646   2246.846558
166.4      438.7212   80.47993099999999 9.962954999999999 0.363239   2.327538   2234.178589
166.5      440.0427   80.797382  10.676546  0.361957   2.317299   2219.449951
166.6      441.7742   83.41254000000001 11.986266  0.364165   2.324157   2210.231812
166.7      443.5058   87.492149  12.943202  0.369477   2.335695   2210.491943
166.8      445.2829   91.24929   12.854946  0.379358   2.34017    2216.615112
166.9      446.8777   92.84020200000001 12.570266  0.394586   2.334074   2215.557861
167        448.3815   91.326672  12.234775  0.414569   2.301726   2195.032715
167.1      449.6118   87.035595  11.712264  0.436862   2.232576   2150.279663
167.2      450.6143   81.230907  12.057974  0.458212   2.138577   2086.20105
167.3      451.3889   75.617104  14.265464  0.475163   2.055669   2020.567871
167.4      451.799    72.33984   17.144741  0.483523   2.010712   1978.560303
167.5      451.8445   72.146107  18.570763  0.481366   2.007695   1977.593689
167.6      451.5256   74.07370400000001 17.04958   0.468675   2.03788    2013.980225
167.7      450.9332   76.73951700000001 14.460705  0.448996   2.083816   2069.225037
167.8      450.0219   78.45845   13.613855  0.426038   2.117622   2120.687988
167.9      448.8371   78.102768  13.836574  0.404517   2.120164   2151.490234
168        447.6068   75.643021  14.353832  0.388095   2.10973    2156.17395
168.1      446.3765   72.36295699999999 14.925792  0.37919    2.106852   2145.519531
168.2      445.4196   69.78739899999999 15.039723  0.37664    2.12106    2137.023193
168.3      444.5538   68.824825  14.978647  0.37684    2.145948   2139.058472
168.4      443.7336   69.840023  15.505702  0.376512   2.178971   2148.371338
168.5      442.5944   72.961933  16.453559  0.373994   2.211925   2157.588501
168.6      441.4096   77.47285100000001 16.884977  0.370418   2.23888    2162.832275
168.7      440.4983   81.40934   16.734094  0.367782   2.259128   2164.240112
168.8      439.9515   83.731995  16.047794  0.368602   2.272947   2164.571899
168.9      439.7237   84.791729  15.455492  0.371978   2.274906   2165.981934
169        439.587    85.518379  15.291712  0.375582   2.269924   2170.157227
169.1      439.7693   86.51656   14.941543  0.376294   2.273062   2178.028198
169.2      439.8604   88.167736  14.726852  0.373635   2.287859   2190.689697
169.3      439.9515   90.083782  15.167374  0.368204   2.304276   2206.342651
169.4      439.9059   89.73759099999999 16.036948  0.363211   2.304838   2219.067627
169.5      440.1338   85.131573  16.743154  0.36188    2.279611   2223.605469
169.6      440.2249   76.623257  17.217072  0.365741   2.22612    2218.256592
169.7      439.9515   66.401207  16.949212  0.372801   2.153101   2205.900635
169.8      439.268    56.213343  16.206388  0.380283   2.073444   2189.528687
169.9      438.2656   47.553101  16.098658  0.386025   2.012186   2172.343506
170        437.2175   41.406527  16.297241  0.388584   1.982327   2155.699707
170.1      435.9872   37.911318  16.737382  0.388048   1.974267   2140.681152
170.2      435.1214   36.049698  17.843812  0.38548    1.971199   2125.504272
170.3      434.7568   34.659489  18.935902  0.382217   1.971003   2110.342529
170.4      435.3948   33.779654  19.13868   0.378141   1.97765    2099.942017
170.5      436.7162   33.693136  19.039167  0.374578   1.982102   2098.517944
170.6      438.6756   34.098745  19.298261  0.373182   1.984463   2105.583984
170.7      440.7261   34.458883  19.566641  0.375285   1.995605   2115.775513
170.8      442.6855   34.890308  19.558072  0.379281   2.023098   2123.021606
170.9      444.4171   36.012289  19.265942  0.384259   2.053735   2124.619507
171        446.0575   37.711666  19.390676  0.389589   2.069755   2124.84314
171.1      447.7435   38.921118  19.899606  0.394209   2.065801   2127.801147
171.2      449.7029   39.364471  19.386018  0.395172   2.047309   2131.864502
171.3      451.9813   39.315521  18.097932  0.390816   2.021799   2134.218018
171.4      454.2596   39.116117  17.59507   0.383148   1.995102   2133.0354 
171.5      456.1279   38.642263  17.817442  0.374947   1.98936    2124.288574
171.6      457.2671   38.530558  18.042417  0.367366   2.015122   2107.689941
171.7      457.6772   39.683754  17.878626  0.359645   2.052998   2094.944458
171.8      457.3126   42.422417  16.929902  0.353011   2.082337   2096.839111
171.9      456.0367   46.240139  15.595397  0.348571   2.113797   2111.480591
172        454.2596   50.601223  14.73245   0.346139   2.158373   2130.660767
172.1      452.2546   54.796808  14.544412  0.345247   2.206184   2151.355469
172.2      450.7249   58.305689  14.901403  0.347548   2.256988   2169.843384
172.3      448.8827   60.90959   15.268465  0.354999   2.315692   2182.098267
172.4      447.8802   62.26976   15.264454  0.365697   2.360046   2190.504883
172.5      447.3334   62.697996  15.439918  0.377188   2.360495   2198.996704
172.6      447.2878   63.179844  15.726711  0.387226   2.339403   2200.627441
172.7      447.3334   63.994503  15.532864  0.395384   2.329646   2189.463013
172.8      447.6068   64.510204  15.009348  0.400547   2.334151   2174.517578
172.9      448.0625   64.32128   14.603329  0.402741   2.35115    2164.68811
173        448.6093   64.08251799999999 13.947602  0.403039   2.379425   2163.37793
173.1      449.2928   63.810442  13.348476  0.402145   2.400762   2171.325806
173.2      450.0674   63.186731  13.585636  0.400704   2.39168    2186.673828
173.3      451.0699   62.526209  14.14775   0.398489   2.356011   2197.915405
