~Version
 VERS              .         2.0                           : CWLS LOG ASCII STANDARD - VERSION 2.0
 WRAP              .         NO                            : ONE LINE PER DEPTH STEP
 DLM               .         SPACE                         : DELIMITING CHARACTER(SPACE TAB OR COMMA)
~Well Information
#_______________________________________________________________________________
#
#PARAMETER_NAME    .UNIT     VALUE                         : DESCRIPTION
#_______________________________________________________________________________
STRT               .M        0                             : First reference value
STOP               .M        425.4                         : Last reference value
STEP               .M        0.1                           : Step increment
NULL               .         -9999                         : Missing value
COMP               .                                       : Company
WELL               .         B                             : Well name
FLD                .                                       : Field
LOC                .                                       : Location
CNTY               .                                       : County
STAT               .                                       : State
CTRY               .                                       : Country
SRVC               .                                       : Service Company
DATE               .                                       : Date
API                .                                       : API number
~Parameter Information Block
#_______________________________________________________________________________
#
#PARAMETER_NAME    .UNIT     VALUE                         : DESCRIPTION
#_______________________________________________________________________________
SET                .         Logs                          : 
TLFamily_DEPT      .         Measured Depth                : 
TLFamily_DT        .         Compressional Slowness        : 
TLFamily_GR        .         Gamma Ray                     : 
TLFamily_ILD       .         Resistivity - Deep            : 
TLFamily_NPOR_LIM  .         Thermal Neutron Porosity Limestone: 
TLFamily_PEF       .         Photoelectric Factor          : 
TLFamily_RHO       .         Bulk Density                  : 
~Curve Information
#_______________________________________________________________________________
#
#LOGNAME           .UNIT     LOG_ID                        : DESCRIPTION
#_______________________________________________________________________________
DEPT               .M                                      : Logged depth 
DT                 .us/m                                   : Compressional Slowness 
GR                 .GAPI                                   : MGS Gamma Ray 
ILD                .OHMM                                   : Array Ind. One Res 85 
NPOR_LIM           .V/V                                    : Base Neutron Porosity 
PEF                .B/E                                    : PE 
RHO                .K/M3                                   : Compensated Density 
~Ascii
# ...
213.8      447.9714   97.39872699999999 13.449087  0.401396   2.41152    2150.378906
213.9      448.3359   99.493858  13.190315  0.400003   2.422194   2151.104736
214        448.7004   100.096497 13.026498  0.398313   2.42866    2148.934692
214.1      448.9738   99.141266  12.983929  0.399591   2.426505   2143.071655
214.2      449.0194   97.210773  13.038187  0.405789   2.411061   2135.677612
214.3      448.5637   94.679581  13.235631  0.41571    2.38168    2128.41272
214.4      448.108    91.50992599999999 13.454406  0.42564    2.355125   2122.565186
214.5      447.8802   88.479553  13.547998  0.432111   2.34356    2119.09314
214.6      447.6524   86.106346  13.703311  0.432126   2.34246    2119.369507
214.7      447.06     84.91687   13.779819  0.424854   2.346466   2123.031616
214.8      446.5132   84.652191  13.563605  0.413068   2.354355   2128.942139
214.9      446.1942   85.144707  13.206899  0.403159   2.36166    2137.116943
215        446.2853   85.85755899999999 12.995123  0.399276   2.36278    2147.353271
215.1      446.9689   86.339249  13.049901  0.401356   2.365699   2158.21814
215.2      448.8371   86.531761  13.092487  0.406775   2.378402   2169.005981
215.3      451.5256   86.450531  13.218223  0.414543   2.399755   2177.313232
215.4      454.3052   85.51096699999999 13.198243  0.424648   2.403615   2174.068115
215.5      456.8114   82.208904  12.942519  0.436675   2.365192   2153.372192
215.6      459.0898   76.31125299999999 13.07182   0.451668   2.293432   2115.458008
215.7      460.958    68.547241  13.842051  0.4674     2.217206   2069.33252
215.8      462.1883   60.141693  15.485114  0.477331   2.158389   2028.94104
215.9      462.7351   52.282394  16.596792  0.474148   2.13126    2007.601013
216        462.5529   46.129992  17.091051  0.457961   2.14781    2009.405518
216.1      461.5048   42.474854  18.279599  0.434475   2.192859   2029.670044
216.2      459.272    40.886818  19.76844   0.410161   2.227195   2058.947449
216.3      456.2646   40.261999  21.331951  0.390951   2.228811   2086.736084
216.4      452.8015   40.140337  22.512914  0.38105    2.21305    2105.372803
216.5      449.2472   40.632269  23.062994  0.380657   2.195194   2113.179688
216.6      445.7386   41.810959  23.461877  0.385138   2.179299   2114.839966
216.7      442.7311   43.170551  23.792904  0.390779   2.171887   2111.001221
216.8      440.2249   44.107798  24.047947  0.395683   2.171172   2103.630981
216.9      438.0833   44.486309  24.334765  0.398927   2.173832   2098.209229
217        436.42     44.764248  24.473771  0.399157   2.178309   2099.10791
217.1      434.8024   45.083662  24.384613  0.394907   2.1842     2105.861084
217.2      433.8911   45.616167  24.232864  0.386289   2.188921   2115.942261
217.3      433.4354   46.738548  24.131182  0.376105   2.191143   2125.242554
217.4      433.3898   48.37999   24.131388  0.368701   2.191021   2129.749268
217.5      433.5721   50.039551  24.322294  0.367622   2.192222   2126.337036
217.6      433.9822   50.819971  24.524609  0.372999   2.199642   2115.789551
217.7      434.4379   50.690948  24.675846  0.383248   2.214124   2101.092651
217.8      435.1214   49.937559  25.058777  0.394966   2.233652   2086.086182
217.9      435.9416   49.145844  25.675565  0.404592   2.254791   2074.647339
218        436.8074   48.584917  25.882179  0.408958   2.273205   2069.499878
218.1      437.4909   48.600138  25.938024  0.407713   2.283774   2070.474609
218.2      437.901    49.138355  26.201584  0.402861   2.28566    2074.895752
218.3      437.9921   49.734457  26.308388  0.396475   2.28528    2080.208496
218.4      437.6732   49.887291  26.342999  0.389479   2.285257   2083.960815
218.5      437.1719   49.763292  26.301031  0.381841   2.286723   2085.567871
218.6      436.5795   50.153584  26.179453  0.374393   2.291052   2085.653687
218.7      436.215    51.202139  26.09358   0.368727   2.29655    2086.045166
218.8      435.8961   52.241869  26.175829  0.366222   2.298268   2086.898193
218.9      435.7138   53.103991  26.492639  0.366317   2.295415   2086.878662
219        435.5771   53.654196  26.765062  0.367736   2.291147   2085.285278
219.1      435.5771   53.807602  26.944556  0.371037   2.284845   2083.688599
219.2      435.6227   53.339478  27.017307  0.377364   2.276407   2082.63501
219.3      435.7593   52.805653  26.844716  0.386448   2.264081   2081.507935
219.4      436.0328   52.62965   26.585617  0.396712   2.252024   2079.5    
219.5      436.3972   52.73665   26.464682  0.406795   2.246098   2076.688843
219.6      436.7618   52.457952  26.505723  0.414428   2.251667   2073.205078
219.7      436.9897   51.594074  26.417567  0.415691   2.262627   2069.352295
219.8      437.1719   50.430935  26.005642  0.409509   2.270317   2064.931519
219.9      437.1719   48.807329  25.6166    0.399508   2.267655   2059.941528
220        437.0807   46.985527  25.53984   0.391939   2.253594   2054.288452
220.1      436.8985   45.790241  25.511102  0.389981   2.232489   2047.314819
220.2      436.7162   45.721998  25.801069  0.393129   2.216219   2041.685913
220.3      436.534    46.006807  26.411267  0.398073   2.213014   2039.879272
220.4      436.3972   46.164221  26.563093  0.401454   2.21814    2043.535828
220.5      436.2606   46.251225  26.441675  0.400712   2.223735   2051.124207
220.6      436.0327   45.915033  26.414511  0.39548    2.225172   2060.106201
220.7      435.7138   44.522505  26.341457  0.388207   2.220866   2068.008667
220.8      435.3037   42.874016  26.231024  0.382569   2.211399   2073.132202
220.9      434.9847   42.162035  26.059418  0.381317   2.204051   2075.188843
221        434.7568   42.450411  25.714308  0.383951   2.203394   2075.445557
221.1      434.8024   43.334719  25.314771  0.387758   2.208875   2074.92981
221.2      435.0758   44.739477  25.028494  0.39009    2.218818   2072.551758
221.3      435.6226   46.054861  24.742624  0.390212   2.230997   2068.374634
221.4      436.3062   46.414574  24.524293  0.389202   2.243278   2064.316284
221.5      437.0352   45.614246  24.465868  0.387491   2.254815   2062.069458
221.6      437.8098   44.296272  24.549418  0.385091   2.26443    2061.681396
221.7      438.6756   43.384838  24.59742   0.381726   2.271786   2061.758789
221.8      439.5414   43.483625  24.495692  0.378184   2.278286   2062.01709
221.9      440.316    44.31514   24.287647  0.375462   2.286299   2061.542358
222        440.9084   45.343872  23.933438  0.376132   2.293724   2058.804688
222.1      441.0907   46.20854   23.550872  0.382402   2.303727   2052.984863
222.2      440.7261   46.512667  23.040827  0.393313   2.319109   2044.303711
222.3      439.9059   46.33049   22.573439  0.404772   2.338065   2033.121704
222.4      438.8579   45.975704  22.421309  0.412599   2.350545   2021.190186
222.5      437.6276   46.159964  22.786259  0.415158   2.353378   2013.480835
222.6      436.3972   46.687672  23.127394  0.412697   2.348691   2013.983093
222.7      435.3037   47.233416  22.892829  0.407701   2.339038   2023.124573
222.8      434.529    47.590618  22.775735  0.402816   2.322002   2037.377014
222.9      433.8455   47.553514  22.946831  0.399058   2.300392   2052.580383
223        433.3899   47.113539  23.361376  0.39558    2.276405   2063.504761
223.1      433.0253   46.823206  23.755025  0.392819   2.252963   2066.873169
223.2      432.9341   46.813288  23.609415  0.392712   2.233757   2063.954834
223.3      432.9798   46.649273  23.088121  0.395663   2.225588   2058.858521
223.4      433.149    46.442911  22.435024  0.399416   2.229983   2053.964111
223.5      434.0278   46.349388  21.654221  0.40125    2.240408   2049.161316
223.6      435.2125   46.55423   20.912498  0.400138   2.250214   2044.576904
223.7      436.7618   46.913622  20.540409  0.396522   2.256085   2041.39209
223.8      438.4022   47.691431  20.695468  0.391772   2.265347   2041.071289
223.9      440.1338   48.789972  20.556987  0.38866    2.28721    2042.649231
224        442.0021   49.77354   19.630727  0.38916    2.326986   2042.62793
