~Version
 VERS              .         2.0                           : CWLS LOG ASCII STANDARD - VERSION 2.0
 WRAP              .         NO                            : ONE LINE PER DEPTH STEP
 DLM               .         SPACE                         : DELIMITING CHARACTER(SPACE TAB OR COMMA)
~Well Information
#_______________________________________________________________________________
#
#PARAMETER_NAME    .UNIT     VALUE                         : DESCRIPTION
#_______________________________________________________________________________
STRT               .M        0                             : First reference value
STOP               .M        425.4                         : Last reference value
STEP               .M        0.1                           : Step increment
NULL               .         -9999                         : Missing value
COMP               .                                       : Company
WELL               .         B                             : Well name
FLD                .                                       : Field
LOC                .                                       : Location
CNTY               .                                       : County
STAT               .                                       : State
CTRY               .                                       : Country
SRVC               .                                       : Service Company
DATE               .                                       : Date
API                .                                       : API number
~Parameter Information Block
#_______________________________________________________________________________
#
#PARAMETER_NAME    .UNIT     VALUE                         : DESCRIPTION
#_______________________________________________________________________________
SET                .         Logs                          : 
TLFamily_DEPT      .         Measured Depth                : 
TLFamily_DT        .         Compressional Slowness        : 
TLFamily_GR        .         Gamma Ray                     : 
TLFamily_ILD       .         Resistivity - Deep            : 
TLFamily_NPOR_LIM  .         Thermal Neutron Porosity Limestone: 
TLFamily_PEF       .         Photoelectric Factor          : 
TLFamily_RHO       .         Bulk Density                  : 
~Curve Information
#_______________________________________________________________________________
#
#LOGNAME           .UNIT     LOG_ID                        : DESCRIPTION
#_______________________________________________________________________________
DEPT               .M                                      : Logged depth 
DT                 .us/m                                   : Compressional Slowness 
GR                 .GAPI                                   : MGS Gamma Ray 
ILD                .OHMM                                   : Array Ind. One Res 85 
NPOR_LIM           .V/V                                    : Base Neutron Porosity 
PEF                .B/E                                    : PE 
RHO                .K/M3                                   : Compensated Density 
~Ascii
# ...
376.8      386.8201   43.796572  36.226548  0.360749   1.996826   2119.526001
376.9      385.9088   49.51049   26.25312   0.365624   2.059909   2140.148804
377        385.0105   54.706223  20.484869  0.369804   2.124515   2163.998291
377.1      383.4482   58.351761  17.726113  0.372119   2.173808   2187.586548
377.2      382.4001   60.172575  16.567491  0.372017   2.194376   2206.538574
377.3      381.8533   60.374041  16.341467  0.370115   2.190109   2216.533081
377.4      382.1267   59.935349  17.0732    0.367827   2.177649   2218.442871
377.5      382.9925   59.971926  17.914787  0.366979   2.172381   2215.605591
377.6      384.4051   60.454412  17.27019   0.368525   2.170826   2210.177124
377.7      386.0455   59.833336  16.555501  0.372103   2.155851   2202.505005
377.8      387.7315   56.92901   17.707073  0.376175   2.114423   2191.505371
377.9      389.1896   51.696053  22.098051  0.38086    2.045565   2174.892578
378        390.3288   45.032965  32.490489  0.38802    1.960691   2151.452393
378.1      391.0123   38.152149  44.834129  0.398422   1.881969   2123.931152
378.2      391.5591   32.777061  51.008915  0.409838   1.829887   2097.040161
378.3      392.0148   29.92341   55.85132   0.418494   1.810783   2075.209717
378.4      392.3793   28.755346  65.23809799999999 0.422001   1.815835   2060.613281
378.5      392.516    27.939215  76.11463500000001 0.420244   1.824183   2055.406372
378.6      392.4705   27.099549  85.816669  0.415817   1.830232   2057.647095
378.7      392.4705   26.144056  94.796539  0.411904   1.836964   2062.76123
378.8      392.516    25.088928  102.153374 0.409533   1.844694   2067.519409
378.9      393.154    24.18145   105.244186 0.406973   1.851462   2070.386475
379        394.202    23.423485  106.128025 0.401906   1.856515   2070.813354
379.1      395.8424   22.720588  106.820518 0.393635   1.860941   2068.036377
379.2      397.4829   22.151526  103.745174 0.383813   1.862662   2061.700806
379.3      399.26     21.771789  93.147057  0.376915   1.85962    2053.173218
379.4      400.6726   21.732899  76.665375  0.376628   1.853756   2045.18927
379.5      401.9029   21.836462  65.568764  0.382542   1.847833   2039.180054
379.6      402.7231   22.025006  73.177368  0.39068    1.841244   2035.675781
379.7      403.361    22.30338   93.157742  0.397655   1.835553   2035.258667
379.8      403.68     22.60353   109.264294 0.401831   1.832372   2037.987305
379.9      403.7256   23.018641  116.457642 0.402333   1.831601   2042.621399
380        403.4522   23.460917  119.082932 0.399695   1.83284    2047.322021
380.1      403.0421   23.930342  122.715832 0.396021   1.835881   2051.371826
380.2      402.5864   24.315481  128.443066 0.392529   1.838636   2054.91272
380.3      402.0852   24.677499  133.783577 0.388367   1.841426   2056.982178
380.4      401.5384   24.864608  138.21875  0.383233   1.844645   2056.911377
380.5      401.1283   24.968252  143.321999 0.378641   1.84983    2055.794678
380.6      400.7637   24.866418  147.480286 0.375609   1.854571   2054.71228
380.7      400.1258   24.411139  149.120903 0.373499   1.855153   2053.401489
380.8      399.1233   23.759341  149.544258 0.372442   1.852989   2051.451904
380.9      397.893    23.401394  148.491379 0.373391   1.851241   2049.969482
381        396.7083   23.488288  146.367455 0.376781   1.852224   2050.217651
381.1      395.2501   23.872358  143.350632 0.381257   1.854178   2052.515259
381.2      394.2932   24.447951  139.216087 0.387367   1.857475   2056.474731
381.3      393.9286   25.270922  136.109512 0.396397   1.862906   2060.553345
381.4      394.4299   25.779193  133.103615 0.408325   1.871524   2062.940552
381.5      395.0222   25.710932  129.398247 0.419819   1.880732   2063.044678
381.6      396.0247   25.555863  126.228748 0.427291   1.886349   2062.345337
381.7      396.9816   25.61886   122.139042 0.428077   1.885741   2061.868652
381.8      397.893    25.56126   117.056728 0.421635   1.878628   2062.199463
381.9      398.4398   25.18729   111.794094 0.409712   1.869063   2063.185425
382        399.0777   25.115232  105.334259 0.395557   1.859405   2063.526001
382.1      399.8979   25.473783  97.795574  0.382597   1.85484    2062.001343
382.2      400.7637   25.863046  90.768581  0.373015   1.857966   2059.355591
382.3      401.5839   25.767276  84.33564   0.368461   1.86571    2057.352417
382.4      402.4953   25.445342  77.013187  0.369124   1.871668   2056.354492
382.5      403.4522   25.33007   67.774368  0.374417   1.875094   2055.712769
382.6      404.4547   25.983963  56.220493  0.383076   1.882257   2054.465332
382.7      405.2293   27.976867  43.609552  0.394146   1.908985   2053.372925
382.8      406.0039   31.771554  32.293574  0.404978   1.960729   2054.314819
382.9      406.5963   36.492977  22.464926  0.41367    2.020226   2060.001709
383        407.1431   40.299383  14.535221  0.419549   2.064194   2069.038696
383.1      407.4621   41.846128  11.176541  0.42266    2.076498   2077.641602
383.2      407.7355   41.540976  13.800276  0.422172   2.056208   2082.057251
383.3      407.6899   40.063288  18.701423  0.418188   2.009681   2080.214722
383.4      407.5174   37.978937  23.312675  0.412441   1.957466   2072.547607
383.5      406.8697   36.352066  29.330255  0.406452   1.919706   2062.142456
383.6      406.2318   35.703392  32.793404  0.401489   1.903962   2054.13562
383.7      405.6394   35.928131  32.006653  0.398653   1.904283   2051.373047
383.8      405.0926   36.439035  31.358425  0.3988     1.915438   2053.96228
383.9      404.728    37.090902  30.22334   0.400896   1.931974   2058.232178
384        404.2724   37.497145  25.752198  0.404156   1.943334   2062.254517
384.1      403.7711   37.267097  20.622568  0.408153   1.946174   2066.825439
384.2      403.2243   36.046328  20.082503  0.411927   1.936929   2072.755615
384.3      402.8598   33.9939    22.928189  0.413965   1.916048   2078.328979
384.4      402.313    31.39318   26.46963   0.41252    1.890289   2080.846558
384.5      401.7206   28.696001  35.840961  0.406372   1.870251   2080.565308
384.6      400.9915   26.72329   51.413158  0.395237   1.861452   2078.477417
384.7      400.308    26.080262  61.885864  0.381516   1.858961   2075.662109
384.8      399.5334   27.296033  58.755064  0.368547   1.870804   2076.300171
384.9      398.5765   30.893976  44.429562  0.358161   1.909246   2086.112183
385        397.255    37.023716  27.060423  0.350558   1.972745   2107.199585
385.1      395.3868   45.029041  13.333541  0.34581    2.047701   2136.519775
385.2      392.9717   53.296682  6.445771   0.343293   2.124758   2169.810547
385.3      389.9643   60.347673  4.749734   0.341117   2.189691   2202.5802 
385.4      386.6834   65.575468  4.563333   0.338669   2.229924   2230.713013
385.5      383.3114   69.012024  4.483601   0.337135   2.247645   2252.423706
385.6      380.2129   71.38133999999999 4.511881   0.337121   2.268767   2270.519531
385.7      377.4333   73.736034  4.458176   0.336802   2.330302   2287.80188
385.8      375.0638   76.338955  4.218457   0.334509   2.427132   2303.60791
385.9      373.2867   78.240425  4.061515   0.330999   2.526608   2317.842163
386        371.9652   78.73497399999999 4.05886    0.327569   2.597789   2328.990723
386.1      371.1906   77.628704  4.028541   0.325296   2.627326   2333.489624
386.2      370.6894   74.873817  3.946192   0.324653   2.599536   2329.656494
386.3      370.416    70.94207   3.920121   0.325823   2.521281   2321.355591
386.4      370.1425   67.068707  3.952607   0.327701   2.427387   2312.528687
386.5      370.4615   64.34190599999999 3.852922   0.328943   2.35608    2302.79248
386.6      371.0539   62.634193  3.629558   0.329829   2.302714   2290.514893
386.7      371.6007   61.726261  3.548576   0.33147    2.248221   2276.948608
386.8      371.9197   61.484184  3.571925   0.334648   2.205959   2263.044312
386.9      372.6031   61.82287   3.681226   0.338273   2.177701   2250.965942
387        373.5601   62.076698  3.856997   0.341479   2.159535   2246.439819
