~Version
 VERS              .         2.0                           : CWLS LOG ASCII STANDARD - VERSION 2.0
 WRAP              .         NO                            : ONE LINE PER DEPTH STEP
 DLM               .         SPACE                         : DELIMITING CHARACTER(SPACE TAB OR COMMA)
~Well Information
#_______________________________________________________________________________
#
#PARAMETER_NAME    .UNIT     VALUE                         : DESCRIPTION
#_______________________________________________________________________________
STRT               .M        0                             : First reference value
STOP               .M        425.4                         : Last reference value
STEP               .M        0.1                           : Step increment
NULL               .         -9999                         : Missing value
COMP               .                                       : Company
WELL               .         B                             : Well name
FLD                .                                       : Field
LOC                .                                       : Location
CNTY               .                                       : County
STAT               .                                       : State
CTRY               .                                       : Country
SRVC               .                                       : Service Company
DATE               .                                       : Date
API                .                                       : API number
~Parameter Information Block
#_______________________________________________________________________________
#
#PARAMETER_NAME    .UNIT     VALUE                         : DESCRIPTION
#_______________________________________________________________________________
SET                .         Logs                          : 
TLFamily_DEPT      .         Measured Depth                : 
TLFamily_DT        .         Compressional Slowness        : 
TLFamily_GR        .         Gamma Ray                     : 
TLFamily_ILD       .         Resistivity - Deep            : 
TLFamily_NPOR_LIM  .         Thermal Neutron Porosity Limestone: 
TLFamily_PEF       .         Photoelectric Factor          : 
TLFamily_RHO       .         Bulk Density                  : 
~Curve Information
#_______________________________________________________________________________
#
#LOGNAME           .UNIT     LOG_ID                        : DESCRIPTION
#_______________________________________________________________________________
DEPT               .M                                      : Logged depth 
DT                 .us/m                                   : Compressional Slowness 
GR                 .GAPI                                   : MGS Gamma Ray 
ILD                .OHMM                                   : Array Ind. One Res 85 
NPOR_LIM           .V/V                                    : Base Neutron Porosity 
PEF                .B/E                                    : PE 
RHO                .K/M3                                   : Compensated Density 
~Ascii
# ...
173.4      452.118    62.158907  14.651396  0.39594    2.312538   2193.768311
173.5      453.166    61.643793  15.048903  0.392946   2.275245   2176.733154
173.6      453.8495   60.821522  14.957361  0.390086   2.247777   2158.61438
173.7      453.6933   60.23661   14.596374  0.38719    2.229699   2145.326416
173.8      453.5397   60.607546  14.24296   0.383975   2.21544    2136.950317
173.9      453.1539   62.036816  13.777964  0.379998   2.201692   2135.355347
174        452.9412   64.14924600000001 13.353729  0.374395   2.198894   2140.04834
174.1      452.7956   66.790779  13.052502  0.367764   2.210315   2149.560547
174.2      452.3889   69.757267  12.85471   0.362147   2.232438   2162.067017
174.3      450.7274   72.393074  12.674937  0.359238   2.271466   2181.284912
174.4      447.4207   73.914597  12.551503  0.358474   2.496595   2217.262573
174.5      442.0881   74.26430499999999 12.420881  0.357372   3.081099   2275.238892
174.6      436.7974   73.743088  12.327203  0.354551   3.890084   2350.262085
174.7      425.3913   72.74536500000001 13.261922  0.349909   4.581779   2432.291016
174.8      417.8605   72.17322900000001 14.975191  0.345373   4.939677   2497.263428
174.9      413.7048   73.43403600000001 14.581584  0.343499   4.899515   2513.887329
175        414.2516   76.93093500000001 12.519019  0.34695    4.430031   2472.66687
175.1      415.8465   81.921181  11.209488  0.356001   3.686681   2401.265869
175.2      420.4943   87.121117  10.540692  0.369035   3.029705   2329.759644
175.3      427.5359   91.354542  10.388321  0.383145   2.691837   2270.162598
175.4      437.0626   93.988659  10.696227  0.395873   2.567264   2234.533691
175.5      445.6201   95.774857  11.045444  0.406234   2.498901   2220.218872
175.6      453.1417   98.192539  11.218617  0.414      2.45979    2215.801025
175.7      457.4007   102.027077 11.359439  0.418696   2.442904   2214.564331
175.8      459.08     106.18718  11.453188  0.418939   2.428851   2214.899902
175.9      457.8139   109.293015 11.399148  0.414374   2.420025   2216.015381
176        457.2215   110.24844  11.257656  0.407013   2.427094   2217.145386
176.1      456.5836   109.064411 11.152493  0.401341   2.447678   2218.806396
176.2      455.9      106.377487 11.156742  0.400627   2.466932   2220.33606
176.3      455.3988   103.843746 11.193231  0.406497   2.480644   2222.749878
176.4      455.1254   103.432884 11.132362  0.417083   2.499626   2227.690552
176.5      455.1254   105.645786 10.945822  0.428608   2.531806   2237.055542
176.6      455.2621   109.064987 10.413415  0.43573    2.574496   2249.605713
176.7      455.5355   112.322941 9.267096   0.436001   2.621743   2263.1073 
176.8      455.7177   114.885582 8.516577   0.431056   2.664104   2275.702637
176.9      455.6266   115.880383 8.804023000000001 0.424557   2.681415   2283.979492
177        455.2165   114.888336 9.312211   0.417761   2.659011   2286.991943
177.1      454.5331   112.345306 9.736909000000001 0.409852   2.61668    2286.370972
177.2      453.6217   108.792194 10.176203  0.400465   2.636761   2282.929443
177.3      452.5736   104.216198 10.756073  0.389979   2.739714   2275.244019
177.4      451.5256   99.080524  11.588096  0.379367   2.863043   2264.241333
177.5      450.4775   94.659496  12.249207  0.37078    2.939164   2251.792603
177.6      449.5662   91.614552  12.224078  0.367021   2.951101   2238.570435
177.7      448.7916   90.09339900000001 11.912446  0.3683     2.893194   2227.040527
177.8      448.3359   89.65016900000001 11.827536  0.370926   2.787753   2221.036499
177.9      447.8347   89.744671  12.054667  0.371133   2.691696   2223.273315
178        447.4701   89.891201  12.230242  0.368106   2.643279   2230.338013
178.1      447.0144   89.894329  12.460845  0.362756   2.619931   2237.230835
178.2      446.6499   89.185158  13.030179  0.356628   2.567413   2238.702026
178.3      445.8752   87.253101  13.545333  0.351471   2.471409   2231.58606
178.4      444.8272   84.22795499999999 13.841682  0.349731   2.347939   2216.902344
178.5      443.3235   80.894077  13.583966  0.351182   2.248957   2198.159058
178.6      442.0346   77.826859  12.769246  0.354077   2.208912   2180.690796
178.7      439.9971   75.320763  12.282757  0.356406   2.20455    2170.020264
178.8      438.4478   73.253117  12.864619  0.35929    2.195037   2166.975952
178.9      437.2175   71.206913  14.205389  0.364604   2.175377   2166.80481
179        436.6251   68.50645799999999 15.783033  0.373362   2.144799   2164.109619
179.1      436.1239   64.616692  16.694613  0.384996   2.107941   2157.009521
179.2      435.8505   59.910728  16.941163  0.398086   2.079636   2145.762207
179.3      435.7593   55.627436  17.389015  0.4098     2.078817   2133.620361
179.4      436.1694   53.095346  17.418729  0.416628   2.104359   2125.640625
179.5      436.8074   52.270044  17.307797  0.417284   2.141391   2124.995483
179.6      437.8554   52.693977  17.827703  0.413318   2.176114   2130.005371
179.7      439.268    53.701389  18.292696  0.408102   2.200143   2135.300415
179.8      440.8629   54.941145  18.567385  0.404475   2.206367   2136.06604
179.9      442.3666   55.579807  19.008183  0.404503   2.19043    2128.988525
180        443.8248   55.103863  19.391319  0.406579   2.153231   2114.064087
180.1      445.1462   53.443647  19.129847  0.406886   2.107916   2094.186646
180.2      446.5588   51.369425  18.702187  0.402664   2.071723   2074.263916
180.3      448.108    50.077429  18.747966  0.394984   2.055277   2058.910645
180.4      449.9307   50.056648  19.034744  0.386042   2.053405   2049.463867
180.5      451.7534   51.360609  19.41851   0.378064   2.062343   2044.97467
180.6      453.5761   53.550552  19.699698  0.374088   2.078643   2044.107422
180.7      455.0798   56.037645  19.712893  0.375895   2.09573    2046.596741
180.8      455.7634   58.272924  19.518257  0.381496   2.107991   2051.342163
180.9      456.0367   60.403755  19.306906  0.38621    2.118763   2056.45166
181        455.9      62.447266  19.147411  0.387709   2.131662   2061.676514
181.1      455.9      64.02897299999999 19.009551  0.386073   2.138701   2066.703125
181.2      455.4899   65.149231  18.949594  0.38213    2.136982   2072.273438
181.3      455.4899   65.94972199999999 18.923425  0.376597   2.13487    2077.725952
181.4      455.3077   65.968628  18.803294  0.371694   2.138229   2082.324463
181.5      455.2621   64.99256099999999 18.820589  0.369756   2.140622   2085.110596
181.6      454.9431   64.125795  19.226569  0.371597   2.140012   2085.907715
181.7      454.9887   64.542379  19.233226  0.376734   2.142868   2084.813843
181.8      455.1254   65.76015099999999 18.913762  0.384422   2.149696   2082.2323 
181.9      455.5811   66.886444  19.086147  0.39276    2.153437   2079.414673
182        456.219    67.43976600000001 19.304674  0.399674   2.153431   2077.599609
182.1      456.9481   66.929565  19.124239  0.404441   2.154289   2077.23877
182.2      457.4493   65.052713  18.667988  0.407684   2.15678    2077.310181
182.3      457.8594   62.657801  18.384631  0.409169   2.154521   2077.597534
182.4      458.1328   61.188097  18.428545  0.407666   2.150154   2078.761963
182.5      458.3607   61.016226  18.688292  0.403878   2.152003   2079.075073
182.6      458.5885   61.815578  18.981843  0.400328   2.161192   2077.315186
182.7      458.9986   62.99493   19.09576   0.399094   2.169322   2074.615479
182.8      459.4543   64.316502  19.176839  0.40075    2.180006   2073.547241
182.9      459.7277   65.12545   19.09569   0.404963   2.211686   2073.52002
183        459.8188   65.20580699999999 18.699704  0.411955   2.257857   2073.615723
183.1      459.7733   65.03747199999999 18.641106  0.420166   2.295953   2073.438721
183.2      459.6821   64.950565  19.27862   0.426884   2.312765   2072.478027
183.3      459.3631   64.42215899999999 19.655238  0.429872   2.315638   2071.060791
183.4      458.953    63.472771  19.322446  0.42954    2.309753   2071.347412
