~Version
 VERS              .         2.0                           : CWLS LOG ASCII STANDARD - VERSION 2.0
 WRAP              .         NO                            : ONE LINE PER DEPTH STEP
 DLM               .         SPACE                         : DELIMITING CHARACTER(SPACE TAB OR COMMA)
~Well Information
#_______________________________________________________________________________
#
#PARAMETER_NAME    .UNIT     VALUE                         : DESCRIPTION
#_______________________________________________________________________________
STRT               .M        0                             : First reference value
STOP               .M        425.4                         : Last reference value
STEP               .M        0.1                           : Step increment
NULL               .         -9999                         : Missing value
COMP               .                                       : Company
WELL               .         B                             : Well name
FLD                .                                       : Field
LOC                .                                       : Location
CNTY               .                                       : County
STAT               .                                       : State
CTRY               .                                       : Country
SRVC               .                                       : Service Company
DATE               .                                       : Date
API                .                                       : API number
~Parameter Information Block
#_______________________________________________________________________________
#
#PARAMETER_NAME    .UNIT     VALUE                         : DESCRIPTION
#_______________________________________________________________________________
SET                .         Logs                          : 
TLFamily_DEPT      .         Measured Depth                : 
TLFamily_DT        .         Compressional Slowness        : 
TLFamily_GR        .         Gamma Ray                     : 
TLFamily_ILD       .         Resistivity - Deep            : 
TLFamily_NPOR_LIM  .         Thermal Neutron Porosity Limestone: 
TLFamily_PEF       .         Photoelectric Factor          : 
TLFamily_RHO       .         Bulk Density                  : 
~Curve Information
#_______________________________________________________________________________
#
#LOGNAME           .UNIT     LOG_ID                        : DESCRIPTION
#_______________________________________________________________________________
DEPT               .M                                      : Logged depth 
DT                 .us/m                                   : Compressional Slowness 
GR                 .GAPI                                   : MGS Gamma Ray 
ILD                .OHMM                                   : Array Ind. One Res 85 
NPOR_LIM           .V/V                                    : Base Neutron Porosity 
PEF                .B/E                                    : PE 
RHO                .K/M3                                   : Compensated Density 
~Ascii
# ...
356.3      414.9807   49.200075  17.585511  0.408847   2.072002   2121.628174
356.4      414.9351   50.474461  16.346738  0.414956   2.102371   2116.998779
356.5      414.6617   53.678654  14.086684  0.417748   2.137591   2121.03186
356.6      414.4795   57.804546  11.934512  0.41745    2.172095   2132.860718
356.7      414.844    61.933254  11.212463  0.413428   2.21374    2150.088257
356.8      415.892    65.667421  11.028172  0.404916   2.272362   2170.092773
356.9      417.4413   69.405609  10.359565  0.394514   2.332075   2191.0979 
357        419.264    72.91561900000001 9.89204    0.387846   2.376132   2205.742432
357.1      421.1323   75.09909399999999 8.904375999999999 0.389909   2.389735   2205.766357
357.2      422.9549   75.08432000000001 8.462508   0.400274   2.366631   2186.376587
357.3      424.5953   72.922607  10.344539  0.416023   2.305508   2149.129395
357.4      426.2813   69.15137900000001 12.569562  0.433133   2.222685   2101.616211
357.5      427.8306   64.409065  13.998119  0.448185   2.145036   2056.417847
357.6      429.0154   59.599482  15.115039  0.456729   2.091473   2028.740051
357.7      429.79     55.922991  16.789224  0.455773   2.06005    2024.094727
357.8      430.2197   53.307283  19.483568  0.445607   2.033235   2037.074097
357.9      429.9268   50.787989  21.243015  0.429186   2.0066     2055.587708
358        429.1065   48.269133  21.301892  0.409571   1.977189   2070.385498
358.1      427.7395   46.086243  22.661125  0.390056   1.952055   2077.444336
358.2      426.1446   44.129768  25.209767  0.375438   1.937836   2077.792969
358.3      424.3676   41.773325  26.883121  0.369179   1.933063   2075.871582
358.4      422.6815   39.279501  26.999853  0.370828   1.937209   2075.355957
358.5      421.0411   36.934311  25.993061  0.377095   1.949433   2077.250488
358.6      419.6741   35.058153  27.232891  0.385136   1.964679   2078.377686
358.7      418.3071   33.44206   30.353601  0.393229   1.973067   2076.130859
358.8      417.0312   32.355232  32.141185  0.399294   1.97144    2071.018311
358.9      415.7097   32.044529  33.081608  0.401589   1.964931   2066.189331
359        414.5706   32.300335  35.553032  0.400317   1.95922    2062.685669
359.1      413.6136   32.524578  39.492538  0.397171   1.953625   2059.734985
359.2      412.8846   32.550791  40.423563  0.39371    1.946693   2058.637695
359.3      412.2466   32.784863  37.797449  0.390179   1.947276   2060.998413
359.4      411.5176   33.315674  37.326557  0.386433   1.9579     2066.777588
359.5      410.6518   34.320385  38.362988  0.382983   1.977949   2075.830811
359.6      409.6493   36.230728  35.889231  0.381397   2.004169   2089.418457
359.7      408.419    39.529181  30.458697  0.382502   2.040999   2106.723145
359.8      407.052    43.687325  25.678524  0.385364   2.082003   2122.667358
359.9      405.6394   47.874117  22.347613  0.389111   2.115091   2133.50293
360        404.3179   51.49424   19.505458  0.393913   2.144798   2139.761719
360.1      403.1332   54.355385  18.458957  0.398396   2.179762   2144.446411
360.2      401.994    56.434542  19.582052  0.4009     2.212042   2151.936035
360.3      400.9004   57.947966  19.771358  0.400891   2.228152   2164.57959
360.4      399.7612   59.451626  17.862595  0.399193   2.232969   2180.516968
360.5      398.5309   60.39023   16.457357  0.395871   2.232451   2196.154175
360.6      397.2095   60.013256  15.755478  0.391486   2.213079   2205.336548
360.7      395.9792   57.826914  15.483269  0.388383   2.1692     2202.002075
360.8      395.1589   54.205723  17.101126  0.388033   2.118123   2185.456665
360.9      394.7032   49.786676  20.863565  0.389396   2.072002   2161.9021 
361        394.5666   45.093945  27.696464  0.390468   2.028812   2137.064331
361.1      394.4299   40.813593  36.637682  0.39035    1.990927   2114.369507
361.2      394.3843   37.427879  44.930565  0.388289   1.963763   2099.07019
361.3      394.1565   35.084734  51.87812   0.384843   1.944582   2093.845703
361.4      393.9742   33.275854  56.934481  0.381141   1.926863   2093.889893
361.5      393.7919   32.040926  59.777534  0.377082   1.90779    2093.059692
361.6      393.7008   31.085976  62.681887  0.371284   1.892731   2090.941772
361.7      393.6552   30.212103  68.751476  0.362873   1.882455   2087.451904
361.8      393.6096   29.729839  76.23203700000001 0.353068   1.872626   2082.786621
361.9      393.5641   29.924754  82.39619399999999 0.343288   1.864806   2080.092163
362        393.0173   30.692183  87.411411  0.335082   1.860895   2082.097534
362.1      392.0604   31.792454  92.34250299999999 0.330767   1.857942   2087.070313
362.2      390.5111   32.893162  96.823109  0.332189   1.852363   2091.508301
362.3      388.8707   33.423273  99.483536  0.33861    1.849122   2093.868042
362.4      387.048    33.046219  101.424992 0.347112   1.850688   2093.96228
362.5      385.6354   32.029182  102.985912 0.355467   1.852436   2092.472534
362.6      384.6329   30.874336  102.857986 0.362631   1.855048   2090.6698 
362.7      384.2228   29.800822  102.048973 0.368763   1.865779   2088.293823
362.8      384.0861   28.940593  101.797375 0.373723   1.885106   2084.203735
362.9      384.2228   28.131221  101.473236 0.378489   1.90279    2078.329712
363        384.5417   27.048475  103.654537 0.383874   1.914201   2071.214478
363.1      384.8607   25.943409  107.101791 0.38957    1.916459   2064.851196
363.2      385.2708   25.647313  108.339836 0.393947   1.90624    2062.72937
363.3      385.8177   26.20365   109.026928 0.396328   1.887973   2065.734131
363.4      386.8657   26.887889  109.203381 0.397564   1.872977   2070.062866
363.5      388.415    27.605375  110.554073 0.398377   1.865926   2071.829468
363.6      390.6934   28.099051  114.065163 0.398219   1.86519    2070.748291
363.7      393.5185   28.138847  116.503147 0.39622    1.869122   2067.488037
363.8      396.6627   28.04588   116.725185 0.392815   1.871284   2063.102783
363.9      399.6701   28.943308  113.097488 0.388973   1.874101   2061.02832
364        402.4041   31.711535  104.245201 0.386278   1.888707   2065.260986
364.1      404.8192   36.160656  89.037418  0.386042   1.935789   2075.903076
364.2      406.5898   41.697353  68.622095  0.389373   2.004557   2089.419556
364.3      408.5557   47.021162  52.512503  0.396113   2.065003   2102.4552 
364.4      409.7404   50.530737  44.350512  0.40438    2.093076   2111.704956
364.5      410.3784   50.827036  43.2966    0.41059    2.083504   2115.32312
364.6      410.4695   47.943441  54.151806  0.411847   2.040154   2112.944458
364.7      409.9683   42.994556  76.37298   0.408315   1.978654   2104.982788
364.8      409.0114   37.389978  99.954689  0.40242    1.927415   2092.957275
364.9      407.052    32.824167  117.947433 0.396859   1.903579   2080.846802
365        404.5913   30.019229  131.115387 0.392805   1.901127   2072.524658
365.1      401.7662   28.822709  141.416542 0.391407   1.898637   2068.777588
365.2      399.26     28.19056   148.913612 0.392426   1.892384   2068.421387
365.3      396.936    27.390695  152.934769 0.394567   1.885791   2070.443848
365.4      395.4323   26.115338  154.661163 0.396401   1.881477   2072.927002
365.5      394.7488   24.55264   155.184143 0.39789    1.877437   2071.721924
365.6      394.7033   23.030058  154.248749 0.399766   1.871449   2066.294922
365.7      394.7488   21.867461  151.817879 0.402343   1.867451   2059.085205
365.8      395.0222   21.514994  146.049515 0.405591   1.868483   2052.159302
365.9      395.569    22.097308  136.919235 0.408551   1.871475   2049.268921
366        396.207    23.57798   130.118942 0.409374   1.875187   2053.487427
366.1      396.7538   25.819371  127.117035 0.406739   1.880543   2061.912598
366.2      397.1183   28.41122   126.449932 0.400658   1.887599   2069.428589
366.3      397.3006   30.687858  130.214359 0.392503   1.888215   2074.435059
366.4      397.6196   32.307353  135.559258 0.384018   1.879261   2076.474731
