~Version
 VERS              .         2.0                           : CWLS LOG ASCII STANDARD - VERSION 2.0
 WRAP              .         NO                            : ONE LINE PER DEPTH STEP
 DLM               .         SPACE                         : DELIMITING CHARACTER(SPACE TAB OR COMMA)
~Well Information
#_______________________________________________________________________________
#
#PARAMETER_NAME    .UNIT     VALUE                         : DESCRIPTION
#_______________________________________________________________________________
STRT               .M        0                             : First reference value
STOP               .M        425.4                         : Last reference value
STEP               .M        0.1                           : Step increment
NULL               .         -9999                         : Missing value
COMP               .                                       : Company
WELL               .         B                             : Well name
FLD                .                                       : Field
LOC                .                                       : Location
CNTY               .                                       : County
STAT               .                                       : State
CTRY               .                                       : Country
SRVC               .                                       : Service Company
DATE               .                                       : Date
API                .                                       : API number
~Parameter Information Block
#_______________________________________________________________________________
#
#PARAMETER_NAME    .UNIT     VALUE                         : DESCRIPTION
#_______________________________________________________________________________
SET                .         Logs                          : 
TLFamily_DEPT      .         Measured Depth                : 
TLFamily_DT        .         Compressional Slowness        : 
TLFamily_GR        .         Gamma Ray                     : 
TLFamily_ILD       .         Resistivity - Deep            : 
TLFamily_NPOR_LIM  .         Thermal Neutron Porosity Limestone: 
TLFamily_PEF       .         Photoelectric Factor          : 
TLFamily_RHO       .         Bulk Density                  : 
~Curve Information
#_______________________________________________________________________________
#
#LOGNAME           .UNIT     LOG_ID                        : DESCRIPTION
#_______________________________________________________________________________
DEPT               .M                                      : Logged depth 
DT                 .us/m                                   : Compressional Slowness 
GR                 .GAPI                                   : MGS Gamma Ray 
ILD                .OHMM                                   : Array Ind. One Res 85 
NPOR_LIM           .V/V                                    : Base Neutron Porosity 
PEF                .B/E                                    : PE 
RHO                .K/M3                                   : Compensated Density 
~Ascii
# ...
305.6      431.1571   92.368172  5.341745   0.478923   2.827575   2238.120483
305.7      434.4379   90.298618  5.031043   0.492719   2.821051   2246.654297
305.8      436.9441   89.187988  4.866575   0.502183   2.820156   2253.428101
305.9      438.8579   89.440151  4.833588   0.504368   2.817102   2257.78125
306        440.0882   90.755985  4.721621   0.498394   2.813753   2261.052856
306.1      440.954    92.021458  4.52322    0.484279   2.810402   2260.889771
306.2      441.5008   92.93798099999999 4.422392   0.465473   2.800634   2258.830688
306.3      441.9565   93.414288  4.605403   0.448861   2.796492   2258.875732
306.4      442.321    93.69618199999999 4.997864   0.439595   2.818581   2258.871704
306.5      442.64     93.678139  5.388819   0.437375   2.861164   2257.869263
306.6      442.8646   92.85762800000001 5.622724   0.439253   2.90132    2258.225098
306.7      443.4602   90.61845   5.661234   0.443354   2.925571   2261.204834
306.8      444.007    87.852245  5.602918   0.448239   2.927638   2265.292358
306.9      444.5082   86.265877  5.455312   0.452771   2.908185   2267.25647
307        444.9184   86.106098  5.098835   0.455996   2.878356   2266.845947
307.1      445.0095   86.882587  4.6878     0.457462   2.851166   2265.881836
307.2      444.6905   88.04454   4.471268   0.457262   2.825607   2263.254883
307.3      443.7791   88.937405  4.494591   0.456061   2.788671   2255.708252
307.4      442.321    88.01056699999999 4.881144   0.454932   2.744314   2242.893433
307.5      440.2705   85.22201200000001 5.703638   0.454106   2.698368   2225.798828
307.6      437.4453   81.947273  6.413426   0.454176   2.661594   2205.524902
307.7      433.9822   79.008121  6.582226   0.454002   2.640532   2183.707886
307.8      430.109    76.535492  6.642318   0.451587   2.632115   2165.404785
307.9      426.6459   74.926861  6.907942   0.444395   2.625534   2156.287964
308        423.0916   74.769981  7.109138   0.432825   2.616663   2155.185425
308.1      419.8564   75.687714  7.24036    0.419013   2.609824   2156.703735
308.2      416.53     76.34141200000001 7.491916   0.406018   2.599388   2159.030762
308.3      413.477    76.628117  7.644863   0.397431   2.585818   2161.141479
308.4      410.5607   77.22636799999999 7.511339   0.396334   2.573529   2162.046509
308.5      409.0114   78.208309  7.282296   0.40398    2.572475   2161.986694
308.6      409.4215   79.016964  7.170281   0.418472   2.593864   2159.729126
308.7      412.0644   79.407562  7.128179   0.435901   2.635097   2157.461548
308.8      416.5755   80.026871  6.984884   0.452554   2.682274   2160.834473
308.9      422.317    80.99945099999999 6.567584   0.468093   2.723622   2170.033936
309        428.742    82.042282  5.784892   0.485105   2.761196   2178.957764
309.1      435.3948   83.176411  4.702662   0.503806   2.788763   2183.968018
309.2      442.5944   84.837681  3.642749   0.521942   2.802869   2185.577515
309.3      450.3408   86.240334  3.02468    0.536316   2.811737   2184.687866
309.4      458.0873   87.02179   2.904412   0.546017   2.822335   2181.408936
309.5      465.5603   86.96758699999999 2.9418     0.549977   2.832223   2179.529785
309.6      471.9853   86.300106  2.947882   0.547941   2.834561   2182.861572
309.7      476.3142   85.578445  2.971476   0.540623   2.8418     2190.002197
309.8      477.6356   85.120316  3.06457    0.529091   2.883546   2198.505127
309.9      476.1775   84.972088  3.277637   0.514242   2.953294   2208.158691
310        472.4409   84.81560899999999 3.600644   0.496987   3.006202   2217.942993
310.1      466.6995   85.051956  3.762048   0.480861   3.006841   2224.884888
310.2      459.8644   85.41812899999999 3.913626   0.468044   2.960884   2225.093384
310.3      452.7104   85.33748199999999 4.865564   0.459206   2.881321   2216.105347
310.4      446.012    84.297882  5.881839   0.451572   2.780138   2200.010742
310.5      439.4503   83.266918  6.28184    0.442788   2.691759   2182.256958
310.6      433.5721   82.43595500000001 6.600485   0.432089   2.644871   2167.630249
310.7      428.3774   81.319756  6.913521   0.421451   2.631034   2158.18103
310.8      424.1397   79.985474  7.173381   0.414054   2.61901    2151.643921
310.9      420.4943   78.75438699999999 7.229412   0.411655   2.60484    2145.016724
311        417.7603   77.43795   7.155164   0.412392   2.594689   2138.455322
311.1      415.6186   75.725441  7.129555   0.412097   2.591129   2133.843506
311.2      414.0693   74.351105  7.134057   0.408224   2.599335   2131.855469
311.3      412.839    73.824146  7.145791   0.401803   2.611877   2132.887207
311.4      411.6543   73.55678899999999 7.230468   0.396492   2.618471   2137.039795
311.5      410.4695   72.97784799999999 7.311656   0.395915   2.617599   2141.496338
311.6      409.1936   72.426365  7.319809   0.400207   2.628305   2144.848511
311.7      405.7175   71.778522  7.385687   0.40654    2.702532   2147.767822
311.8      400.2108   70.261139  7.513021   0.410395   2.832747   2154.523071
311.9      387.2974   68.03587   7.734168   0.407718   3.012084   2170.002808
312        378.0738   65.935875  8.374999000000001 0.396108   3.250388   2200.158569
312.1      368.074    63.842436  9.116882   0.376418   3.555199   2251.564453
312.2      360.7522   61.447678  11.194335  0.354135   3.910408   2319.843872
312.3      355.2625   59.468994  16.147557  0.336322   4.198667   2388.015503
312.4      352.7504   58.988564  18.999438  0.328113   4.31124    2433.836792
312.5      353.4649   59.948334  15.948178  0.330839   4.195965   2440.752563
312.6      353.3282   62.273363  10.876651  0.343192   3.888417   2404.687622
312.7      354.1839   65.358261  8.074109999999999 0.361757   3.450051   2337.149292
312.8      357.2924   68.273235  7.555682   0.382306   3.012239   2260.439209
312.9      366.903    69.964703  7.547128   0.399566   2.705572   2196.280029
313        378.0722   70.362785  7.544736   0.410168   2.574665   2155.507446
313.1      394.9287   69.682011  7.495737   0.414144   2.560091   2135.54248
313.2      404.145    68.436504  7.526956   0.414003   2.560393   2128.644531
313.3      413.9813   67.43944500000001 7.645427   0.412281   2.570588   2127.009399
313.4      421.4452   66.873058  7.652117   0.410868   2.587328   2126.901489
313.5      426.0697   66.316029  7.559968   0.412102   2.607836   2129.539429
313.6      428.3918   65.48803700000001 7.478321   0.416824   2.629792   2135.747314
313.7      429.0518   64.994274  7.456342   0.423903   2.642269   2144.775513
313.8      429.1855   65.164574  7.447782   0.430902   2.634508   2153.707153
313.9      429.1976   66.06723   7.420682   0.436172   2.604318   2159.716309
314        429.0154   67.313427  7.405462   0.438269   2.560304   2160.724121
314.1      428.5597   68.271309  7.384518   0.436402   2.517208   2155.698242
314.2      428.2863   68.868145  7.384473   0.431477   2.485884   2147.24585
314.3      428.2407   68.96867399999999 7.412956   0.424629   2.46934    2137.971802
314.4      428.3774   68.95330800000001 7.449963   0.4172     2.463223   2129.777832
314.5      428.0585   69.05775800000001 7.453625   0.41001    2.468154   2124.703735
314.6      427.5572   69.86448300000001 7.482061   0.404691   2.483512   2124.726563
314.7      425.8712   71.199234  7.517059   0.402571   2.513071   2129.561157
314.8      424.1397   72.343872  7.484876   0.403625   2.592766   2143.107544
314.9      420.95     72.354187  7.371734   0.406112   2.841743   2171.075928
315        417.8058   70.834148  7.2524     0.407026   3.260456   2214.842163
315.1      412.9301   68.494091  7.555453   0.405184   3.714855   2267.476318
315.2      408.1912   66.51631500000001 9.138007   0.401301   4.040222   2313.12854
315.3      402.2219   65.60503799999999 10.457466  0.398303   4.159956   2339.343018
315.4      397.0728   65.665081  9.562954   0.398605   4.040003   2340.266235
315.5      391.9237   66.860619  8.280974000000001 0.403383   3.707489   2318.275146
315.6      388.4606   69.05950199999999 7.619573   0.411509   3.305776   2281.691528
