~Version
 VERS              .         2.0                           : CWLS LOG ASCII STANDARD - VERSION 2.0
 WRAP              .         NO                            : ONE LINE PER DEPTH STEP
 DLM               .         SPACE                         : DELIMITING CHARACTER(SPACE TAB OR COMMA)
~Well Information
#_______________________________________________________________________________
#
#PARAMETER_NAME    .UNIT     VALUE                         : DESCRIPTION
#_______________________________________________________________________________
STRT               .M        0                             : First reference value
STOP               .M        425.4                         : Last reference value
STEP               .M        0.1                           : Step increment
NULL               .         -9999                         : Missing value
COMP               .                                       : Company
WELL               .         B                             : Well name
FLD                .                                       : Field
LOC                .                                       : Location
CNTY               .                                       : County
STAT               .                                       : State
CTRY               .                                       : Country
SRVC               .                                       : Service Company
DATE               .                                       : Date
API                .                                       : API number
~Parameter Information Block
#_______________________________________________________________________________
#
#PARAMETER_NAME    .UNIT     VALUE                         : DESCRIPTION
#_______________________________________________________________________________
SET                .         Logs                          : 
TLFamily_DEPT      .         Measured Depth                : 
TLFamily_DT        .         Compressional Slowness        : 
TLFamily_GR        .         Gamma Ray                     : 
TLFamily_ILD       .         Resistivity - Deep            : 
TLFamily_NPOR_LIM  .         Thermal Neutron Porosity Limestone: 
TLFamily_PEF       .         Photoelectric Factor          : 
TLFamily_RHO       .         Bulk Density                  : 
~Curve Information
#_______________________________________________________________________________
#
#LOGNAME           .UNIT     LOG_ID                        : DESCRIPTION
#_______________________________________________________________________________
DEPT               .M                                      : Logged depth 
DT                 .us/m                                   : Compressional Slowness 
GR                 .GAPI                                   : MGS Gamma Ray 
ILD                .OHMM                                   : Array Ind. One Res 85 
NPOR_LIM           .V/V                                    : Base Neutron Porosity 
PEF                .B/E                                    : PE 
RHO                .K/M3                                   : Compensated Density 
~Ascii
# ...
285.7      416.1654   62.830317  15.45816   0.423249   2.506558   2102.453979
285.8      416.3932   63.75758   15.483431  0.423741   2.512342   2102.881958
285.9      416.6667   64.97717299999999 15.501793  0.423939   2.528947   2105.302979
286        417.0312   66.16990699999999 15.472831  0.423585   2.550631   2108.181152
286.1      417.2135   66.866871  15.130413  0.421851   2.57317    2109.499268
286.2      417.259    66.912834  14.449626  0.418691   2.594117   2109.289429
286.3      417.1223   67.08970600000001 13.343748  0.415085   2.611459   2108.378296
286.4      416.7122   67.683357  12.226148  0.413187   2.625393   2107.121338
286.5      415.892    67.91102600000001 11.327368  0.413912   2.640074   2107.31311
286.6      414.844    67.816742  10.443915  0.41669    2.692552   2113.029541
286.7      413.7048   67.409637  9.781993   0.418742   2.82553    2127.018433
286.8      412.6568   66.40180599999999 9.441936   0.418815   2.999856   2148.109985
286.9      411.6087   64.539118  9.073945   0.416945   3.142483   2169.896484
287        410.834    62.678047  8.50108    0.414236   3.210974   2185.825684
287.1      410.0594   61.318359  8.223096   0.410779   3.191476   2191.690186
287.2      409.6493   60.497473  8.906112   0.406626   3.072885   2187.835205
287.3      409.3303   60.469013  9.639481999999999 0.402465   2.893369   2175.547241
287.4      409.4215   61.656475  9.560320000000001 0.398397   2.741246   2159.499146
287.5      410.4695   63.802002  9.159478999999999 0.395464   2.664242   2144.735962
287.6      412.2466   65.961433  8.698232000000001 0.395143   2.635324   2133.316772
287.7      414.1149   67.869469  8.408105000000001 0.399634   2.622114   2124.10437
287.8      416.7122   69.690578  8.191996   0.408457   2.62451    2116.572388
287.9      419.0362   71.53564799999999 7.852647   0.420193   2.631842   2113.570068
288        421.679    73.10890999999999 7.514975   0.432569   2.647526   2115.066528
288.1      423.8207   74.422409  6.9997     0.445145   2.665484   2122.272827
288.2      426.3269   75.854179  6.283063   0.457196   2.689914   2134.420898
288.3      428.6964   77.607285  5.966242   0.467744   2.722914   2150.741821
288.4      431.476    78.967991  5.770098   0.474924   2.760924   2169.134888
288.5      434.2556   79.611214  5.546179   0.477861   2.80025    2185.716187
288.6      437.3542   80.035759  5.358131   0.477473   2.835981   2196.07605
288.7      440.5895   80.416584  5.135054   0.475647   2.858577   2201.366821
288.8      444.007    80.645161  5.009592   0.476172   2.858316   2204.778687
288.9      447.8802   80.973919  4.742463   0.481412   2.855709   2205.34668
289        451.9357   81.90770000000001 4.351      0.490966   2.865734   2203.626709
289.1      456.0823   83.53557600000001 4.126048   0.501251   2.887852   2203.196411
289.2      459.9555   85.512569  4.135684   0.510749   2.906144   2206.641235
289.3      463.5554   87.41959   4.133387   0.519247   2.928254   2210.332031
289.4      466.6083   89.529381  4.049522   0.52711    2.947956   2213.606323
289.5      469.2968   91.53442   3.87492    0.5341320000000001 2.942208   2221.5    
289.6      471.6663   92.64774300000001 3.713836   0.540311   2.921458   2232.559814
289.7      473.8991   92.847069  3.567151   0.545249   2.908741   2240.976685
289.8      475.9496   93.10038   3.420966   0.5482     2.910693   2245.251709
289.9      477.8179   93.37571   3.388315   0.548857   2.917519   2245.695068
290        479.4583   93.14821999999999 3.390465   0.546811   2.925565   2241.682251
290.1      480.8253   92.941963  3.415637   0.5420469999999999 2.940762   2234.598755
290.2      481.7823   93.550606  3.434825   0.53571    2.961283   2227.225708
290.3      482.2379   93.967056  3.378447   0.528886   2.968925   2221.896606
290.4      482.0101   93.226597  3.249414   0.5217619999999999 2.955308   2219.60022
290.5      481.1443   92.135586  3.133231   0.5164800000000001 2.929794   2217.431763
290.6      479.7317   90.894222  3.254197   0.514638   2.904795   2212.760986
290.7      477.7723   89.230343  3.56925    0.515018   2.886827   2203.925903
290.8      475.3117   87.892056  3.970368   0.513073   2.89066    2193.184814
290.9      472.2131   87.63932800000001 4.357161   0.50668    2.925046   2185.00293
291        468.6133   87.92041399999999 4.783453   0.495456   2.977244   2183.464355
291.1      464.4667   88.305695  5.326506   0.48121    3.02162    2190.34082
291.2      460.0922   88.87755199999999 5.642451   0.466754   3.051253   2202.962646
291.3      455.6266   89.062611  5.651263   0.456807   3.065942   2216.453491
291.4      451.3433   88.329689  5.704333   0.455398   3.063061   2227.786987
291.5      447.6068   87.718067  5.849554   0.46304    3.046257   2235.484619
291.6      444.6905   88.041042  5.888055   0.478088   3.03092    2238.150757
291.7      442.8678   88.53266499999999 5.711548   0.496189   3.018159   2238.419312
291.8      442.002    88.522285  5.482629   0.513605   2.999513   2240.177368
291.9      442.4121   88.564396  5.381609   0.5251980000000001 2.972042   2242.367188
292        443.6425   88.91262399999999 5.334114   0.527419   2.940884   2241.539063
292.1      445.6474   89.816456  5.269846   0.5208429999999999 2.902836   2238.378296
292.2      448.0625   91.562111  5.033952   0.51089    2.855621   2235.984131
292.3      451.161    94.331768  4.560191   0.501916   2.819257   2233.813354
292.4      454.852    96.864632  4.046991   0.49543    2.805067   2230.198975
292.5      459.0898   97.93182   3.756932   0.492922   2.809463   2227.870239
292.6      463.8743   97.339485  3.651903   0.496297   2.819057   2229.576904
292.7      468.8867   95.552769  3.47975    0.506538   2.832359   2233.206543
292.8      473.8991   92.961658  3.303169   0.5208159999999999 2.839627   2235.918945
292.9      478.547    90.51073100000001 3.199957   0.536488   2.829426   2236.774292
293        482.8303   89.98680899999999 3.071243   0.551018   2.80761    2234.696289
293.1      486.5668   91.446224  2.937669   0.5632     2.786582   2228.584229
293.2      489.9388   93.46487399999999 2.821819   0.57117    2.771583   2219.481079
293.3      492.9918   94.98499700000001 2.716943   0.575012   2.7626     2210.286133
293.4      495.8169   96.231667  2.583531   0.578358   2.760215   2204.269287
293.5      498.4598   96.68868999999999 2.44828    0.583878   2.757808   2202.254761
293.6      500.8293   95.810417  2.345971   0.5889489999999999 2.748671   2200.94873
293.7      502.9254   94.16395199999999 2.297702   0.58876    2.735427   2198.247437
293.8      504.3803   93.278828  2.32202    0.583825   2.725981   2193.538086
293.9      505.7962   93.87067399999999 2.384066   0.576661   2.727559   2189.63916
294        506.4796   95.09486   2.442559   0.569875   2.737832   2188.301025
294.1      506.7075   96.497456  2.477252   0.565321   2.748456   2190.778564
294.2      506.3429   97.509674  2.461321   0.564729   2.75517    2194.410767
294.3      505.4772   97.893936  2.433465   0.5657450000000001 2.753538   2194.651489
294.4      503.8823   97.61541699999999 2.430442   0.565167   2.738466   2189.781372
294.5      501.7407   96.887405  2.439629   0.56257    2.71897    2181.859619
294.6      498.8699   96.056335  2.500588   0.559123   2.708742   2175.42688
294.7      495.4524   95.14218099999999 2.641236   0.55543    2.712862   2174.149902
294.8      491.6248   94.33647499999999 2.807216   0.551565   2.721936   2181.884644
294.9      487.7971   93.398365  2.911086   0.547302   2.737071   2195.161865
295        484.0606   92.255436  3.025084   0.540334   2.757666   2208.992065
295.1      480.4152   90.780621  3.294176   0.529334   2.77336    2221.001099
295.2      476.8609   89.995304  3.694792   0.516293   2.779221   2229.174927
295.3      473.3067   90.249786  3.984706   0.505248   2.778542   2231.952393
295.4      469.5702   90.61604699999999 4.062188   0.497637   2.771822   2230.020264
295.5      465.4236   90.511627  4.145926   0.492876   2.7525     2227.027954
