~Version
 VERS              .         2.0                           : CWLS LOG ASCII STANDARD - VERSION 2.0
 WRAP              .         NO                            : ONE LINE PER DEPTH STEP
 DLM               .         SPACE                         : DELIMITING CHARACTER(SPACE TAB OR COMMA)
~Well Information
#_______________________________________________________________________________
#
#PARAMETER_NAME    .UNIT     VALUE                         : DESCRIPTION
#_______________________________________________________________________________
STRT               .M        0                             : First reference value
STOP               .M        425.4                         : Last reference value
STEP               .M        0.1                           : Step increment
NULL               .         -9999                         : Missing value
COMP               .                                       : Company
WELL               .         B                             : Well name
FLD                .                                       : Field
LOC                .                                       : Location
CNTY               .                                       : County
STAT               .                                       : State
CTRY               .                                       : Country
SRVC               .                                       : Service Company
DATE               .                                       : Date
API                .                                       : API number
~Parameter Information Block
#_______________________________________________________________________________
#
#PARAMETER_NAME    .UNIT     VALUE                         : DESCRIPTION
#_______________________________________________________________________________
SET                .         Logs                          : 
TLFamily_DEPT      .         Measured Depth                : 
TLFamily_DT        .         Compressional Slowness        : 
TLFamily_GR        .         Gamma Ray                     : 
TLFamily_ILD       .         Resistivity - Deep            : 
TLFamily_NPOR_LIM  .         Thermal Neutron Porosity Limestone: 
TLFamily_PEF       .         Photoelectric Factor          : 
TLFamily_RHO       .         Bulk Density                  : 
~Curve Information
#_______________________________________________________________________________
#
#LOGNAME           .UNIT     LOG_ID                        : DESCRIPTION
#_______________________________________________________________________________
DEPT               .M                                      : Logged depth 
DT                 .us/m                                   : Compressional Slowness 
GR                 .GAPI                                   : MGS Gamma Ray 
ILD                .OHMM                                   : Array Ind. One Res 85 
NPOR_LIM           .V/V                                    : Base Neutron Porosity 
PEF                .B/E                                    : PE 
RHO                .K/M3                                   : Compensated Density 
~Ascii
# ...
407.6      427.1471   49.155348  4.274486   0.438903   2.385329   2028.894836
407.7      430.7014   63.545177  3.654864   0.430615   2.497437   2083.183228
407.8      434.848    77.678303  3.372353   0.427387   2.580433   2150.276978
407.9      438.9946   90.054447  3.19223    0.427145   2.608453   2207.301758
408        442.3666   99.679661  3.129386   0.429465   2.597357   2239.645508
408.1      445.1006   105.676517 3.114761   0.435398   2.592063   2253.340332
408.2      446.1031   108.006413 3.139342   0.4448     2.602198   2259.428223
408.3      445.374    107.358337 3.179104   0.459151   2.616476   2260.002563
408.4      443.0957   105.031666 3.2087     0.47914    2.629622   2253.030151
408.5      440.3616   101.69434  3.268952   0.500943   2.635354   2237.191528
408.6      436.9897   98.20539100000001 3.33452    0.517914   2.616371   2212.738403
408.7      432.3874   95.449848  3.401875   0.525885   2.582163   2184.102783
408.8      426.737    93.863895  3.513971   0.524163   2.550348   2161.382813
408.9      420.4487   92.712067  3.609803   0.51269    2.522744   2159.105103
409        415.1825   91.25734300000001 3.628137   0.493737   2.493094   2182.223755
409.1      407.9178   89.742542  3.553387   0.471777   2.462359   2223.699219
409.2      402.5408   88.22927900000001 3.51337    0.450696   2.429161   2271.118164
409.3      398.2119   86.92612099999999 3.621973   0.43151    2.383383   2308.777832
409.4      395.4779   85.54293800000001 3.773621   0.414236   2.34101    2321.180786
409.5      392.6983   84.253517  3.872868   0.399376   2.337905   2307.735107
409.6      389.6453   83.100506  3.939826   0.387379   2.372567   2284.825317
409.7      386.2278   82.319695  3.950303   0.379022   2.422283   2266.952759
409.8      383.5849   81.903271  3.920869   0.375229   2.474066   2257.558716
409.9      381.1698   81.865082  4.009334   0.375999   2.516286   2257.518066
410        379.0281   82.102772  4.143651   0.379086   2.525473   2266.905518
410.1      377.3877   82.456863  4.134346   0.38073    2.489471   2281.099609
410.2      378.0257   82.560799  4.024621   0.37868    2.430152   2295.310425
410.3      378.7547   81.854885  3.948662   0.373183   2.390681   2311.606934
410.4      379.3471   80.62763200000001 4.013306   0.366408   2.419568   2332.764771
410.5      378.7547   79.595894  4.121164   0.359788   2.50629    2356.331055
410.6      372.4241   79.118881  4.116781   0.354128   2.616678   2378.196411
410.7      364.6046   78.88749300000001 4.139548   0.349626   2.723983   2396.527466
410.8      355.801    79.04807700000001 4.252597   0.346718   2.886064   2412.048706
410.9      350.4848   79.580147  4.3007     0.345546   3.106766   2427.964478
411        347.9999   80.17662   4.31656    0.345351   3.332317   2450.519653
411.1      349.1117   80.371746  4.342746   0.34523    3.644108   2482.853638
411.2      351.082    80.336006  4.243173   0.343602   4.04548    2520.750122
411.3      350.5558   80.200695  3.99029    0.339261   4.391263   2555.144653
411.4      346.3406   79.579536  3.637728   0.331317   4.591819   2575.629639
411.5      326.9716   78.622528  3.44473    0.320548   4.737824   2574.731323
411.6      315.9261   77.811314  3.658719   0.306966   4.853721   2554.556152
411.7      301.9378   77.155365  4.270444   0.28914    4.863462   2522.435303
411.8      285.8506   76.736824  5.063714   0.265561   4.80283    2488.32666
411.9      271.6325   77.00335699999999 6.050435   0.236806   4.78587    2464.480103
412        254.968    77.85157   7.475323   0.205628   4.819837   2463.040283
412.1      241.2895   78.41695   9.27033    0.175387   4.826985   2482.573853
412.2      221.0385   78.37635   11.810204  0.149488   4.871379   2511.126587
412.3      209.5988   78.074162  15.341852  0.12957    4.963165   2540.139526
412.4      201.5945   77.638035  18.581154  0.115384   5.036561   2567.073853
412.5      200.1288   77.229778  21.068109  0.105676   5.057838   2589.240112
412.6      199.0986   77.515362  23.009863  0.09975299999999999 5.044245   2605.067749
412.7      195.939    78.51823400000001 23.653005  0.096845   5.025199   2615.389038
412.8      194.3442   79.513813  23.107965  0.095554   5.002681   2621.743164
412.9      193.2961   80.142944  23.413767  0.094361   4.970392   2625.056641
413        193.0683   80.37859   26.144012  0.092404   4.931492   2624.53833
413.1      193.0683   80.136478  29.126154  0.08973399999999999 4.898325   2619.435669
413.2      193.3873   79.55294000000001 29.664462  0.086911   4.865709   2610.689331
413.3      193.843    79.010036  28.107929  0.084485   4.836596   2601.793335
413.4      194.3898   78.74046300000001 27.131071  0.08290400000000001 4.822717   2595.430664
413.5      194.9821   78.51982099999999 27.802592  0.082345   4.828579   2592.892944
413.6      195.5289   -9999      28.395041  0.082762   4.841552   2593.893433
413.7      196.1669   -9999      27.995245  0.083732   4.854486   2597.629272
413.8      196.9415   -9999      26.559345  0.084948   4.861025   2601.97998
413.9      197.8529   -9999      24.887359  0.086268   4.857987   2605.089966
414        198.8553   -9999      23.692595  0.08759599999999999 4.838017   2606.623169
414.1      199.8578   -9999      23.064086  0.088697   4.810075   2607.172241
414.2      200.997    -9999      22.977726  0.089376   4.78986    2606.293945
414.3      202.2729   -9999      22.460569  0.089633   4.788361   2603.27002
414.4      203.731    -9999      21.226503  0.089439   4.787721   2600.377075
414.5      205.1436   -9999      19.788973  0.08887200000000001 4.778625   2600.359985
414.6      206.6473   -9999      18.872438  0.08817700000000001 4.764056   2603.676392
414.7      208.1055   -9999      18.356005  0.08773599999999999 4.748417   2608.986938
414.8      209.7003   -9999      17.848267  0.08779000000000001 4.734674   2613.684326
414.9      211.3408   -9999      17.610033  0.088201   4.734092   2615.960205
415        213.2546   -9999      17.477818  0.088632   4.751985   2613.976685
415.1      215.214    -9999      17.16953   0.088672   4.754714   2607.857056
415.2      217.2645   -9999      16.652697  0.088251   4.728411   2600.152466
415.3      218.9961   -9999      15.993496  0.087578   4.696331   2595.24707
415.4      220.4998   -9999      15.250237  0.087064   4.683598   2595.136353
415.5      221.639    -9999      14.579161  0.08692900000000001 4.676367   2597.633057
415.6      222.687    -9999      14.375997  0.087168   4.674109   2600.093872
415.7      223.5072   -9999      14.62419   0.08760999999999999 4.682655   2602.160278
415.8      224.2363   -9999      14.810802  0.08803800000000001 4.694859   2604.182739
415.9      224.8287   -9999      14.967523  0.088355   4.690492   2604.796021
416        225.3299   -9999      15.354623  0.088503   4.674632   2603.697998
416.1      225.74     -9999      15.82299   -9999      4.657089   2601.292358
416.2      226.1045   -9999      15.581031  -9999      4.636552   2597.664673
416.3      226.378    -9999      15.021758  -9999      4.606653   2591.423462
416.4      226.6058   -9999      15.153042  -9999      4.566283   2585.421265
416.5      226.6969   -9999      15.66686   -9999      4.526377   2582.827515
416.6      226.5602   -9999      15.989923  -9999      4.496164   2583.074585
416.7      225.9223   -9999      16.21439   -9999      4.475827   2585.322021
416.8      225.0109   -9999      16.437239  -9999      4.454865   2587.671997
416.9      223.7806   -9999      16.43836   -9999      4.439799   2589.327637
417        222.7326   -9999      16.704787  -9999      4.436351   2590.443481
417.1      221.7301   -9999      17.354836  -9999      4.440895   2591.596313
417.2      221.1833   -9999      17.783617  -9999      4.448375   2592.187622
417.3      220.7732   -9999      18.002188  -9999      4.463171   2591.900269
417.4      220.5909   -9999      18.248024  -9999      4.479899   2591.00415
417.5      -9999      -9999      18.491262  -9999      4.497427   2589.818726
417.6      -9999      -9999      18.715802  -9999      4.527803   2588.722168
