~Version
 VERS              .         2.0                           : CWLS LOG ASCII STANDARD - VERSION 2.0
 WRAP              .         NO                            : ONE LINE PER DEPTH STEP
 DLM               .         SPACE                         : DELIMITING CHARACTER(SPACE TAB OR COMMA)
~Well Information
#_______________________________________________________________________________
#
#PARAMETER_NAME    .UNIT     VALUE                         : DESCRIPTION
#_______________________________________________________________________________
STRT               .M        0                             : First reference value
STOP               .M        425.4                         : Last reference value
STEP               .M        0.1                           : Step increment
NULL               .         -9999                         : Missing value
COMP               .                                       : Company
WELL               .         B                             : Well name
FLD                .                                       : Field
LOC                .                                       : Location
CNTY               .                                       : County
STAT               .                                       : State
CTRY               .                                       : Country
SRVC               .                                       : Service Company
DATE               .                                       : Date
API                .                                       : API number
~Parameter Information Block
#_______________________________________________________________________________
#
#PARAMETER_NAME    .UNIT     VALUE                         : DESCRIPTION
#_______________________________________________________________________________
SET                .         Logs                          : 
TLFamily_DEPT      .         Measured Depth                : 
TLFamily_DT        .         Compressional Slowness        : 
TLFamily_GR        .         Gamma Ray                     : 
TLFamily_ILD       .         Resistivity - Deep            : 
TLFamily_NPOR_LIM  .         Thermal Neutron Porosity Limestone: 
TLFamily_PEF       .         Photoelectric Factor          : 
TLFamily_RHO       .         Bulk Density                  : 
~Curve Information
#_______________________________________________________________________________
#
#LOGNAME           .UNIT     LOG_ID                        : DESCRIPTION
#_______________________________________________________________________________
DEPT               .M                                      : Logged depth 
DT                 .us/m                                   : Compressional Slowness 
GR                 .GAPI                                   : MGS Gamma Ray 
ILD                .OHMM                                   : Array Ind. One Res 85 
NPOR_LIM           .V/V                                    : Base Neutron Porosity 
PEF                .B/E                                    : PE 
RHO                .K/M3                                   : Compensated Density 
~Ascii
# ...
335.9      415.6186   45.010731  4.439676   0.340726   2.049344   2141.756348
336        415.8465   44.618189  4.558124   0.351342   2.046793   2144.297729
336.1      416.211    44.106077  4.707941   0.359032   2.050205   2148.274292
336.2      416.1654   43.654406  4.843748   0.361994   2.059423   2150.274414
336.3      415.892    43.685436  5.025197   0.360662   2.066846   2149.246338
336.4      415.3452   44.159184  5.065285   0.357964   2.070376   2145.091187
336.5      414.9351   44.245609  4.707323   0.356279   2.066269   2137.581177
336.6      414.7984   43.313267  4.352927   0.356271   2.053814   2128.352417
336.7      415.0262   41.786324  4.354676   0.356461   2.036859   2120.846924
336.8      415.4363   40.179329  4.479977   0.355093   2.021461   2116.094971
336.9      416.0287   38.837505  4.484516   0.351056   2.01087    2114.305542
337        416.7122   37.737782  4.481921   0.344626   2.004115   2115.251709
337.1      417.4413   37.232357  4.555466   0.338128   1.998335   2117.153198
337.2      417.4869   37.132046  4.500953   0.334025   1.990146   2117.399292
337.3      416.7122   36.837914  4.23801    0.333353   1.979354   2114.709473
337.4      414.5706   36.236149  4.009668   0.334953   1.963671   2110.067261
337.5      411.2897   35.999205  3.911433   0.337852   1.946971   2103.018677
337.6      406.7786   36.577145  3.877468   0.341229   1.946957   2096.392578
337.7      402.0852   38.261257  3.902657   0.343591   2.049776   2093.591919
337.8      397.4373   41.723871  4.089464   0.343258   2.253446   2100.528809
337.9      393.3818   47.362478  4.51931    0.340324   2.480438   2123.413452
338        389.5542   55.238419  5.574269   0.336873   2.655259   2165.168701
338.1      386.1822   64.648937  6.613813   0.334803   2.845175   2220.212402
338.2      383.4482   74.089298  6.621438   0.335636   3.02847    2277.655884
338.3      381.0787   81.477806  6.271697   0.340517   3.106277   2329.243774
338.4      379.3927   84.998688  6.42631    0.348961   3.061557   2363.540894
338.5      378.4358   84.031132  6.89343    0.356869   2.962402   2371.731689
338.6      378.3707   79.59222   7.186304   0.359989   2.814537   2354.425903
338.7      380.8053   73.610142  7.325337   0.357206   2.56646    2322.831909
338.8      383.3115   67.980373  7.291969   0.350496   2.316923   2284.829834
338.9      385.8177   63.997381  7.043452   0.342394   2.158713   2247.283447
339        387.8226   62.128777  6.815808   0.335046   2.101953   2219.229858
339.1      388.5973   62.275852  6.886468   0.33037    2.078583   2204.330322
339.2      388.1416   63.656973  7.309456   0.328623   2.088016   2202.456909
339.3      387.3214   65.982513  7.721695   0.329061   2.132293   2212.657227
339.4      386.1822   69.41576000000001 7.705522   0.330604   2.208172   2232.332764
339.5      385.4987   73.765366  7.254182   0.333218   2.303433   2253.184448
339.6      384.9519   78.16589399999999 6.827498   0.336961   2.397551   2271.071167
339.7      384.9063   82.542976  6.860353   0.342458   2.482165   2285.757324
339.8      384.8152   86.657066  7.053956   0.350343   2.54848    2295.60022
339.9      385.1342   89.817047  6.910363   0.360566   2.596059   2299.319458
340        385.9544   92.08273699999999 6.646352   0.371762   2.628482   2301.427002
340.1      387.3669   93.941418  6.532994   0.380943   2.647075   2307.124268
340.2      389.0985   95.176395  6.500921   0.385252   2.652556   2315.392212
340.3      391.0579   95.734364  6.463793   0.383626   2.651751   2322.79187
340.4      392.835    96.418629  6.431661   0.378233   2.654728   2328.881348
340.5      394.2932   97.050617  6.405751   0.373165   2.65106    2334.594116
340.6      395.2501   96.663048  6.31515    0.371605   2.621286   2335.43396
340.7      396.0247   94.091179  6.174638   0.374099   2.55317    2325.645386
340.8      396.6171   89.42158499999999 6.177079   0.377654   2.457654   2305.223511
340.9      397.5284   83.717884  6.682036   0.378172   2.365508   2281.751465
341        398.4398   78.71372599999999 7.44016    0.373432   2.31912    2262.95874
341.1      399.3511   76.143066  7.791296   0.364646   2.336112   2254.719604
341.2      399.7612   76.489594  7.41575    0.355327   2.403687   2260.480469
341.3      399.6701   79.13682900000001 6.754916   0.348402   2.487348   2277.473145
341.4      398.8954   82.352188  6.421517   0.345209   2.54038    2295.042114
341.5      397.8018   83.701778  6.333945   0.344814   2.528634   2302.485596
341.6      396.6627   82.38974   6.516248   0.345183   2.464359   2298.276123
341.7      395.6602   80.341576  7.221312   0.344418   2.40377    2288.360962
341.8      394.8856   79.397003  8.056862000000001 0.343034   2.387003   2280.764771
341.9      394.202    80.55735   8.107962000000001 0.342826   2.421823   2280.427856
342        393.473    84.032188  7.38313    0.345376   2.495756   2289.077515
342.1      392.3338   88.517658  6.763446   0.349997   2.585609   2303.839844
342.2      390.9668   91.857433  6.538389   0.354316   2.656827   2317.851929
342.3      389.5542   93.083611  6.409596   0.356057   2.69204    2326.464478
342.4      388.1871   92.91022100000001 6.393474   0.354297   2.6897     2330.578613
342.5      386.8201   92.207054  6.469543   0.349689   2.661086   2332.536743
342.6      385.681    91.736542  6.505765   0.343856   2.637245   2332.673828
342.7      384.8152   92.408264  6.582129   0.339063   2.632433   2330.937378
342.8      384.1317   93.923447  6.648433   0.336806   2.640672   2329.324951
342.9      383.5849   94.942616  6.543146   0.33657    2.641302   2327.971313
343        383.2203   94.985619  6.466145   0.336361   2.639669   2326.33252
343.1      383.2203   94.94582699999999 6.564226   0.335516   2.647752   2325.043213
343.2      383.5849   95.41648499999999 6.722126   0.334652   2.662943   2327.459106
343.3      384.3595   96.551559  6.750088   0.3345     2.676568   2333.88623
343.4      385.4531   98.287811  6.512735   0.334683   2.705907   2341.178223
343.5      386.6834   100.222031 6.335764   0.334781   2.75093    2346.61377
343.6      387.9593   101.727432 6.323367   0.334441   2.78073    2348.8396 
343.7      389.1441   101.779602 6.210205   0.334254   2.768257   2346.565552
343.8      390.2377   99.586456  5.984575   0.335251   2.718184   2337.365112
343.9      391.149    95.187378  6.051124   0.338807   2.652528   2324.653687
344        391.787    90.425999  6.425294   0.345185   2.583203   2313.487549
344.1      392.1971   86.653717  6.804145   0.353047   2.520623   2305.721924
344.2      392.1971   84.066654  6.92909    0.359844   2.472238   2298.829346
344.3      392.4249   82.287178  6.801626   0.362817   2.438905   2290.50708
344.4      392.3793   81.409069  6.814341   0.361112   2.407126   2280.603027
344.5      392.4705   80.788799  7.398988   0.354924   2.385748   2270.797363
344.6      392.0604   79.56345   8.266626   0.346014   2.378787   2263.483643
344.7      392.0604   77.94760100000001 8.678134999999999 0.337034   2.382336   2260.057129
344.8      391.8781   76.431034  8.227897   0.332136   2.387866   2258.969604
344.9      392.1971   74.53246300000001 7.431272   0.334414   2.382533   2256.198853
345        392.4802   72.057816  7.566981   0.344017   2.350972   2247.953857
345.1      393.6552   69.539158  8.725564   0.35844    2.289158   2234.048706
345.2      394.2932   67.71005599999999 10.233757  0.373524   2.222764   2218.370972
345.3      394.521    66.49053600000001 11.697097  0.385305   2.175225   2207.194824
345.4      394.1565   65.591061  12.13644   0.389736   2.157193   2203.988892
345.5      393.4274   65.030869  10.850967  0.38603    2.164007   2209.487061
345.6      392.0604   65.04232399999999 9.411764   0.375688   2.193511   2221.325806
345.7      390.2377   65.70208   8.893616   0.361798   2.237809   2235.764404
345.8      387.9593   67.01598   8.552655   0.346682   2.285075   2250.891968
345.9      385.5898   69.155083  8.180593   0.332953   2.336316   2266.658813
346        383.2659   72.275677  7.981273   0.322909   2.392689   2282.046387
