~Version
 VERS              .         2.0                           : CWLS LOG ASCII STANDARD - VERSION 2.0
 WRAP              .         NO                            : ONE LINE PER DEPTH STEP
 DLM               .         SPACE                         : DELIMITING CHARACTER(SPACE TAB OR COMMA)
~Well Information
#_______________________________________________________________________________
#
#PARAMETER_NAME    .UNIT     VALUE                         : DESCRIPTION
#_______________________________________________________________________________
STRT               .M        0                             : First reference value
STOP               .M        425.4                         : Last reference value
STEP               .M        0.1                           : Step increment
NULL               .         -9999                         : Missing value
COMP               .                                       : Company
WELL               .         B                             : Well name
FLD                .                                       : Field
LOC                .                                       : Location
CNTY               .                                       : County
STAT               .                                       : State
CTRY               .                                       : Country
SRVC               .                                       : Service Company
DATE               .                                       : Date
API                .                                       : API number
~Parameter Information Block
#_______________________________________________________________________________
#
#PARAMETER_NAME    .UNIT     VALUE                         : DESCRIPTION
#_______________________________________________________________________________
SET                .         Logs                          : 
TLFamily_DEPT      .         Measured Depth                : 
TLFamily_DT        .         Compressional Slowness        : 
TLFamily_GR        .         Gamma Ray                     : 
TLFamily_ILD       .         Resistivity - Deep            : 
TLFamily_NPOR_LIM  .         Thermal Neutron Porosity Limestone: 
TLFamily_PEF       .         Photoelectric Factor          : 
TLFamily_RHO       .         Bulk Density                  : 
~Curve Information
#_______________________________________________________________________________
#
#LOGNAME           .UNIT     LOG_ID                        : DESCRIPTION
#_______________________________________________________________________________
DEPT               .M                                      : Logged depth 
DT                 .us/m                                   : Compressional Slowness 
GR                 .GAPI                                   : MGS Gamma Ray 
ILD                .OHMM                                   : Array Ind. One Res 85 
NPOR_LIM           .V/V                                    : Base Neutron Porosity 
PEF                .B/E                                    : PE 
RHO                .K/M3                                   : Compensated Density 
~Ascii
# ...
193.6      460.5934   65.465244  16.301999  0.399069   2.245884   2128.845215
193.7      460.0922   64.22779800000001 16.164406  0.40304    2.229855   2120.91394
193.8      459.6366   64.311893  15.997043  0.40198    2.225635   2118.654419
193.9      459.1809   65.838463  16.005432  0.397253   2.238456   2122.549072
194        458.8164   68.077759  15.809571  0.391945   2.259677   2130.224854
194.1      458.5885   69.465588  15.491328  0.388095   2.267048   2137.619507
194.2      458.3607   69.53447   15.619323  0.386313   2.25208    2142.491699
194.3      458.1784   69.053181  15.72558   0.385972   2.228183   2143.206421
194.4      457.905    68.651421  15.714501  0.386338   2.206061   2139.58313
194.5      457.6772   68.467178  15.849968  0.38681    2.193407   2135.068604
194.6      457.3582   68.399879  15.553073  0.388188   2.206439   2134.231323
194.7      457.2215   68.63168   14.770173  0.392308   2.249574   2138.781616
194.8      456.9937   69.19355   14.186957  0.399601   2.298876   2146.614502
194.9      456.6747   69.936226  13.834127  0.40679    2.329875   2154.697266
195        455.9912   70.458584  13.758943  0.409512   2.330642   2159.171631
195.1      455.0798   70.76009000000001 14.093325  0.406529   2.297759   2157.501831
195.2      453.8951   70.527084  14.615038  0.400101   2.239452   2148.146484
195.3      452.6648   69.603889  15.276242  0.393623   2.191775   2136.745117
195.4      451.5711   68.084057  15.219215  0.389882   2.250743   2134.668701
195.5      450.6598   66.730133  13.750663  0.390181   2.436382   2148.22229
195.6      449.9307   66.426929  11.715706  0.393792   2.675455   2177.04187
195.7      449.2928   67.217804  10.837268  0.39886    2.864608   2211.740356
195.8      448.8827   68.945255  11.014259  0.403269   2.954576   2239.159302
195.9      448.6548   70.700058  10.962698  0.406016   2.923898   2247.127808
196        448.5638   72.00872   10.932845  0.406637   2.782549   2233.417114
196.1      448.8827   72.44664400000001 11.127047  0.405728   2.609699   2204.364014
196.2      449.2928   72.209435  11.248217  0.404278   2.485545   2172.730347
196.3      449.9763   71.09465400000001 11.43405   0.403109   2.431332   2149.679321
196.4      450.5687   69.439159  11.811435  0.401438   2.392037   2136.874268
196.5      451.5711   67.656727  11.89706   0.398053   2.349947   2129.930786
196.6      452.4369   66.478149  12.272107  0.392093   2.310301   2123.855347
196.7      453.3027   66.246922  13.244006  0.383969   2.299105   2121.289429
196.8      453.7128   66.804565  13.838177  0.374812   2.324032   2123.442383
196.9      453.9862   68.39534   13.861334  0.367911   2.361818   2130.087402
197        453.7128   70.558605  13.459516  0.366371   2.397679   2140.120117
197.1      452.9382   72.037086  13.171878  0.370445   2.426672   2150.549072
197.2      451.8446   72.066784  12.652891  0.376798   2.4471     2156.471436
197.3      450.5687   71.083321  12.004194  0.382261   2.451168   2156.637817
197.4      449.1105   69.761494  12.150409  0.385844   2.458179   2155.153442
197.5      447.6524   68.583679  12.320434  0.38801    2.481933   2156.827393
197.6      446.4676   68.3661    12.044965  0.389256   2.506797   2163.436279
197.7      445.6474   69.387016  11.886791  0.389269   2.509024   2171.338623
197.8      445.1104   70.775181  12.077755  0.38699    2.493436   2176.707397
197.9      445.0095   71.54302199999999 12.425641  0.381458   2.479938   2178.21521
198        445.1917   71.25864   12.719577  0.375004   2.471219   2176.815186
198.1      445.6474   69.886662  12.821272  0.372067   2.45679    2171.872314
198.2      446.2854   67.23182300000001 13.146273  0.376866   2.437496   2162.399658
198.3      447.1967   64.238722  13.623435  0.388504   2.428768   2153.328613
198.4      448.0625   62.442245  13.466216  0.402802   2.445323   2151.301147
198.5      448.8371   62.823568  12.784443  0.414463   2.485813   2157.973267
198.6      449.2472   64.917862  11.982023  0.420699   2.536723   2172.168091
198.7      449.2928   67.653763  11.770304  0.421558   2.596167   2192.447388
198.8      448.5638   70.086853  12.095281  0.419625   2.648292   2215.291504
198.9      447.5612   71.950504  12.024463  0.416717   2.683299   2232.387207
199        446.4221   72.779217  11.92959   0.411673   2.687403   2238.143433
199.1      445.4652   72.54530699999999 12.069445  0.403253   2.665546   2233.632446
199.2      444.3715   72.07911300000001 12.297067  0.392205   2.624156   2223.553345
199.3      443.5058   72.242874  12.358817  0.382281   2.573424   2211.210815
199.4      442.7311   73.17115   12.026184  0.376417   2.522198   2200.150024
199.5      442.0932   74.514858  11.674974  0.375676   2.480545   2193.624512
199.6      441.3185   76.474087  11.37452   0.377723   2.462149   2192.440552
199.7      440.5439   78.627411  11.073749  0.379119   2.473323   2195.791138
199.8      439.4958   80.187527  10.850894  0.377269   2.531182   2201.851929
199.9      438.3111   80.889343  10.798499  0.372454   2.605572   2210.134521
200        436.9897   81.209633  11.058726  0.367185   2.665579   2220.172607
200.1      435.8504   80.960739  11.710501  0.364653   2.714869   2230.506348
200.2      434.848    79.975048  12.00744   0.366884   2.756422   2238.719849
200.3      434.3012   78.46041099999999 11.817355  0.373056   2.773954   2243.477783
200.4      433.9822   76.465237  11.79527   0.380937   2.762671   2245.686768
200.5      433.8455   73.75400500000001 11.753754  0.388189   2.739022   2246.636108
200.6      433.7544   70.44689200000001 11.275136  0.393655   2.718587   2244.271606
200.7      434.2101   67.93246499999999 11.020621  0.396451   2.68876    2237.209961
200.8      435.0303   67.250862  11.099659  0.395952   2.644704   2227.350952
200.9      436.2606   68.321136  11.417498  0.39167    2.596283   2216.327271
201        437.6276   70.781063  12.400119  0.38435    2.546366   2202.581421
201.1      439.0857   74.021156  13.400492  0.375819   2.496665   2187.505737
201.2      440.1794   77.520893  13.913953  0.367596   2.460956   2175.613892
201.3      440.9996   81.021851  14.401412  0.361401   2.438786   2167.726807
201.4      441.273    84.214844  14.705251  0.359152   2.423605   2161.482056
201.5      441.1819   86.761745  14.533525  0.363484   2.424507   2156.126953
201.6      440.635    88.88021500000001 14.282812  0.374289   2.43024    2153.945313
201.7      440.1338   90.88687899999999 14.094114  0.38888    2.432867   2155.083984
201.8      439.4958   92.36292299999999 14.133694  0.404358   2.42181    2156.711182
201.9      438.9491   92.535706  14.371854  0.418292   2.400066   2156.727295
202        438.2655   91.684681  14.667229  0.427828   2.376678   2155.408691
202.1      437.5365   91.492287  14.960885  0.429292   2.356071   2153.778809
202.2      436.4884   92.16849499999999 15.076716  0.422892   2.340477   2152.99707
202.3      435.2581   92.94675100000001 14.978636  0.411535   2.330065   2155.676392
202.4      433.9822   93.47742100000001 15.039899  0.398786   2.321704   2164.534668
202.5      432.6608   93.551216  15.288348  0.38611    2.305306   2176.942383
202.6      431.7038   91.822941  15.831     0.375704   2.279031   2186.660156
202.7      431.1571   87.488022  16.767102  0.368691   2.248312   2188.662964
202.8      431.2482   81.884815  17.472356  0.364298   2.218569   2182.229126
202.9      431.7038   77.13359800000001 18.013816  0.361637   2.194063   2167.826416
203        432.7519   73.716866  18.722157  0.361452   2.174889   2149.262451
203.1      434.3923   70.641655  19.484496  0.364447   2.155322   2132.597412
203.2      436.8985   66.645309  20.096659  0.369039   2.126584   2121.162354
203.3      440.1338   60.476271  19.779193  0.373658   2.082659   2117.079712
203.4      444.0981   51.726034  18.399067  0.377471   2.02469    2122.627075
203.5      448.427    41.650042  17.05837   0.379766   1.967761   2132.705322
203.6      452.7559   32.587098  16.432117  0.379714   1.929823   2136.896118
