~Version
 VERS              .         2.0                           : CWLS LOG ASCII STANDARD - VERSION 2.0
 WRAP              .         NO                            : ONE LINE PER DEPTH STEP
 DLM               .         SPACE                         : DELIMITING CHARACTER(SPACE TAB OR COMMA)
~Well Information
#_______________________________________________________________________________
#
#PARAMETER_NAME    .UNIT     VALUE                         : DESCRIPTION
#_______________________________________________________________________________
STRT               .M        0                             : First reference value
STOP               .M        425.4                         : Last reference value
STEP               .M        0.1                           : Step increment
NULL               .         -9999                         : Missing value
COMP               .                                       : Company
WELL               .         B                             : Well name
FLD                .                                       : Field
LOC                .                                       : Location
CNTY               .                                       : County
STAT               .                                       : State
CTRY               .                                       : Country
SRVC               .                                       : Service Company
DATE               .                                       : Date
API                .                                       : API number
~Parameter Information Block
#_______________________________________________________________________________
#
#PARAMETER_NAME    .UNIT     VALUE                         : DESCRIPTION
#_______________________________________________________________________________
SET                .         Logs                          : 
TLFamily_DEPT      .         Measured Depth                : 
TLFamily_DT        .         Compressional Slowness        : 
TLFamily_GR        .         Gamma Ray                     : 
TLFamily_ILD       .         Resistivity - Deep            : 
TLFamily_NPOR_LIM  .         Thermal Neutron Porosity Limestone: 
TLFamily_PEF       .         Photoelectric Factor          : 
TLFamily_RHO       .         Bulk Density                  : 
~Curve Information
#_______________________________________________________________________________
#
#LOGNAME           .UNIT     LOG_ID                        : DESCRIPTION
#_______________________________________________________________________________
DEPT               .M                                      : Logged depth 
DT                 .us/m                                   : Compressional Slowness 
GR                 .GAPI                                   : MGS Gamma Ray 
ILD                .OHMM                                   : Array Ind. One Res 85 
NPOR_LIM           .V/V                                    : Base Neutron Porosity 
PEF                .B/E                                    : PE 
RHO                .K/M3                                   : Compensated Density 
~Ascii
# ...
143.6      -9999      75.549313  20092.895508 0.562564   12.336949  2087.834351
143.7      -9999      74.543785  20034.214844 0.5739300000000001 12.235787  2096.834351
143.8      -9999      74.359058  19995.977539 0.598109   12.060737  2106.469971
143.9      -9999      74.058849  19985.858398 0.628255   11.903683  2114.027466
144        -9999      73.41184199999999 20002.400391 0.649842   11.820487  2115.842041
144.1      -9999      73.049072  20030.175781 0.654928   11.817963  2112.164551
144.2      -9999      73.61774800000001 20046.992188 0.6432909999999999 11.913739  2106.644897
144.3      -9999      74.49535400000001 20038.501953 0.62214    12.077857  2102.394287
144.4      -9999      74.930164  20011.567383 0.600607   12.226743  2098.940063
144.5      -9999      75.064995  19981.385742 0.585785   12.290697  2098.452393
144.6      -9999      74.89013300000001 19952.28418 0.580322   12.283774  2102.051758
144.7      -9999      74.364262  19924.696289 0.578664   12.259092  2107.461548
144.8      -9999      73.43861800000001 19907.949219 0.5734050000000001 12.224585  2110.806641
144.9      -9999      73.170582  19906.297852 0.560273   12.192731  2111.720459
145        -9999      73.388752  19909.408203 0.545848   12.155376  2110.11853
145.1      -9999      73.86125199999999 19907.081055 0.539478   12.097808  2105.87207
145.2      -9999      74.0215    19896.779297 0.545523   12.022553  2099.647095
145.3      -9999      74.156223  19887.183594 0.560044   11.967384  2095.197021
145.4      -9999      74.09234600000001 19884.583008 0.576192   11.965544  2095.109863
145.5      -9999      73.611603  19884.388672 0.587526   12.02305   2099.528687
145.6      -9999      73.042725  19886.494141 0.591932   12.094849  2106.424805
145.7      -9999      72.79942699999999 19893.978516 0.59318    12.134746  2112.312134
145.8      -9999      72.910107  19901.290039 0.598016   12.149304  2112.375122
145.9      -9999      72.985039  19900.935547 0.607266   12.141484  2105.891846
146        -9999      73.511757  19892.691406 0.61442    12.121786  2096.455322
146.1      -9999      73.698357  19882.550781 0.610984   12.106561  2088.654663
146.2      -9999      72.892296  19876.650391 0.595778   12.091279  2087.361694
146.3      -9999      71.366299  19881.364258 0.575829   12.053659  2092.892822
146.4      -9999      69.920158  19902.100586 0.562582   11.987659  2102.060181
146.5      -9999      68.74285500000001 19937.601563 0.564739   11.935256  2107.693848
146.6      -9999      67.53146700000001 19981.902344 0.57991    11.93975   2108.540283
146.7      -9999      67.149158  20026.607422 0.5986669999999999 12.013127  2105.914063
146.8      -9999      68.065617  20062.734375 0.6099     12.128749  2104.735229
146.9      -9999      69.469204  20084.523438 0.607078   12.243968  2107.565063
147        -9999      70.635468  20094.408203 0.589182   12.299765  2115.891968
147.1      -9999      71.133961  20097.610352 0.562912   12.311862  2126.00354
147.2      -9999      70.848927  20101.169922 0.541339   12.323851  2131.667725
147.3      -9999      69.90258   20112.330078 0.534368   12.347293  2130.142944
147.4      -9999      68.781586  20134.0625 0.541743   12.386839  2121.297729
147.5      -9999      67.519997  20160.931641 0.555522   12.437675  2108.31897
147.6      -9999      67.02807199999999 20186.18457 0.568701   12.486287  2093.784668
147.7      -9999      67.47570399999999 20204.238281 0.575883   12.513138  2080.780151
147.8      -9999      68.242287  20213.251953 0.573991   12.523644  2070.094116
147.9      -9999      69.00162899999999 20213.103516 0.566719   12.497444  2061.481445
148        -9999      70.07733500000001 20207.37793 0.563484   12.427162  2053.036865
148.1      -9999      71.063339  20201.958008 0.574879   12.329695  2045.511047
148.2      -9999      70.969673  20198.555664 0.5988289999999999 12.240475  2040.157471
148.3      -9999      69.942982  20185.663086 0.625587   12.17837   2037.299622
148.4      -9999      68.61913300000001 20111.152344 0.644315   12.162565  2034.429199
148.5      -9999      67.42018899999999 19933.40625 0.649657   12.212604  2029.873779
148.6      -9999      66.501362  19665.705078 0.641046   12.28098   2024.0672 
148.7      -9999      67.02961000000001 19361.917969 0.622835   12.31036   2015.99762
148.8      -9999      68.98247499999999 19063.238281 0.60449    12.332311  2005.659485
148.9      -9999      71.041134  18797.045898 0.592229   12.378834  1996.284729
149        -9999      72.202988  18572.055664 0.588191   12.441426  1988.862854
149.1      -9999      72.664604  18342.65332 0.590109   12.489789  1982.046997
149.2      -9999      72.643501  18037.123047 0.5971649999999999 12.512115  1989.737854
149.3      -9999      71.67957699999999 17627.389648 0.607256   12.508893  2023.029175
149.4      -9999      69.431404  17154.027344 0.620981   12.54169   2072.141235
149.5      -9999      65.980225  16618.786133 0.63854    12.717243  2112.706909
149.6      -9999      61.930807  16024.85498 0.653836   12.921206  2381.229736
149.7      -9999      58.252146  15709.35791 0.659303   12.626064  2639.973389
149.8      -9999      56.937792  16625.007813 0.656013   11.39815   2562.977417
149.9      -9999      59.536121  19422.745117 0.649788   9.336287   2467.263672
150        -9999      65.611906  23590.333008 0.638267   6.890525   2427.373413
150.1      503.7      73.58220300000001 28128.154297 0.615736   4.559994   2364.33252
150.2      504.3836   81.75157900000001 32301.077148 0.584169   2.873232   2274.660278
150.3      505.0671   88.447502  35043.292969 0.551323   2.177805   2178.773682
150.4      506.1151   92.373901  34969.183594 0.523979   2.270667   2115.05542
150.5      507.4821   93.87859   33249.833008 0.5068550000000001 2.582346   2107.682373
150.6      509.3048   94.260727  31617.448242 0.5044999999999999 2.744642   2143.239624
150.7      510.9908   94.25429200000001 30068.570313 0.5145420000000001 2.784504   2181.182983
150.8      511.8566   94.017887  28619.695313 0.527159   2.769716   2203.97876
150.9      511.4465   93.963886  27284.223633 0.534182   2.740591   2210.659424
151        510.444    94.473507  13325.188012 0.535311   2.718898   2201.791504
151.1      509.5782   95.08617   3.771992   0.53651    2.714233   2184.139526
151.2      509.1681   94.985928  3.520454   0.541948   2.72691    2167.517212
151.3      509.2137   93.819176  3.563766   0.550628   2.744293   2160.271729
151.4      509.6238   92.102379  3.504899   0.557935   2.757319   2161.610229
151.5      510.0795   90.73471499999999 3.426522   0.560325   2.760036   2166.59314
151.6      510.2162   90.35915   3.356897   0.556665   2.758412   2171.115234
151.7      509.9428   90.626553  3.29542    0.549336   2.752573   2174.964355
151.8      509.2593   91.213787  3.241342   0.542017   2.739557   2178.095703
151.9      508.3024   92.153408  3.197478   0.5383250000000001 2.724484   2179.492188
152        507.1631   92.569382  3.161503   0.539338   2.710735   2179.446655
152.1      506.0695   92.204189  3.131067   0.543928   2.702108   2178.193604
152.2      505.2038   91.696068  3.106009   0.5492320000000001 2.698108   2174.805664
152.3      504.657    92.198956  3.084643   0.553047   2.696034   2168.915405
152.4      504.3836   93.427227  3.064846   0.555799   2.691992   2163.437378
152.5      504.338    94.408348  3.047328   0.558549   2.682938   2161.313477
152.6      504.5202   94.57106   3.030335   0.562731   2.669418   2163.356934
152.7      504.7937   94.39502   3.011503   0.568426   2.657112   2166.417847
152.8      505.1582   93.68701900000001 2.992704   0.577842   2.654502   2167.494629
152.9      505.4772   92.201885  2.974855   0.588327   2.661147   2164.489746
153        505.7473   90.63345700000001 2.957385   0.595079   2.668596   2159.873047
153.1      505.9329   89.799072  2.939915   0.593466   2.672281   2157.657959
153.2      506.1151   90.322838  2.922448   0.584263   2.665309   2158.004639
153.3      506.4341   91.196922  2.904635   0.570076   2.646824   2158.672974
