~Version
 VERS              .         2.0                           : CWLS LOG ASCII STANDARD - VERSION 2.0
 WRAP              .         NO                            : ONE LINE PER DEPTH STEP
 DLM               .         SPACE                         : DELIMITING CHARACTER(SPACE TAB OR COMMA)
~Well Information
#_______________________________________________________________________________
#
#PARAMETER_NAME    .UNIT     VALUE                         : DESCRIPTION
#_______________________________________________________________________________
STRT               .M        0                             : First reference value
STOP               .M        425.4                         : Last reference value
STEP               .M        0.1                           : Step increment
NULL               .         -9999                         : Missing value
COMP               .                                       : Company
WELL               .         B                             : Well name
FLD                .                                       : Field
LOC                .                                       : Location
CNTY               .                                       : County
STAT               .                                       : State
CTRY               .                                       : Country
SRVC               .                                       : Service Company
DATE               .                                       : Date
API                .                                       : API number
~Parameter Information Block
#_______________________________________________________________________________
#
#PARAMETER_NAME    .UNIT     VALUE                         : DESCRIPTION
#_______________________________________________________________________________
SET                .         Logs                          : 
TLFamily_DEPT      .         Measured Depth                : 
TLFamily_DT        .         Compressional Slowness        : 
TLFamily_GR        .         Gamma Ray                     : 
TLFamily_ILD       .         Resistivity - Deep            : 
TLFamily_NPOR_LIM  .         Thermal Neutron Porosity Limestone: 
TLFamily_PEF       .         Photoelectric Factor          : 
TLFamily_RHO       .         Bulk Density                  : 
~Curve Information
#_______________________________________________________________________________
#
#LOGNAME           .UNIT     LOG_ID                        : DESCRIPTION
#_______________________________________________________________________________
DEPT               .M                                      : Logged depth 
DT                 .us/m                                   : Compressional Slowness 
GR                 .GAPI                                   : MGS Gamma Ray 
ILD                .OHMM                                   : Array Ind. One Res 85 
NPOR_LIM           .V/V                                    : Base Neutron Porosity 
PEF                .B/E                                    : PE 
RHO                .K/M3                                   : Compensated Density 
~Ascii
# ...
387.1      374.9271   62.060488  3.866976   0.343582   2.153738   2250.811401
387.2      376.7498   62.351734  3.95345    0.344799   2.172958   2259.647583
387.3      379.3927   62.670427  4.216287   0.346133   2.198175   2266.675659
387.4      382.0356   61.878178  4.173349   0.349088   2.199315   2266.179077
387.5      384.5418   59.132463  4.086614   0.353985   2.16287    2252.904785
387.6      386.8657   54.852247  4.949163   0.359267   2.099994   2226.588623
387.7      389.5997   49.621901  6.909122   0.363769   2.02806    2193.478149
387.8      392.3338   43.970806  9.290392000000001 0.367363   1.959482   2162.405151
387.9      395.2501   38.702066  10.827961  0.370102   1.910509   2137.458252
388        397.9385   34.861635  11.158305  0.371215   1.883239   2119.092285
388.1      400.5814   32.620074  12.299914  0.370299   1.874213   2108.984619
388.2      402.8142   31.411891  15.024478  0.36755    1.886932   2106.427246
388.3      404.7736   31.359864  16.918781  0.363429   1.91458    2109.692871
388.4      406.4596   32.651286  15.15949   0.359574   1.941332   2117.53064
388.5      407.8722   34.609131  10.744716  0.357727   1.961174   2128.04126
388.6      408.8747   36.557135  9.524964000000001 0.358473   1.978365   2137.553833
388.7      409.5126   37.984629  12.369131  0.360909   1.975894   2143.553101
388.8      409.8772   38.452827  12.574272  0.364439   1.944201   2144.379761
388.9      410.105    37.439999  9.995333   0.367914   1.904917   2138.798218
389        410.1961   35.196106  11.822045  0.369497   1.879988   2127.094604
389.1      410.3784   32.652792  17.427463  0.368126   1.86275    2113.020508
389.2      410.3784   30.799207  20.169133  0.364449   1.847018   2102.433105
389.3      410.4695   30.590971  19.100772  0.359636   1.851503   2096.723389
389.4      410.3328   32.249806  15.890655  0.355381   1.870858   2096.268433
389.5      410.3784   34.782423  11.306844  0.354795   1.880722   2101.925781
389.6      410.1505   36.615047  8.028397   0.359853   1.88246    2110.890869
389.7      409.8772   37.410677  8.765114000000001 0.369118   1.890268   2116.785156
389.8      409.4703   37.391415  10.404891  0.379198   1.898261   2118.972412
389.9      408.3279   37.603901  9.134827   0.387676   1.904613   2121.583374
390        407.0064   39.983603  7.56385    0.392983   1.932165   2130.001343
390.1      405.3204   46.173944  8.220903   0.393374   1.993052   2148.820068
390.2      403.4977   56.29755   7.780401   0.388935   2.069667   2180.024048
390.3      401.7662   68.330614  5.268373   0.381554   2.144537   2220.250854
390.4      400.2625   79.601063  3.692252   0.373558   2.213722   2260.633057
390.5      398.8499   87.42112   3.309767   0.367554   2.259216   2292.123779
390.6      397.893    89.656048  3.335754   0.366808   2.250994   2307.046387
390.7      397.5284   85.076401  3.489406   0.373375   2.188489   2299.380615
390.8      397.8018   74.700603  4.318675   0.384105   2.09543    2270.104492
390.9      398.7587   61.402201  6.875526   0.392967   1.998987   2228.140259
391        400.5359   48.241409  10.482677  0.396016   1.914182   2182.014038
391.1      403.0421   37.161415  13.560739  0.394039   1.854979   2139.216309
391.2      405.9128   29.044717  15.585636  0.389976   1.827272   2105.468384
391.3      408.9203   24.229293  16.757163  0.387207   1.824071   2083.520386
391.4      411.791    22.066273  17.316404  0.388363   1.830382   2070.552368
391.5      414.2516   21.730017  17.328582  0.393849   1.837774   2065.036011
391.6      416.0743   23.021858  16.748066  0.400674   1.856121   2066.734619
391.7      417.1679   25.725009  15.065261  0.405095   1.88271    2074.680176
391.8      417.7603   28.850988  12.303746  0.406239   1.905311   2086.022705
391.9      417.8058   31.12544   9.271055   0.40571    1.913943   2097.115601
392        417.4413   31.760202  9.122788999999999 0.404838   1.911231   2104.853638
392.1      416.9856   30.65677   14.010229  0.403805   1.900007   2105.639771
392.2      416.211    28.094049  18.914341  0.403314   1.878458   2100.44751
392.3      415.2085   24.90212   19.694793  0.404571   1.856276   2092.634277
392.4      414.4339   22.117774  18.611085  0.407826   1.843482   2085.913574
392.5      414.6161   20.383987  17.29132   0.41201    1.841618   2082.154175
392.6      415.6642   19.454753  15.588154  0.416322   1.839417   2081.845215
392.7      417.4413   19.126973  14.352637  0.419741   1.835468   2083.842285
392.8      419.8564   19.286494  14.005458  0.420893   1.829504   2085.025024
392.9      422.4537   19.855028  14.096161  0.417886   1.824331   2084.623657
393        424.5953   20.601385  14.124059  0.410169   1.834284   2083.187622
393.1      425.9624   21.511139  14.067172  0.399321   1.859597   2080.564697
393.2      426.9648   22.804194  13.663239  0.388358   1.89073    2077.538208
393.3      427.1471   25.105648  12.416683  0.38048    1.926119   2078.57312
393.4      426.6459   29.686185  10.760086  0.377418   1.974759   2088.936279
393.5      425.5067   36.344044  8.561885   0.379431   2.029438   2106.978271
393.6      423.9118   42.960478  5.727637   0.384795   2.068409   2127.861084
393.7      421.7702   47.460508  3.71192    0.390422   2.087271   2149.198608
393.8      419.4007   49.745703  3.460558   0.392036   2.091613   2168.55249
393.9      416.9856   50.078259  4.054331   0.387916   2.084132   2179.792725
394        414.4795   48.63007   4.107323   0.379693   2.063104   2183.311646
394.1      411.8365   46.630377  3.642828   0.370977   2.042296   2185.998535
394.2      409.4215   45.398497  3.394243   0.364224   2.032609   2190.383301
394.3      407.5988   44.916925  3.384483   0.360436   2.030447   2191.501343
394.4      406.5507   43.968475  3.357639   0.360077   2.029261   2185.800903
394.5      406.1862   42.66654   3.310262   0.361798   2.028529   2173.822266
394.6      406.733    41.893379  3.338312   0.363651   2.037363   2157.444336
394.7      408.0545   41.61627   3.370128   0.363624   2.052946   2140.167236
394.8      410.105    40.989595  3.356494   0.362111   2.065787   2127.008789
394.9      412.3378   39.620722  3.407807   0.360522   2.066524   2119.226563
395        414.7984   37.81805   3.758211   0.360924   2.058282   2112.672729
395.1      417.0768   35.790232  4.267032   0.363887   2.048598   2104.666504
395.2      419.264    33.806028  4.629048   0.369324   2.046414   2094.780396
395.3      420.9955   32.153925  4.719939   0.376157   2.055727   2083.768677
395.4      422.4537   31.273957  4.667358   0.382184   2.069845   2073.705933
395.5      423.6385   31.216537  4.813533   0.384683   2.081321   2067.010498
395.6      424.5498   31.676477  5.073874   0.383045   2.086115   2062.743164
395.7      425.0511   32.603747  4.840985   0.379657   2.094715   2057.27356
395.8      424.8688   34.139055  4.343506   0.375961   2.106047   2053.510864
395.9      424.003    36.579706  4.264918   0.371906   2.115025   2059.802612
396        422.4537   40.090172  4.438245   0.36704    2.113443   2081.635376
396.1      420.4488   45.093563  4.294545   0.361848   2.099461   2116.339355
396.2      418.6      51.041439  3.957936   0.356364   2.075155   2155.846436
396.3      415.0262   56.566942  3.797668   0.351112   2.048349   2190.790771
396.4      412.0644   60.696589  3.722618   0.347497   2.030744   2214.093994
396.5      409.2848   63.557476  3.683769   0.346991   2.034644   2224.514282
396.6      406.6419   65.638783  3.61288    0.348657   2.064126   2224.996582
396.7      404.5913   66.531384  3.456408   0.351161   2.100278   2222.293213
396.8      402.9053   66.360332  3.289289   0.354004   2.122019   2222.565063
396.9      402.1763   65.51376   3.224329   0.357383   2.123901   2226.434814
397        401.9029   63.895525  3.366111   0.360554   2.114522   2228.86731
397.1      402.5408   60.623955  3.509312   0.363259   2.092889   2226.956909
397.2      403.4066   55.690086  3.527973   0.366984   2.060512   2218.975586
397.3      405.047    49.794382  3.81489    0.373609   2.032561   2200.56543
