~Version
 VERS              .         2.0                           : CWLS LOG ASCII STANDARD - VERSION 2.0
 WRAP              .         NO                            : ONE LINE PER DEPTH STEP
 DLM               .         SPACE                         : DELIMITING CHARACTER(SPACE TAB OR COMMA)
~Well Information
#_______________________________________________________________________________
#
#PARAMETER_NAME    .UNIT     VALUE                         : DESCRIPTION
#_______________________________________________________________________________
STRT               .M        0                             : First reference value
STOP               .M        425.4                         : Last reference value
STEP               .M        0.1                           : Step increment
NULL               .         -9999                         : Missing value
COMP               .                                       : Company
WELL               .         B                             : Well name
FLD                .                                       : Field
LOC                .                                       : Location
CNTY               .                                       : County
STAT               .                                       : State
CTRY               .                                       : Country
SRVC               .                                       : Service Company
DATE               .                                       : Date
API                .                                       : API number
~Parameter Information Block
#_______________________________________________________________________________
#
#PARAMETER_NAME    .UNIT     VALUE                         : DESCRIPTION
#_______________________________________________________________________________
SET                .         Logs                          : 
TLFamily_DEPT      .         Measured Depth                : 
TLFamily_DT        .         Compressional Slowness        : 
TLFamily_GR        .         Gamma Ray                     : 
TLFamily_ILD       .         Resistivity - Deep            : 
TLFamily_NPOR_LIM  .         Thermal Neutron Porosity Limestone: 
TLFamily_PEF       .         Photoelectric Factor          : 
TLFamily_RHO       .         Bulk Density                  : 
~Curve Information
#_______________________________________________________________________________
#
#LOGNAME           .UNIT     LOG_ID                        : DESCRIPTION
#_______________________________________________________________________________
DEPT               .M                                      : Logged depth 
DT                 .us/m                                   : Compressional Slowness 
GR                 .GAPI                                   : MGS Gamma Ray 
ILD                .OHMM                                   : Array Ind. One Res 85 
NPOR_LIM           .V/V                                    : Base Neutron Porosity 
PEF                .B/E                                    : PE 
RHO                .K/M3                                   : Compensated Density 
~Ascii
# ...
234.4      441.4097   54.827782  20.362919  0.424196   2.413986   2044.775818
234.5      441.5919   53.678974  20.231794  0.427051   2.400831   2039.596069
234.6      441.6831   52.453543  20.206189  0.426603   2.39191    2034.65155
234.7      441.6375   51.553438  20.204708  0.422871   2.391683   2032.324219
234.8      441.5919   51.023499  20.222959  0.415721   2.401304   2033.82666
234.9      441.4552   50.946594  20.310125  0.405702   2.418224   2038.130554
235        441.0907   51.079124  20.520213  0.395545   2.438326   2043.204529
235.1      440.4983   51.219021  20.879221  0.386176   2.458255   2048.16333
235.2      439.8604   51.618725  21.1109    0.378194   2.473891   2052.820923
235.3      439.1313   52.453581  21.076655  0.372847   2.480928   2055.757568
235.4      438.2655   53.742334  20.986668  0.372039   2.479169   2056.34668
235.5      437.3542   54.993952  20.996676  0.375094   2.471458   2056.414307
235.6      436.4428   56.029951  21.079884  0.3799     2.462638   2057.656616
235.7      435.5771   56.737856  21.21621   0.384248   2.459204   2059.684082
235.8      434.7568   56.951773  21.55051   0.386567   2.459974   2062.137573
235.9      434.0278   56.503613  21.989256  0.386033   2.458407   2065.453125
236        433.2987   55.768015  22.281464  0.384247   2.451714   2068.294312
236.1      432.524    55.635221  22.299458  0.38465    2.449539   2068.749146
236.2      431.8796   56.162268  22.188158  0.389337   2.45099    2067.787598
236.3      430.4298   56.459032  22.293258  0.397395   2.462531   2067.70166
236.4      429.3396   56.07424   22.582889  0.405479   2.486994   2069.546631
236.5      427.976    55.253984  22.99402   0.40979    2.514432   2073.697388
236.6      425.3277   53.706419  23.587219  0.40725    2.526753   2080.897583
236.7      420.5544   51.07699   24.154765  0.396382   2.517101   2094.046021
236.8      412.2329   48.171053  24.223459  0.377749   2.560163   2117.381226
236.9      400.8894   46.07881   23.78161   0.353889   2.715627   2154.059326
237        387.0866   44.858614  23.492608  0.3289     2.966328   2209.596436
237.1      375.2267   43.871975  25.049868  0.306352   3.283489   2282.762085
237.2      353.1607   43.007797  31.635513  0.288213   3.639433   2359.967041
237.3      346.2226   42.694595  42.984842  0.275961   3.931423   2420.239868
237.4      340.1129   42.69812   60.379473  0.271456   4.01466    2445.396973
237.5      338.1361   42.42618   64.026014  0.27537    3.865114   2430.614746
237.6      338.3281   41.75308   50.709808  0.286049   3.57146    2382.90979
237.7      338.1665   41.106255  41.547478  0.300367   3.242408   2317.390137
237.8      341.1997   40.777369  34.048727  0.316056   2.931913   2251.680542
237.9      348.4149   41.252119  28.732183  0.330784   2.713125   2200.18042
238        361.2596   42.748343  27.075351  0.342723   2.615217   2164.539307
238.1      380.6819   44.957512  25.855108  0.351798   2.583442   2139.992798
238.2      391.8693   47.131865  24.535866  0.359525   2.557432   2119.856201
238.3      404.958    48.619621  23.14598   0.367346   2.506874   2100.931763
238.4      415.7825   49.049635  21.955764  0.374752   2.446051   2084.654907
238.5      423.9088   48.608637  21.287322  0.381236   2.395746   2070.99292
238.6      429.1467   48.267168  20.760331  0.386165   2.379309   2060.131958
238.7      432.199    48.939842  20.197316  0.389185   2.386529   2051.61853
238.8      433.7088   50.277538  19.765806  0.390056   2.409856   2045.615784
238.9      434.4257   51.53149   19.609583  0.389836   2.465053   2045.136292
239        434.7048   52.385458  19.929368  0.390205   2.588498   2051.966553
239.1      434.9847   52.414976  20.503772  0.392584   2.750198   2064.991943
239.2      434.529    51.666887  21.761598  0.397672   2.883423   2081.493896
239.3      433.6632   51.112284  24.529121  0.404295   2.962436   2096.851318
239.4      432.524    51.036333  26.795542  0.410225   2.981412   2105.585571
239.5      430.6558   50.687956  27.182757  0.413324   2.92283    2104.415649
239.6      428.423    49.954319  27.122729  0.41297    2.793074   2094.974487
239.7      425.3244   49.289028  26.885363  0.409418   2.662831   2082.598022
239.8      423.4562   48.746445  26.622468  0.403192   2.578263   2073.399048
239.9      421.2234   48.173157  26.611285  0.395391   2.530414   2070.022583
240        420.3576   48.089706  26.548951  0.387028   2.495069   2072.036255
240.1      418.6261   48.671776  26.429894  0.379679   2.47422    2076.687988
240.2      417.897    49.198317  26.182201  0.375042   2.461218   2081.972046
240.3      416.211    48.744759  25.529589  0.374655   2.447767   2086.703491
240.4      415.8465   47.644104  24.798102  0.378284   2.431324   2089.475708
240.5      415.0718   46.522432  24.279499  0.384254   2.411422   2088.763184
240.6      415.2997   45.58387   23.910712  0.39033    2.397371   2084.461182
240.7      415.1629   45.255772  23.600998  0.395795   2.392678   2079.253662
240.8      415.2996   45.671822  23.212596  0.402885   2.395924   2076.0354 
240.9      415.0718   46.844315  22.838479  0.414303   2.399407   2075.297241
241        414.7984   48.237722  22.527438  0.429995   2.402895   2076.924561
241.1      414.9807   49.500759  22.311907  0.445688   2.403353   2081.395874
241.2      415.6642   50.255651  22.258275  0.458125   2.419898   2086.809814
241.3      416.1654   50.289474  22.311855  0.465504   2.457637   2088.893677
241.4      416.6211   49.431211  22.288625  0.46819    2.500437   2087.389771
241.5      417.3502   48.108295  22.026052  0.468269   2.531205   2087.078003
241.6      419.2737   46.99967   21.630709  0.468327   2.543156   2091.644165
241.7      420.6279   45.916449  21.145595  0.468197   2.531251   2097.861328
241.8      422.156    44.842569  20.263038  0.462472   2.483527   2091.998413
241.9      422.9428   43.879009  19.217453  0.446055   2.41648    2072.906738
242        421.4235   43.269918  18.354818  0.417596   2.390712   2057.656982
242.1      416.2086   42.598103  17.661946  0.378632   2.457243   2066.449951
242.2      405.8184   41.505056  18.004617  0.330526   2.611897   2111.377563
242.3      381.4667   40.422241  20.762491  0.277229   2.833178   2197.254028
242.4      363.6932   39.665081  25.066715  0.225247   3.091815   2314.169556
242.5      340.2093   38.936346  29.853681  0.180889   3.323808   2432.293457
242.6      320.2639   37.84868   36.224495  0.148224   3.505612   2524.556152
242.7      308.6904   36.983339  41.871014  0.129852   3.67592    2573.78064
242.8      301.8891   36.471281  42.327606  0.126981   3.86302    2582.269165
242.9      294.5644   35.857893  37.535524  0.137577   4.009114   2563.657715
243        290.0236   34.925983  35.321911  0.157052   4.02128    2527.365234
243.1      289.1687   33.993141  41.961504  0.181725   3.861529   2476.111328
243.2      289.8835   33.341501  45.89097   0.209442   3.530944   2416.935669
243.3      296.8443   32.747585  38.20335   0.23924    3.091597   2359.401733
243.4      310.4386   32.426029  30.185002  0.269981   2.672966   2302.496948
243.5      331.0537   32.725428  27.384984  0.299436   2.395822   2245.247925
243.6      352.7012   33.552946  26.151001  0.324878   2.267973   2195.688721
243.7      375.2852   34.409576  25.493106  0.344374   2.230822   2158.547974
243.8      392.3813   35.41873   24.566557  0.357466   2.229507   2129.633667
243.9      412.8946   36.707232  23.425857  0.364416   2.238597   2106.615112
244        422.7232   37.976707  22.57832   0.366203   2.25647    2091.481079
244.1      428.7086   39.105141  22.079955  0.364904   2.281464   2085.662964
244.2      432.0623   40.343739  21.576557  0.362969   2.312168   2085.697388
244.3      432.306    41.456034  20.983125  0.362314   2.341358   2086.561646
244.4      432.2507   41.948191  20.565168  0.362814   2.363446   2085.998779
244.5      432.7063   41.791609  20.343733  0.364097   2.368556   2084.212524
244.6      433.2531   41.425865  20.237565  0.365121   2.355183   2086.702271
