~Version
 VERS              .         2.0                           : CWLS LOG ASCII STANDARD - VERSION 2.0
 WRAP              .         NO                            : ONE LINE PER DEPTH STEP
 DLM               .         SPACE                         : DELIMITING CHARACTER(SPACE TAB OR COMMA)
~Well Information
#_______________________________________________________________________________
#
#PARAMETER_NAME    .UNIT     VALUE                         : DESCRIPTION
#_______________________________________________________________________________
STRT               .M        0                             : First reference value
STOP               .M        425.4                         : Last reference value
STEP               .M        0.1                           : Step increment
NULL               .         -9999                         : Missing value
COMP               .                                       : Company
WELL               .         B                             : Well name
FLD                .                                       : Field
LOC                .                                       : Location
CNTY               .                                       : County
STAT               .                                       : State
CTRY               .                                       : Country
SRVC               .                                       : Service Company
DATE               .                                       : Date
API                .                                       : API number
~Parameter Information Block
#_______________________________________________________________________________
#
#PARAMETER_NAME    .UNIT     VALUE                         : DESCRIPTION
#_______________________________________________________________________________
SET                .         Logs                          : 
TLFamily_DEPT      .         Measured Depth                : 
TLFamily_DT        .         Compressional Slowness        : 
TLFamily_GR        .         Gamma Ray                     : 
TLFamily_ILD       .         Resistivity - Deep            : 
TLFamily_NPOR_LIM  .         Thermal Neutron Porosity Limestone: 
TLFamily_PEF       .         Photoelectric Factor          : 
TLFamily_RHO       .         Bulk Density                  : 
~Curve Information
#_______________________________________________________________________________
#
#LOGNAME           .UNIT     LOG_ID                        : DESCRIPTION
#_______________________________________________________________________________
DEPT               .M                                      : Logged depth 
DT                 .us/m                                   : Compressional Slowness 
GR                 .GAPI                                   : MGS Gamma Ray 
ILD                .OHMM                                   : Array Ind. One Res 85 
NPOR_LIM           .V/V                                    : Base Neutron Porosity 
PEF                .B/E                                    : PE 
RHO                .K/M3                                   : Compensated Density 
~Ascii
# ...
315.7      385.9999   71.18470000000001 7.217523   0.419278   2.987273   2242.946655
315.8      386.1822   72.549583  7.092102   0.42319    2.815408   2212.597168
315.9      388.9162   73.76866099999999 7.007402   0.420883   2.733813   2195.193481
316        394.1565   75.141357  6.954605   0.414069   2.713207   2190.095459
316.1      400.4447   76.439728  6.954871   0.406593   2.720061   2194.460205
316.2      407.0976   78.179134  6.948356   0.402579   2.755652   2207.651855
316.3      412.7935   80.61824   6.704672   0.403819   2.814009   2224.832886
316.4      416.9401   83.11398699999999 6.333543   0.409828   2.860816   2240.710449
316.5      419.3552   84.826466  5.934275   0.419989   2.878686   2251.808472
316.6      421.1778   85.82938   5.537648   0.432279   2.878496   2256.985962
316.7      422.9094   86.599007  5.363595   0.443676   2.870946   2259.680664
316.8      424.6865   87.24461700000001 5.365857   0.450932   2.861441   2262.40564
316.9      426.5092   87.957893  5.363509   0.453221   2.853637   2264.837036
317        428.1041   88.894665  5.355875   0.451669   2.849707   2265.177612
317.1      429.2888   89.72800100000001 5.390889   0.447499   2.84019    2265.008057
317.2      429.4711   89.477631  5.42028    0.441551   2.824464   2265.94165
317.3      428.4686   88.592705  5.383607   0.433768   2.802323   2265.728394
317.4      426.008    87.654888  5.379244   0.425477   2.775361   2263.232422
317.5      422.5449   87.11931199999999 5.496439   0.417698   2.746119   2260.749268
317.6      418.3982   86.66037   5.68038    0.411849   2.721213   2260.535156
317.7      414.3427   86.656342  6.081369   0.408496   2.713017   2257.137207
317.8      410.6973   87.224918  6.700954   0.408366   2.707367   2249.703247
317.9      407.781    88.458157  7.164041   0.411855   2.687049   2246.440674
318        405.5938   90.378441  7.311935   0.416939   2.650184   2249.737305
318.1      404.0901   92.651848  7.015882   0.419993   2.613567   2252.741821
318.2      402.9054   94.55532100000001 6.525465   0.418461   2.584884   2252.334839
318.3      401.8573   94.835438  6.286184   0.413534   2.567003   2253.606812
318.4      400.946    93.534012  6.295553   0.40774    2.571689   2256.04541
318.5      400.4447   91.30974999999999 6.414008   0.403368   2.603115   2255.43396
318.6      400.308    89.249695  6.551532   0.40271    2.637686   2253.146973
318.7      400.9004   87.789768  6.588046   0.407664   2.650179   2255.389771
318.8      402.0396   87.02468500000001 6.456839   0.416914   2.643281   2261.684082
318.9      404.0446   86.646503  6.190519   0.425619   2.637002   2265.529541
319        406.6874   86.698936  5.863657   0.42945    2.634154   2265.920898
319.1      410.3328   87.285507  5.674895   0.427844   2.642284   2265.684814
319.2      414.844    88.063942  5.493299   0.423298   2.669793   2265.845337
319.3      420.4488   89.002411  5.025462   0.420323   2.717223   2263.686279
319.4      425.3374   89.790035  4.375722   0.423404   2.76444    2258.50061
319.5      434.8936   89.415943  3.789546   0.436166   2.790277   2253.339355
319.6      444.0526   87.582832  3.370766   0.45968    2.802143   2246.485596
319.7      453.804    84.83943600000001 2.909375   0.491125   2.805822   2234.334839
319.8      463.3275   82.116795  2.379345   0.52335    2.801072   2217.916138
319.9      471.7119   79.607849  2.137063   0.549103   2.789651   2201.063965
320        478.6381   77.730537  2.122942   0.563813   2.782908   2185.35144
320.1      483.4226   76.28527800000001 2.156971   0.565188   2.777929   2171.275635
320.2      486.3845   75.016552  2.219429   0.553907   2.764661   2162.009155
320.3      487.8427   74.10128   2.222048   0.535245   2.745894   2158.078247
320.4      488.1617   73.949337  2.192475   0.517615   2.732113   2157.865845
320.5      486.5212   74.98008   2.217495   0.50592    2.726962   2160.142212
320.6      483.1037   76.161869  2.310992   0.500117   2.724781   2164.379028
320.7      478.0457   76.509117  2.403046   0.497878   2.725817   2168.920532
320.8      472.1219   75.013519  2.455465   0.496817   2.722922   2175.426025
320.9      465.4236   71.923405  2.69569    0.494132   2.70934    2186.198853
321        458.9986   68.367355  3.239484   0.488858   2.692093   2196.092651
321.1      453.1205   66.247238  3.728678   0.482772   2.675759   2201.47522
321.2      448.2448   66.100159  4.052144   0.479709   2.660695   2205.105469
321.3      443.8247   67.822239  4.083329   0.480089   2.650429   2208.728638
321.4      440.316    70.89688099999999 3.61591    0.480647   2.650875   2210.838745
321.5      437.3997   74.11613800000001 3.256487   0.477645   2.657004   2212.67981
321.6      435.3492   76.327854  3.267994   0.47043    2.65759    2219.201782
321.7      433.5721   77.448593  3.429862   0.459147   2.65373    2228.329956
321.8      432.2507   78.094666  3.843128   0.444275   2.647296   2234.330688
321.9      430.8836   78.783581  4.279029   0.428085   2.630803   2238.042358
322        429.471    79.08584999999999 4.566364   0.413524   2.600422   2241.947998
322.1      427.6028   79.26644899999999 4.640569   0.402276   2.568341   2245.064575
322.2      425.5067   79.536259  4.569602   0.394186   2.545119   2245.12439
322.3      423.365    79.488861  4.664691   0.391271   2.532708   2244.549438
322.4      421.4968   79.25386399999999 4.821362   0.394721   2.534418   2244.132813
322.5      419.7652   79.36505099999999 4.881881   0.403297   2.54813    2244.825562
322.6      418.0792   79.978004  4.814313   0.411932   2.567496   2246.616699
322.7      416.0743   80.49328199999999 4.66585    0.416294   2.583356   2248.659058
322.8      413.8415   80.427948  4.557139   0.413979   2.58914    2250.193115
322.9      411.3353   79.65700099999999 4.507115   0.405232   2.58519    2251.271606
323        409.1481   78.54562799999999 4.547539   0.392355   2.614194   2254.957886
323.1      407.3709   77.11197300000001 4.676922   0.37983    2.759324   2263.949463
323.2      406.5963   75.74625   4.859768   0.37236    2.993599   2280.03479
323.3      406.414    75.074928  5.199136   0.371232   3.206217   2299.104492
323.4      407.052    75.137306  5.736811   0.375149   3.311392   2311.453979
323.5      407.9178   75.931904  5.699146   0.383025   3.298034   2309.752197
323.6      409.467    77.63331599999999 4.929096   0.394811   3.161864   2295.030029
323.7      411.5631   80.50906000000001 4.193706   0.408584   2.940003   2273.715088
323.8      414.4795   83.860218  3.708295   0.421411   2.74988    2253.194824
323.9      418.2615   85.78474799999999 3.470391   0.431645   2.676589   2240.068237
324        423.1372   85.510395  3.370531   0.439876   2.68931    2235.318726
324.1      428.9698   83.775166  3.250834   0.445983   2.708141   2233.966064
324.2      435.3037   82.282898  3.165943   0.450094   2.718628   2232.97229
324.3      441.5919   82.384102  3.187548   0.453155   2.715777   2233.771729
324.4      447.2423   84.618416  3.152858   0.456092   2.706468   2237.72583
324.5      451.7534   88.14456199999999 3.059464   0.458186   2.69564    2243.007813
324.6      454.7609   91.143429  3.008743   0.459088   2.684345   2248.146729
324.7      456.4468   91.96838   2.998226   0.4618     2.670002   2251.359497
324.8      457.3582   90.674797  2.992747   0.468324   2.654866   2250.475708
324.9      457.8594   89.09780499999999 2.971574   0.477615   2.642019   2245.747803
325        458.3151   88.22983600000001 2.972207   0.485945   2.637929   2240.891113
325.1      458.7708   87.970825  2.994251   0.491525   2.65034    2238.311646
325.2      459.3176   88.266125  3.045675   0.492693   2.679404   2237.208496
325.3      459.8644   88.834019  3.079311   0.488028   2.715374   2237.475952
325.4      460.4568   89.117142  3.075238   0.479664   2.747446   2238.187256
325.5      461.0947   88.64707900000001 3.076515   0.472028   2.771905   2238.148438
325.6      461.6871   88.27897299999999 3.0268     0.469641   2.780567   2238.443848
325.7      462.0517   88.2948    2.997105   0.472321   2.767702   2239.857544
