~Version
 VERS              .         2.0                           : CWLS LOG ASCII STANDARD - VERSION 2.0
 WRAP              .         NO                            : ONE LINE PER DEPTH STEP
 DLM               .         SPACE                         : DELIMITING CHARACTER(SPACE TAB OR COMMA)
~Well Information
#_______________________________________________________________________________
#
#PARAMETER_NAME    .UNIT     VALUE                         : DESCRIPTION
#_______________________________________________________________________________
STRT               .m        91.8972                       : First reference value
STOP               .m        352.6536                      : Last reference value
STEP               .m        0.1524                        : Step increment
NULL               .         -9999                         : Missing value
COMP               .                                       : Company
WELL               .         C                             : Well name
FLD                .                                       : Field
LOC                .                                       : Location
CNTY               .                                       : County
STAT               .                                       : State
CTRY               .                                       : Country
SRVC               .                                       : Service Company
DATE               .                                       : Date
API                .                                       : API number
~Parameter Information Block
#_______________________________________________________________________________
#
#PARAMETER_NAME    .UNIT     VALUE                         : DESCRIPTION
#_______________________________________________________________________________
SET                .         Inclination                   : 
TLFamily_C13       .         Caliper 1                     : 
TLFamily_C24       .         Caliper 2                     : 
TLFamily_DEVI      .         Hole Deviation                : 
TLFamily_GR        .         Gamma Ray                     : 
TLFamily_HAZI      .         Hole Azimuth                  : 
TLFamily_MD        .         Measured Depth                : 
TLFamily_P1AZ      .         Pad A Azimuth                 : 
TLFamily_RB        .         Relative Bearing              : 
~Curve Information
#_______________________________________________________________________________
#
#LOGNAME           .UNIT     LOG_ID                        : DESCRIPTION
#_______________________________________________________________________________
MD                 .m                                      :  
C13                .mm                                     : Caliper 1-3 
C24                .mm                                     : Caliper 2-4 
DEVI               .deg                                    : Deviation 
GR                 .gAPI                                   : Gamma Ray 
HAZI               .deg                                    : Hole Azimuth 
P1AZ               .deg                                    : Pad 1 Azimuth 
RB                 .deg                                    : Relative Bearing 
~Ascii
# ...
272.1864   197.8891   202.5354   0.5061035  71.22955   226.1393   111.6084   245.4684  
272.3388   198.0962   202.7668   0.5096436  68.43011   225.8302   110.0436   244.2126  
272.4912   197.8891   202.3597   0.511261   67.86292   225.5179   110.2999   244.7827  
272.6436   200.3745   203.6639   0.5119019  68.8366    225.2155   111.5333   246.317   
272.796    204.4133   206.6158   0.5128174  71.33179   225.1496   115.3524   250.2013  
272.9484   206.588    209.94     0.5116272  73.53779   224.9316   116.1331   251.1992  
273.1008   202.0314   205.2263   0.5108337  74.81583   224.9376   114.305    249.3668  
273.2532   202.2385   203.374    0.5091858  73.53786   224.8978   113.2109   248.3122  
273.4056   202.2385   206.2377   0.5074463  71.89915   224.8411   112.9399   248.0984  
273.558    199.7531   202.1277   0.5056763  73.42057   224.8237   111.373    246.5492  
273.7104   199.7531   200.9156   0.5040283  74.08991   224.7828   110.482    245.699   
273.8628   199.7531   202.6792   0.5020142  69.11047   224.6418   110.0407   245.3996  
274.0152   199.7531   201.6644   0.4987488  57.42578   224.3394   109.0388   244.6962  
274.1676   199.7531   200.1322   0.4966431  47.62772   224.2404   106.9826   242.7401  
274.32     197.2677   196.7505   0.4945068  42.83738   224.1338   105.7623   241.6276  
274.4724   197.2677   195.7317   0.4923706  46.50194   224.0173   102.6418   238.6222  
274.6248   197.4748   196.2411   0.4909668  57.03034   223.9767   99.14261   235.1653  
274.7772   197.2677   200.9156   0.4900513  70.83405   223.9922   98.05743   234.0635  
274.9296   197.2677   201.147    0.4891663  81.59278   223.9909   99.50101   235.5105  
275.082    199.7531   199.347    0.489563   83.30784   224.0451   99.93958   235.893   
275.2344   199.7531   199.6682   0.4891357  80.28232   224.114    102.2827   238.165   
275.3868   199.7531   197.1212   0.4898682  76.87428   224.1011   102.7692   238.6671  
275.5392   199.7531   200.9691   0.4891663  75.0984    224.1749   102.7268   238.5515  
275.6916   199.7531   201.201    0.4890442  71.69479   224.1519   102.1152   237.9633  
275.844    199.7531   197.0291   0.4881897  68.83451   223.9283   102.5873   238.6577  
275.9964   197.2677   200.2743   0.4878235  68.34105   223.7525   101.2451   237.4928  
276.1488   199.7531   199.5784   0.4857483  73.81378   223.5243   100.0796   236.5536  
276.3012   199.7531   200.5944   0.4850159  77.5261    223.3231   99.52103   236.1963  
276.4536   199.7531   201.2897   0.4820862  79.72346   222.9441   95.28909   232.3453  
276.606    199.7531   201.5929   0.4784851  78.66309   222.5873   91.89069   229.3014  
276.7584   199.7531   201.2897   0.4746094  75.01151   222.2991   89.69574   227.398   
276.9108   200.5816   199.9002   0.4721375  68.37806   222.0166   87.67114   225.6538  
277.0632   199.7531   199.9002   0.4672241  63.52449   221.7339   84.97903   223.2467  
277.2156   199.9602   199.6682   0.4634705  61.39452   221.4254   84.49408   223.0674  
277.368    199.7531   200.2737   0.4602966  60.6034    221.2769   83.85962   222.5803  
277.5204   199.7531   199.4369   0.4574585  60.28821   221.1964   82.80923   221.6137  
277.6728   199.7531   199.8104   0.454071   61.68797   221.1173   82.61438   221.4974  
277.8252   199.7531   199.7206   0.4537659  64.42661   221.2189   82.25516   221.035   
277.9776   199.7531   201.2454   0.4522705  65.62417   221.261    81.78873   220.5276  
278.13     199.7531   200.5504   0.4525452  69.09295   221.4821   81.71686   220.2333  
278.2824   199.7531   200.7377   0.4534607  72.27486   221.6989   80.3212    218.6223  
278.4348   199.7531   199.1151   0.4552307  74.93302   221.8003   79.57965   217.7786  
278.5872   199.7531   199.9002   0.4564514  70.42971   222.0359   80.2973    218.2606  
278.7396   199.7531   200.5057   0.4588623  66.5175    222.0975   81.59537   219.4989  
278.892    199.7531   199.7206   0.4612732  64.4897    222.269    82.01788   219.7465  
279.0444   199.7531   200.8264   0.4636536  64.36794   222.4163   81.33032   218.9143  
279.1968   199.7531   200.5057   0.466095   61.87275   222.4913   80.18643   217.6956  
279.3492   200.5816   200.6842   0.4672241  60.54919   222.5863   79.55405   216.9675  
279.5016   200.7887   200.6842   0.4684753  62.00979   222.8622   80.48428   217.6198  
279.654    197.2677   199.8104   0.4689636  66.63499   223.2522   79.78702   216.5334  
279.8064   199.7531   199.8104   0.4684448  68.2737    223.5965   77.93765   214.3385  
279.9588   199.7531   200.9156   0.4668579  69.67344   223.9427   76.38995   212.445   
280.1112   199.7531   200.5057   0.464386   67.05659   224.3458   74.5578    210.2137  
280.2636   199.7531   200.6842   0.4624939  67.36958   224.4136   74.39804   209.9857  
280.416    197.2677   200.9156   0.4592896  63.17041   224.4835   74.47842   209.9928  
280.5684   199.9602   200.9156   0.4558105  60.51004   224.3156   71.53897   207.2221  
280.7208   199.7531   200.5057   0.4532776  53.26791   224.0606   69.09778   205.0336  
280.8732   199.7531   201.0578   0.4514465  49.8599    223.6149   67.95456   204.3409  
281.0256   199.7531   200.2215   0.4498901  51.54651   223.3116   66.47083   203.1567  
281.178    199.7531   199.9002   0.4490051  54.28517   222.8475   65.45578   202.6072  
281.3304   199.7531   199.9002   0.4475403  54.22427   222.4642   63.78561   201.3196  
281.4828   199.7531   200.4164   0.4463806  50.58363   222.2374   63.2998    201.0636  
281.6352   199.7531   200.595    0.4461975  54.11337   221.9292   62.4585    200.5272  
281.7876   199.7531   200.7371   0.4450684  63.66809   221.8673   61.28711   199.4212  
281.94     199.7531   200.8983   0.4450684  73.94218   221.6143   61.16934   199.5556  
282.0924   199.7531   200.6484   0.4446106  75.82876   221.5007   60.92767   199.4265  
282.2448   199.7531   200.1322   0.4443665  71.99467   221.3544   60.46637   199.1106  
282.3972   198.5104   198.3288   0.4450378  69.9865    221.2264   60.79327   199.5672  
282.5496   199.1318   200.0423   0.4440613  68.40421   221.0422   60.89563   199.8547  
282.702    199.7531   201.2897   0.4450684  68.16721   221.0237   59.96796   198.9435  
282.8544   199.546    199.8104   0.4436035  63.84616   220.8159   59.06662   198.2511  
283.0068   199.7531   200.4164   0.4438782  64.69817   220.7126   58.44968   197.7352  
283.1592   199.7531   199.9002   0.4437866  68.48025   220.6493   57.59799   196.9478  
283.3116   199.546    199.8104   0.4439697  72.25344   220.5258   57.74405   197.2165  
283.464    199.7531   200.0423   0.4446716  74.99199   220.3678   57.27106   196.9026  
283.6164   199.7531   201.2897   0.4463501  73.85732   220.2402   57.00803   196.7691  
283.7688   199.7531   199.8553   0.4489441  74.10081   220.0402   56.78745   196.7464  
283.9212   199.7531   199.2055   0.4506836  71.66652   219.8797   56.81613   196.9367  
284.0736   199.7531   199.9002   0.453064   70.09082   219.6976   58.26184   198.5641  
284.226    199.7531   199.9525   0.4543457  70.69936   219.5842   58.31213   198.7259  
284.3784   199.7531   199.3465   0.4559326  72.15997   219.3459   58.92816   199.5801  
284.5308   199.7531   199.3476   0.4568176  73.54647   219.0923   58.51923   199.4292  
284.6832   199.7531   200.3636   0.4564819  68.66162   218.7951   57.8613    199.0644  
284.8356   199.7531   199.3726   0.4546509  65.14058   218.3837   57.41385   199.0304  
284.988    199.7531   197.8159   0.4537048  61.96397   218.0885   56.04291   197.9527  
285.1404   199.7531   197.702    0.4510803  59.72844   217.651    54.39746   196.7443  
285.2928   199.7531   196.033    0.449707   56.55511   217.2229   53.3511    196.127   
285.4452   199.7531   195.6384   0.4480286  54.5285    216.9669   51.05966   194.0918  
285.5976   199.7531   193.2256   0.4460144  51.42479   216.8886   49.3967    192.5065  
285.75     199.7531   192.8572   0.4433289  49.84247   216.8656   47.88388   191.0164  
285.9024   199.7531   193.7845   0.4420776  47.92329   217.0036   45.95343   188.9509  
