~Version
 VERS              .         2.0                           : CWLS LOG ASCII STANDARD - VERSION 2.0
 WRAP              .         NO                            : ONE LINE PER DEPTH STEP
 DLM               .         SPACE                         : DELIMITING CHARACTER(SPACE TAB OR COMMA)
~Well Information
#_______________________________________________________________________________
#
#PARAMETER_NAME    .UNIT     VALUE                         : DESCRIPTION
#_______________________________________________________________________________
STRT               .m        91.8972                       : First reference value
STOP               .m        352.6536                      : Last reference value
STEP               .m        0.1524                        : Step increment
NULL               .         -9999                         : Missing value
COMP               .                                       : Company
WELL               .         C                             : Well name
FLD                .                                       : Field
LOC                .                                       : Location
CNTY               .                                       : County
STAT               .                                       : State
CTRY               .                                       : Country
SRVC               .                                       : Service Company
DATE               .                                       : Date
API                .                                       : API number
~Parameter Information Block
#_______________________________________________________________________________
#
#PARAMETER_NAME    .UNIT     VALUE                         : DESCRIPTION
#_______________________________________________________________________________
SET                .         Inclination                   : 
TLFamily_C13       .         Caliper 1                     : 
TLFamily_C24       .         Caliper 2                     : 
TLFamily_DEVI      .         Hole Deviation                : 
TLFamily_GR        .         Gamma Ray                     : 
TLFamily_HAZI      .         Hole Azimuth                  : 
TLFamily_MD        .         Measured Depth                : 
TLFamily_P1AZ      .         Pad A Azimuth                 : 
TLFamily_RB        .         Relative Bearing              : 
~Curve Information
#_______________________________________________________________________________
#
#LOGNAME           .UNIT     LOG_ID                        : DESCRIPTION
#_______________________________________________________________________________
MD                 .m                                      :  
C13                .mm                                     : Caliper 1-3 
C24                .mm                                     : Caliper 2-4 
DEVI               .deg                                    : Deviation 
GR                 .gAPI                                   : Gamma Ray 
HAZI               .deg                                    : Hole Azimuth 
P1AZ               .deg                                    : Pad 1 Azimuth 
RB                 .deg                                    : Relative Bearing 
~Ascii
91.8972    214.0443   209.591    0.4511108  97.55077   259.9766   310.8203   50.84125  
92.0496    215.0799   213.1796   0.4510803  97.8288    259.6546   310.4237   50.77179  
92.202     214.0443   209.94     0.4488525  102.4933   258.3348   309.7077   51.37891  
92.3544    214.0443   209.4773   0.43396    102.3258   258.4629   308.691    50.21881  
92.5068    214.0443   209.2458   0.4397583  102.3259   258.1051   307.6458   49.53485  
92.6592    214.0443   209.94     0.4517212  100.7346   257.9912   305.2762   47.28088  
92.8116    214.0443   210.1714   0.4404297  99.86755   257.0188   305.3857   48.36258  
92.964     214.0443   210.4028   0.4473267  101.2064   257.6823   306.5132   48.83109  
93.1164    216.5297   211.3284   0.4497681  99.51989   257.6871   306.7456   49.05408  
93.2688    217.7724   214.5679   0.453186   98.68524   257.7326   305.8757   48.13885  
93.4212    216.5297   216.4191   0.4558716  97.46797   257.8592   305.5015   47.64319  
93.5736    216.3744   216.8819   0.4596558  98.97211   258.0528   305.541    47.48578  
93.726     214.0443   214.3365   0.4627075  100.4848   258.1913   306.9117   48.71857  
93.8784    211.2482   209.2458   0.4672852  102.1281   258.412    307.011    48.60086  
94.0308    210.7304   209.3615   0.4695435  102.1888   258.5793   306.7849   48.2027   
94.1832    211.5589   211.7912   0.4709167  101.2433   258.5553   306.374    47.8172   
94.3356    210.9375   211.7912   0.4725342  98.26132   258.528    305.9492   47.42441  
94.488     214.0443   211.7912   0.4711304  98.58736   258.5375   306.2946   47.75391  
94.6404    214.0443   209.0145   0.4702148  96.72473   258.3883   305.1079   46.7186   
94.7928    216.5297   213.1796   0.4667969  97.60061   258.2756   303.2716   44.99628  
94.9452    214.0443   210.1714   0.4624939  92.58855   258.0667   303.1888   45.11844  
95.0976    212.8016   207.3947   0.4580688  90.92137   257.9289   301.9155   43.98505  
95.25      214.2514   212.254    0.4542542  90.83656   257.9351   301.9389   44.00354  
95.4024    216.5297   213.1796   0.4494934  91.24752   257.7821   303.2107   45.42825  
95.5548    215.9084   214.954    0.4436646  93.21896   257.789    303.875    46.0784   
95.7072    214.0443   211.7912   0.4398804  91.47584   257.8102   303.4677   45.65933  
95.8596    214.0443   213.4109   0.4375916  92.76896   257.6776   303.468    45.79254  
96.012     216.5297   214.5679   0.4345398  92.05816   257.701    302.9282   45.22122  
96.1644    216.5297   214.3365   0.4339294  93.48679   257.5806   304.4738   46.88791  
96.3168    216.5297   213.8737   0.4328003  94.7148    257.4856   307.2469   49.76086  
96.4692    214.2514   217.3447   0.4325562  94.81701   257.1224   306.5231   49.40726  
96.6216    214.0443   212.4854   0.4328918  94.52293   257.1377   305.1701   48.02979  
96.774     211.5589   211.3284   0.4333801  94.02531   257.1695   305.8608   48.68689  
96.9264    211.3518   207.6261   0.4343567  95.05987   256.7885   305.9659   49.17874  
97.0788    210.7304   210.0557   0.4342041  94.42961   256.8899   305.7867   48.8945   
97.2312    210.9375   214.5679   0.4348145  97.44854   256.648    305.6508   48.99841  
97.3836    214.0443   212.9482   0.4362488  97.09755   256.6639   306.417    49.75372  
97.536     214.0443   211.7912   0.4377441  97.16052   256.4607   305.5929   49.13443  
97.6884    214.0443   211.3284   0.4385681  94.44572   256.4033   304.8392   48.43756  
97.8408    214.0443   214.5679   0.4411011  94.16422   256.4015   304.8244   48.42096  
97.9932    214.0443   213.6423   0.4430542  91.64298   256.5478   304.4484   47.9007   
98.1456    214.0443   213.3331   0.4474182  92.98201   256.7556   303.1846   46.42487  
98.298     214.0443   210.8656   0.449646   94.68384   257.2323   303.1936   45.95786  
98.4504    214.0443   210.1714   0.4516602  95.82489   257.6678   304.3866   46.71741  
98.6028    214.0443   210.8656   0.4535828  93.79695   258.2478   305.9623   47.71567  
98.7552    214.0443   211.7912   0.4538879  90.96056   258.558    308.4799   49.91779  
98.9076    214.0443   211.7912   0.4539795  91.38668   259.1806   308.9293   49.74664  
99.06      214.0443   213.8737   0.4539795  90.69337   259.6749   308.776    49.10165  
99.2124    214.0443   210.8656   0.4530334  89.11317   259.6833   308.9554   49.26974  
99.3648    214.0443   213.4109   0.4523621  89.6609    259.8044   310.7983   50.99036  
99.5172    217.3582   217.3447   0.4511108  88.96751   259.9625   310.9187   50.95609  
99.6696    216.9439   217.1711   0.4509277  91.0976    259.7653   310.0385   50.27243  
99.822     214.0443   211.7912   0.4489136  90.43246   259.6788   309.5855   49.90317  
99.9744    214.0443   212.1383   0.4485474  90.19553   259.4875   309.9897   50.50122  
100.1268   216.5297   215.4935   0.4467468  90.33899   259.6858   309.6971   50.00925  
100.2792   216.5297   211.7912   0.4453125  90.7606    259.5481   308.5273   48.97687  
100.4316   216.5297   214.3365   0.4439392  91.5649    259.4619   307.3225   47.85925  
100.584    216.5297   211.7912   0.4432068  91.05631   259.6777   306.2368   46.55539  
100.7364   217.1511   216.8819   0.4418335  93.12546   259.8017   304.9985   45.1936   
100.8888   217.3582   211.5598   0.4401245  93.6926    260.0606   304.0985   44.03845  
101.0412   219.6365   216.1877   0.4403687  94.48374   260.2433   302.8853   42.64005  
101.1936   216.5297   214.5679   0.4403687  92.68635   260.501    303.1517   42.65005  
101.346    214.0443   216.4191   0.440094   92.81249   260.6373   302.7851   42.14877  
101.4984   214.0443   207.8575   0.4402771  92.56895   260.9937   301.1484   40.15338  
101.6508   216.5297   211.3284   0.4402771  92.44302   261.1339   299.2976   38.16275  
101.8032   219.0151   216.1877   0.4425964  91.31059   261.5101   295.9633   34.45728  
101.9556   216.5297   211.5598   0.4448242  90.01086   261.8051   292.7929   30.98471  
102.108    217.4617   214.5679   0.4490967  91.26484   262.1691   290.7207   28.5502   
102.2604   219.2223   218.0388   0.451416   90.04778   262.3748   290.8254   28.45142  
102.4128   216.5297   217.3447   0.4566956  91.30838   262.8212   289.2736   26.44928  
102.5652   216.5297   218.2702   0.4616394  88.69144   263.1891   287.2872   24.09573  
102.7176   214.0443   214.5679   0.4647827  89.84331   263.4524   286.1256   22.67529  
102.87     214.0443   216.6505   0.4688721  88.42178   263.7361   285.0912   21.3577   
103.0224   210.9375   211.7912   0.4710693  88.78694   263.9854   283.9351   19.94763  
103.1748   207.2094   209.7086   0.4721985  91.87544   264.0485   283.2065   19.15668  
103.3272   209.9019   213.1796   0.472168   90.78022   264.0307   283.151    19.12161  
103.4796   214.0443   218.386    0.4722595  89.1936    264.0513   282.2001   18.14764  
103.632    214.8727   217.3447   0.4705505  86.10941   263.8928   280.871    16.97357  
103.7844   215.0799   218.733    0.4676819  89.32384   263.5084   279.5931   16.0799   
103.9368   209.9019   214.5679   0.4658508  91.4039    263.3174   278.8741   15.55255  
104.0892   207.2094   211.3284   0.4638977  96.1143    263.0707   278.8314   15.75464  
104.2416   207.2094   212.254    0.4620056  95.54273   263.0398   278.5439   15.50287  
104.394    209.6948   212.0226   0.4608765  96.17306   262.8733   277.8396   14.96152  
104.5464   209.6948   213.1796   0.4606018  90.95412   262.8483   277.7677   14.91757  
104.6988   211.1446   212.0226   0.4598083  88.91972   262.9358   277.0855   14.15363  
104.8512   214.0443   215.4935   0.4604492  87.15484   263.0003   275.692    12.6918   
105.0036   214.0443   220.5842   0.4623718  90.88889   263.1621   274.8136   11.65332  
105.156    214.0443   217.5761   0.4648438  90.78024   263.2451   273.3029   10.06046  
105.3084   214.0443   217.5761   0.4676208  91.54317   263.5287   272.2355   8.703674  
105.4608   216.5297   219.1958   0.4720154  89.76289   263.725    271.4001   7.677277  
105.6132   216.5297   214.5679   0.4757385  93.76643   263.7625   268.8777   5.115326  
