~Version
 VERS              .         2.0                           : CWLS LOG ASCII STANDARD - VERSION 2.0
 WRAP              .         NO                            : ONE LINE PER DEPTH STEP
 DLM               .         SPACE                         : DELIMITING CHARACTER(SPACE TAB OR COMMA)
~Well Information
#_______________________________________________________________________________
#
#PARAMETER_NAME    .UNIT     VALUE                         : DESCRIPTION
#_______________________________________________________________________________
STRT               .m        91.8972                       : First reference value
STOP               .m        352.6536                      : Last reference value
STEP               .m        0.1524                        : Step increment
NULL               .         -9999                         : Missing value
COMP               .                                       : Company
WELL               .         C                             : Well name
FLD                .                                       : Field
LOC                .                                       : Location
CNTY               .                                       : County
STAT               .                                       : State
CTRY               .                                       : Country
SRVC               .                                       : Service Company
DATE               .                                       : Date
API                .                                       : API number
~Parameter Information Block
#_______________________________________________________________________________
#
#PARAMETER_NAME    .UNIT     VALUE                         : DESCRIPTION
#_______________________________________________________________________________
SET                .         Inclination                   : 
TLFamily_C13       .         Caliper 1                     : 
TLFamily_C24       .         Caliper 2                     : 
TLFamily_DEVI      .         Hole Deviation                : 
TLFamily_GR        .         Gamma Ray                     : 
TLFamily_HAZI      .         Hole Azimuth                  : 
TLFamily_MD        .         Measured Depth                : 
TLFamily_P1AZ      .         Pad A Azimuth                 : 
TLFamily_RB        .         Relative Bearing              : 
~Curve Information
#_______________________________________________________________________________
#
#LOGNAME           .UNIT     LOG_ID                        : DESCRIPTION
#_______________________________________________________________________________
MD                 .m                                      :  
C13                .mm                                     : Caliper 1-3 
C24                .mm                                     : Caliper 2-4 
DEVI               .deg                                    : Deviation 
GR                 .gAPI                                   : Gamma Ray 
HAZI               .deg                                    : Hole Azimuth 
P1AZ               .deg                                    : Pad 1 Azimuth 
RB                 .deg                                    : Relative Bearing 
~Ascii
# ...
161.2392   197.2677   194.8994   0.5289001  53.99166   251.0851   151.5369   260.4507  
161.3916   197.2677   195.3622   0.5286255  54.72202   251.0348   150.0808   259.0448  
161.544    195.4036   193.7424   0.5279236  54.77207   251.0805   149.5699   258.4916  
161.6964   195.4036   191.5632   0.5274353  52.66379   251.1454   150.7421   259.597   
161.8488   196.3357   193.0482   0.5262146  50.89884   251.303    153.3857   262.0814  
162.0012   197.6819   195.825    0.5255737  52.35942   251.5184   156.0184   264.5025  
162.1536   199.7531   198.8331   0.524231   52.15506   251.679    160.1244   268.4468  
162.306    201.6172   200.1322   0.5230713  55.80669   251.8091   160.3256   268.5198  
162.4584   202.2385   201.2897   0.5221863  53.22456   251.945    159.9409   267.9942  
162.6108   202.2385   201.2897   0.5210571  52.43346   252.0129   160.7123   268.6989  
162.7632   202.2385   201.2897   0.5202942  48.67315   252.0406   160.0792   268.0359  
162.9156   202.2385   201.3784   0.5190735  53.14183   252.1692   160.7533   268.5825  
163.068    202.2385   201.3784   0.5179749  52.65494   252.2047   161.3533   269.1457  
163.2204   202.2385   201.2897   0.517334   55.80656   252.2577   161.5329   269.2728  
163.3728   202.2385   201.3784   0.5169373  56.21235   252.2656   163.2715   271.009   
163.5252   202.2385   201.2897   0.51651    57.8838    252.2753   164.0991   271.823   
163.6776   202.2385   201.201    0.5165405  56.66658   252.306    164.003    271.6959  
163.83     202.2385   202.0726   0.5179749  54.06129   252.2895   162.5109   270.2187  
163.9824   202.2385   201.3784   0.518219   52.02465   252.3138   161.6849   269.3686  
164.1348   202.2385   201.3784   0.5195313  50.50323   252.3267   160.854    268.5291  
164.2872   202.2385   201.201    0.5205994  50.45104   252.35     161.2364   268.8832  
164.4396   202.2385   201.2897   0.5209961  50.78576   252.3413   160.9105   268.5697  
164.592    202.2385   201.201    0.5220032  52.36803   252.328    160.3226   267.9953  
164.7444   202.2385   201.2897   0.5218201  51.82023   252.343    160.6306   268.2911  
164.8968   202.2385   201.3784   0.5221558  54.71973   252.3202   160.8123   268.4907  
165.0492   202.2385   201.6098   0.5216675  56.18042   252.2967   161.7794   269.4823  
165.2016   202.2385   201.201    0.521759   56.42392   252.2485   161.8658   269.6158  
165.354    202.2385   201.3784   0.521698   52.64194   252.208    160.5168   268.3058  
165.5064   202.2385   202.7668   0.5217896  50.25756   252.1732   160.2218   268.052   
165.6588   202.2385   201.3784   0.5215759  50.86612   252.1451   160.1503   268.0048  
165.8112   202.2385   201.3784   0.5221558  53.26134   252.1449   161.0356   268.8908  
165.9636   202.2385   201.2897   0.5231323  51.99418   252.0984   161.6343   269.5311  
166.116    202.2385   201.3784   0.5237122  50.79662   252.1224   161.3317   269.2119  
166.2684   202.2385   201.3784   0.5245667  51.74867   252.1018   160.7864   268.6845  
166.4208   202.2385   201.2897   0.5254517  54.42644   252.1156   160.1036   267.991   
166.5732   202.2385   201.3784   0.5264587  54.5285    252.0776   160.2574   268.1771  
166.7256   202.2385   201.3784   0.5269775  51.81165   252.0551   158.485    266.4273  
166.878    202.2385   200.1845   0.5274048  52.29854   251.9939   158.5703   266.575   
167.0304   202.2385   200.8264   0.5274048  53.26799   251.8863   157.6861   265.8004  
167.1828   202.2385   201.2897   0.5275269  52.6376    251.8881   157.9137   266.0258  
167.3352   202.2385   201.201    0.5273132  50.02073   251.8438   158.1112   266.2694  
167.4876   202.2385   201.3784   0.5269165  48.80793   251.8042   158.0381   266.2324  
167.64     202.2385   199.8553   0.5270996  49.05134   251.8185   157.2849   265.4636  
167.7924   202.2385   199.9901   0.5273438  51.66152   251.8272   157.1664   265.3375  
167.9448   202.2385   199.8104   0.5279236  51.47887   251.8675   157.475    265.6088  
168.0972   202.2385   200.1316   0.528717   53.25246   251.9107   157.8326   265.9201  
168.2496   202.2385   200.9156   0.5300598  51.37254   251.9277   158.2966   266.3676  
168.402    202.2385   201.0578   0.5313721  52.01164   251.9577   158.9432   266.9823  
168.5544   202.2385   200.6842   0.5320435  51.31828   251.9675   157.7136   265.7484  
168.7068   202.2385   199.9002   0.5328674  51.1357    251.886    156.6335   264.7468  
168.8592   202.2385   199.9901   0.5335083  50.74006   251.8586   156.6298   264.7704  
169.0116   202.2385   199.9002   0.533783   49.66856   251.7319   156.1431   264.4113  
169.164    202.2385   200.0418   0.5340881  48.57306   251.612    156.1234   264.5114  
169.3164   202.2385   199.8104   0.5344543  48.77956   251.4933   156.0049   264.5122  
169.4688   202.2385   201.2897   0.534668   48.40565   251.3794   155.8397   264.4608  
169.6212   202.2385   201.2897   0.53479    49.31863   251.2745   155.593    264.3155  
169.7736   202.2385   201.3784   0.5353699  50.81612   251.1559   156.3533   265.1972  
169.926    202.2385   201.2897   0.5354919  52.07248   251.0281   156.4846   265.4542  
170.0784   202.2385   201.3784   0.5355225  55.11531   250.9358   156.0712   265.1345  
170.2308   202.2385   201.2897   0.5359497  56.33252   250.8793   153.8665   262.9849  
170.3832   202.2385   201.2897   0.5355225  60.18819   250.8433   152.5759   261.7302  
170.5356   202.2385   201.2897   0.5351563  62.07482   250.8953   151.6949   260.8013  
170.688    202.2385   201.201    0.5346069  62.51167   251.0299   150.8627   259.8338  
170.8404   202.2385   201.201    0.5331421  60.13824   251.2423   150.4999   259.2574  
170.9928   202.2385   199.579    0.5315552  57.39959   251.4105   154.8971   263.488   
171.1452   203.067    204.0687   0.5309753  58.11901   251.6418   155.8727   264.2302  
171.2976   213.2158   209.8576   0.530365   59.03195   251.7308   155.0554   263.3257  
171.45     216.5297   214.5679   0.5305176  56.88018   251.8451   154.9351   263.0894  
171.6024   215.7012   212.9425   0.5307922  54.32423   251.8871   155.3935   263.5094  
171.7548   204.9311   204.1552   0.5319214  55.60225   251.847    157.058    265.2086  
171.9072   202.2385   201.5217   0.532959   60.3709    251.7499   158.4625   266.7129  
172.0596   202.2385   201.3443   0.533905   61.45115   251.8034   158.8649   267.0636  
172.212    202.2385   202.4473   0.5351257  60.11224   251.7939   159.3331   267.5395  
172.3644   202.2385   202.7668   0.5358887  57.73888   251.9047   160.4342   268.5313  
172.5168   202.2385   202.7668   0.537384   55.56309   252.1308   162.0118   269.8781  
172.6692   202.2385   202.7668   0.5393066  52.5811    252.3874   163.5662   271.1808  
172.8216   201.8243   202.5917   0.5407715  50.50101   252.5714   163.708    271.1359  
172.974    202.0314   202.6355   0.5422058  50.64713   252.7775   163.486    270.7108  
173.1264   201.6172   202.5354   0.5435486  53.94219   252.9633   163.4861   270.525   
173.2788   199.7531   201.2897   0.5447388  54.728     253.0669   162.7806   269.7142  
173.4312   199.7531   201.2897   0.5448608  58.08119   253.0825   162.9229   269.8386  
173.5836   199.7531   201.5211   0.5448608  56.00328   253.0768   162.9034   269.8264  
173.736    199.7531   201.201    0.5449524  55.47169   253.0752   163.0189   269.9413  
173.8884   199.7531   201.201    0.5447388  54.33725   253.0579   163.6263   270.57    
174.0408   199.7531   201.2897   0.5441284  56.64981   253.0088   163.186    270.1751  
174.1932   199.7531   201.1123   0.5437927  56.34562   252.9506   163.7075   270.7581  
174.3456   199.7531   201.2897   0.5435486  56.59769   252.8822   164.5687   271.6861  
174.498    199.7531   201.3784   0.5432129  56.71944   252.8147   166.1974   273.3789  
174.6504   199.7531   202.6792   0.5430908  58.30182   252.7792   166.8906   274.1079  
174.8028   199.7531   202.6792   0.5428162  58.24095   252.7187   166.5336   273.8159  
174.9552   199.7531   201.7525   0.5425415  54.8589    252.6723   165.2147   272.5424  
