~Version
 VERS              .         2.0                           : CWLS LOG ASCII STANDARD - VERSION 2.0
 WRAP              .         NO                            : ONE LINE PER DEPTH STEP
 DLM               .         SPACE                         : DELIMITING CHARACTER(SPACE TAB OR COMMA)
~Well Information
#_______________________________________________________________________________
#
#PARAMETER_NAME    .UNIT     VALUE                         : DESCRIPTION
#_______________________________________________________________________________
STRT               .m        91.8972                       : First reference value
STOP               .m        352.6536                      : Last reference value
STEP               .m        0.1524                        : Step increment
NULL               .         -9999                         : Missing value
COMP               .                                       : Company
WELL               .         C                             : Well name
FLD                .                                       : Field
LOC                .                                       : Location
CNTY               .                                       : County
STAT               .                                       : State
CTRY               .                                       : Country
SRVC               .                                       : Service Company
DATE               .                                       : Date
API                .                                       : API number
~Parameter Information Block
#_______________________________________________________________________________
#
#PARAMETER_NAME    .UNIT     VALUE                         : DESCRIPTION
#_______________________________________________________________________________
SET                .         Inclination                   : 
TLFamily_C13       .         Caliper 1                     : 
TLFamily_C24       .         Caliper 2                     : 
TLFamily_DEVI      .         Hole Deviation                : 
TLFamily_GR        .         Gamma Ray                     : 
TLFamily_HAZI      .         Hole Azimuth                  : 
TLFamily_MD        .         Measured Depth                : 
TLFamily_P1AZ      .         Pad A Azimuth                 : 
TLFamily_RB        .         Relative Bearing              : 
~Curve Information
#_______________________________________________________________________________
#
#LOGNAME           .UNIT     LOG_ID                        : DESCRIPTION
#_______________________________________________________________________________
MD                 .m                                      :  
C13                .mm                                     : Caliper 1-3 
C24                .mm                                     : Caliper 2-4 
DEVI               .deg                                    : Deviation 
GR                 .gAPI                                   : Gamma Ray 
HAZI               .deg                                    : Hole Azimuth 
P1AZ               .deg                                    : Pad 1 Azimuth 
RB                 .deg                                    : Relative Bearing 
~Ascii
# ...
202.8444   199.7531   199.0247   0.5328674  51.18049   226.5235   115.7498   249.2242  
202.9968   199.7531   199.9901   0.5318909  51.56382   226.4191   115.5245   249.1037  
203.1492   199.7531   199.9901   0.5310059  53.73733   226.2563   116.1758   249.9202  
203.3016   199.7531   199.7587   0.5297241  55.25875   226.0698   116.0634   249.99    
203.454    199.7531   199.2959   0.5290527  53.06799   225.7276   116.388    250.6578  
203.6064   199.7531   198.5107   0.5281677  51.91975   225.3355   116.5049   251.1692  
203.7588   199.7531   199.347    0.5271912  50.23536   224.8312   115.1504   250.3184  
203.9112   199.7531   199.7206   0.5265198  51.68982   224.1817   115.929    251.7471  
204.0636   199.7531   198.4197   0.5262756  53.44661   223.6876   116.4071   252.7201  
204.216    197.2677   197.6761   0.5257874  55.02232   223.0419   116.3961   253.3536  
204.3684   197.2677   195.825    0.5255127  54.9067    222.4944   115.2684   252.774   
204.5208   195.1965   195.7317   0.5255127  53.08096   222.0057   112.6242   250.6182  
204.6732   190.4328   193.8794   0.5248718  54.82061   221.6991   111.9319   250.232   
204.8256   195.4036   195.3622   0.5240173  54.19241   221.5501   111.8701   250.3184  
204.978    195.4036   194.3422   0.5232544  54.31419   221.3871   112.5453   251.1578  
205.1304   195.6107   195.7317   0.5231628  52.7442    221.3354   112.5895   251.2504  
205.2828   195.4036   196.9819   0.522583   52.76379   221.1361   109.9018   248.7642  
205.4352   197.2677   198.2793   0.522522   52.64208   220.9567   106.7973   245.8404  
205.5876   199.7531   199.9002   0.5227966  50.57273   220.5806   104.379    243.7949  
205.74     198.9246   199.5273   0.5231018  51.94402   220.2047   101.4883   241.2806  
205.8924   194.7823   195.825    0.5227661  53.13064   219.8096   101.3046   241.494   
206.0448   194.7823   192.163    0.5213318  54.16528   219.5838   101.0639   241.4796  
206.1972   192.7111   190.7712   0.5204163  52.30721   219.4829   100.8737   241.3885  
206.3496   190.4328   190.6186   0.5169678  51.54647   219.6239   98.9024    239.2773  
206.502    190.4328   190.8684   0.5132141  51.85088   219.9965   98.04929   238.0504  
206.6544   190.4328   190.8927   0.5091553  51.41462   220.5905   98.10455   237.513   
206.8068   190.4328   192.8168   0.5037231  50.03235   221.4299   99.59247   238.1611  
206.9592   190.4328   195.7317   0.4985962  49.4501    222.3218   100.0994   237.7759  
207.1116   195.4036   195.7317   0.493866   50.79927   223.0665   98.43481   235.3677  
207.264    197.2677   195.6384   0.4906006  51.11442   223.6646   96.00967   232.3451  
207.4164   197.6819   197.9075   0.4865723  52.11446   224.1947   93.21155   229.0135  
207.5688   199.7531   197.2611   0.4824524  53.2707    224.6594   93.47202   228.81    
207.7212   199.7531   197.8159   0.4801941  53.85107   224.8897   94.18744   229.2967  
207.8736   199.7531   197.9075   0.4783325  53.37244   225.1061   91.09134   225.9844  
208.026    198.5104   197.2133   0.477356   52.45952   225.2581   87.58722   222.3297  
208.1784   199.546    197.2133   0.478363   53.79831   225.2852   86.38724   221.1022  
208.3308   197.2677   196.2877   0.4794617  55.19793   225.3725   84.93906   219.568   
208.4832   197.2677   195.8704   0.4812012  55.44136   225.4017   81.1127    215.7099  
208.6356   195.4036   195.7317   0.4825745  56.53688   225.4953   78.72382   213.2296  
208.788    195.6107   195.7317   0.4827576  55.86739   225.4882   77.67798   212.1892  
208.9404   197.2677   195.7317   0.4823303  55.7457    225.5405   77.70486   212.1622  
209.0928   197.2677   195.6384   0.4804382  55.38053   225.4614   76.43146   210.9686  
209.2452   197.2677   195.1308   0.4780579  54.10263   225.3567   74.28088   208.9228  
209.3976   197.2677   195.0369   0.4745483  54.83291   225.0528   72.12415   207.068   
209.55     197.2677   193.9738   0.4701233  53.67666   224.7168   70.37164   205.6552  
209.7024   195.4036   190.7712   0.4667969  54.22426   224.2477   69.21524   204.9667  
209.8548   190.4328   190.8684   0.4637146  53.73742   223.8632   68.01627   204.1532  
210.0072   187.9474   193.5525   0.4615479  54.16334   223.492    67.31033   203.8162  
210.1596   195.4036   193.6474   0.4608459  55.98922   223.1145   65.40344   202.2881  
210.312    195.6107   194.2478   0.4596558  55.62409   222.8632   61.6199    198.7537  
210.4644   197.2677   194.2052   0.4596558  56.11085   222.6534   60.31223   197.6561  
210.6168   198.5104   193.5525   0.4588013  55.31961   222.4725   60.21741   197.7443  
210.7692   198.7175   192.026    0.456604   57.38871   222.4267   58.28662   195.8596  
210.9216   199.7531   190.9657   0.4537048  57.44973   222.3697   56.64066   194.2706  
211.074    199.7531   190.9657   0.4490967  57.20631   222.4507   53.86078   191.4069  
211.2264   199.7531   193.5525   0.4454651  57.6324    222.4651   53.11768   190.6514  
211.3788   199.7531   194.8994   0.4397583  58.6061    222.559    52.24728   189.6859  
211.5312   199.7531   194.4366   0.4345398  58.78867   222.5993   50.83521   188.235   
211.6836   199.7531   194.4366   0.4293518  58.48425   222.6749   50.24606   187.5712  
211.836    199.7531   194.3422   0.4242554  56.71938   222.6789   49.44824   186.7689  
211.9884   199.7531   194.3658   0.4209595  59.88401   222.7137   49.01328   186.2994  
212.1408   199.7531   194.2478   0.418335   57.44987   222.6932   48.06912   185.3782  
212.2932   199.7531   194.4366   0.4167786  59.03214   222.7019   47.91681   185.2164  
212.4456   199.7531   194.295    0.4154053  57.26722   222.7036   47.46985   184.7632  
212.598    199.7531   194.4366   0.4141541  58.7886    222.8034   48.3811    185.5781  
212.7504   199.7531   195.1308   0.4144897  58.24087   222.897    48.85294   185.9534  
212.9028   199.7531   194.668    0.4131775  57.81493   223.038    47.85144   184.8134  
213.0552   199.7531   195.1308   0.4125061  57.38888   223.202    47.06415   183.8617  
213.2076   199.7531   194.3422   0.4119568  56.11089   223.3553   45.56335   182.2059  
213.36     199.7531   194.4366   0.4109192  54.46762   223.4662   45.608     182.1429  
213.5124   199.7531   195.3622   0.409668   54.62846   223.5682   45.03098   181.4623  
213.6648   199.7531   193.8794   0.408783   57.06276   223.6589   45.0267    181.3683  
213.8172   199.7531   193.3552   0.4082642  58.27997   223.7244   46.73114   183.0063  
213.9696   199.7531   195.0369   0.4077148  57.93652   223.9055   47.08075   183.1732  
214.122    199.7531   195.5936   0.4081726  57.38884   224.0383   46.58728   182.5466  
214.2744   199.7531   194.805    0.4092712  60.0665    224.4267   48.08948   183.6597  
214.4268   199.7531   195.7317   0.4116211  58.97114   224.7632   51.19443   186.4299  
214.5792   199.7531   195.5815   0.415802   55.98893   225.2139   55.0972    189.8813  
214.7316   199.7531   194.9901   0.4212036  52.82439   225.7183   57.03351   191.3147  
214.884    199.7531   194.4366   0.4277954  55.68475   226.1907   59.74609   193.5564  
215.0364   199.7531   194.2478   0.4344482  57.99747   226.672    62.99161   196.3185  
215.1888   199.7531   195.1751   0.4396973  60.9795    226.9857   66.53937   199.5524  
215.3412   199.7531   194.1534   0.445343   60.6143    227.4046   71.65552   204.2496  
215.4936   199.7531   194.2478   0.4505005  61.28381   227.7914   75.36749   207.5754  
215.646    199.7531   194.8994   0.4547119  59.21454   228.2219   74.76578   206.5435  
215.7984   199.7531   195.7317   0.45755    57.44966   228.7061   73.9743    205.2699  
215.9508   199.7531   194.805    0.4602356  59.70132   229.1039   73.69348   204.5894  
216.1032   199.7531   194.3422   0.461731   60.67513   229.3293   74.55795   205.231   
216.2556   199.7531   194.8056   0.4637451  63.10941   229.5607   74.66022   205.099   
216.408    199.7531   195.1308   0.4658203  62.07485   229.5537   73.28265   203.7309  
216.5604   199.7531   194.0164   0.4682922  60.91856   229.3808   72.40662   203.0243  
