~Version
 VERS              .         2.0                           : CWLS LOG ASCII STANDARD - VERSION 2.0
 WRAP              .         NO                            : ONE LINE PER DEPTH STEP
 DLM               .         SPACE                         : DELIMITING CHARACTER(SPACE TAB OR COMMA)
~Well Information
#_______________________________________________________________________________
#
#PARAMETER_NAME    .UNIT     VALUE                         : DESCRIPTION
#_______________________________________________________________________________
STRT               .m        91.8972                       : First reference value
STOP               .m        352.6536                      : Last reference value
STEP               .m        0.1524                        : Step increment
NULL               .         -9999                         : Missing value
COMP               .                                       : Company
WELL               .         C                             : Well name
FLD                .                                       : Field
LOC                .                                       : Location
CNTY               .                                       : County
STAT               .                                       : State
CTRY               .                                       : Country
SRVC               .                                       : Service Company
DATE               .                                       : Date
API                .                                       : API number
~Parameter Information Block
#_______________________________________________________________________________
#
#PARAMETER_NAME    .UNIT     VALUE                         : DESCRIPTION
#_______________________________________________________________________________
SET                .         Inclination                   : 
TLFamily_C13       .         Caliper 1                     : 
TLFamily_C24       .         Caliper 2                     : 
TLFamily_DEVI      .         Hole Deviation                : 
TLFamily_GR        .         Gamma Ray                     : 
TLFamily_HAZI      .         Hole Azimuth                  : 
TLFamily_MD        .         Measured Depth                : 
TLFamily_P1AZ      .         Pad A Azimuth                 : 
TLFamily_RB        .         Relative Bearing              : 
~Curve Information
#_______________________________________________________________________________
#
#LOGNAME           .UNIT     LOG_ID                        : DESCRIPTION
#_______________________________________________________________________________
MD                 .m                                      :  
C13                .mm                                     : Caliper 1-3 
C24                .mm                                     : Caliper 2-4 
DEVI               .deg                                    : Deviation 
GR                 .gAPI                                   : Gamma Ray 
HAZI               .deg                                    : Hole Azimuth 
P1AZ               .deg                                    : Pad 1 Azimuth 
RB                 .deg                                    : Relative Bearing 
~Ascii
# ...
341.5284   203.4813   201.3443   0.4324951  36.92673   214.1084   159.7522   305.6443  
341.6808   203.4813   202.5041   0.4349976  36.92673   214.2035   157.2819   303.0801  
341.8332   203.4813   202.7361   0.438324   36.92673   214.1834   155.2486   301.0646  
341.9856   202.2385   200.9691   0.4411621  36.92673   214.0723   153.5538   299.4821  
342.138    202.2385   200.8804   0.4444885  36.92673   214.0365   151.9423   297.9068  
342.2904   202.2385   201.8964   0.4479675  36.92673   213.8838   150.321    296.4388  
342.4428   202.2385   201.201    0.4521484  36.92673   213.7402   148.6289   294.8902  
342.5952   202.2385   199.4886   0.4559631  36.92673   213.6645   146.4924   292.8286  
342.7476   201.6172   199.7206   0.4595032  36.92673   213.7134   144.854    291.1442  
342.9      201.6172   199.7206   0.4634094  36.92673   213.6395   142.8587   289.2192  
343.0524   201.6172   199.7879   0.4660339  36.92673   213.6561   141.6764   288.0209  
343.2048   201.6172   200.1316   0.4683838  36.92673   213.7673   141.32     287.5522  
343.3572   201.6172   199.3465   0.470459   36.92673   213.8562   142.1877   288.3332  
343.5096   201.6172   193.2533   0.4719238  36.92673   213.8217   141.9236   288.103   
343.662    202.2385   196.0092   0.473053   36.92673   213.9464   140.8294   286.8828  
343.8144   202.2385   199.4886   0.4740906  36.92673   213.9789   140.1537   286.1764  
343.9668   202.2385   200.6484   0.4736328  36.92673   214.1632   138.277    284.1135  
344.1192   202.2385   199.7206   0.473877   36.92673   214.3554   138.4303   284.0745  
344.2716   202.2385   200.4164   0.4751282  36.92673   214.6335   137.8014   283.1691  
344.424    202.2385   200.7371   0.4743958  36.92673   215.1333   137.2466   282.1136  
344.5764   200.0638   199.9525   0.4740906  36.92673   215.6426   136.0027   280.3603  
344.7288   199.7531   199.7206   0.4732361  36.92673   216.3471   134.7048   278.3592  
344.8812   197.2677   198.4197   0.4720154  36.92673   216.8812   132.0514   275.1727  
345.0336   197.2677   195.5452   0.4703064  36.92673   217.3212   130.9066   273.584   
345.186    197.2677   196.7983   0.4685059  36.92673   217.6571   132.3528   274.6949  
345.3384   197.2677   199.5784   0.4662476  36.92673   217.8577   133.8951   276.0374  
345.4908   199.7531   202.5917   0.4637451  36.92673   217.9025   133.0638   275.1605  
345.6432   202.2385   201.3443   0.4602661  36.92673   217.797    132.4274   274.6313  
345.7956   202.2385   203.287    0.458252   36.92673   217.5386   131.5067   273.9675  
345.948    202.2385   203.6639   0.456543   36.92673   217.2403   130.63     273.3893  
346.1004   202.2385   202.0402   0.4553528  36.92673   216.9424   129.7638   272.8208  
346.2528   202.2385   202.2722   0.4544983  36.92673   216.6474   128.8944   272.2484  
346.4052   202.2385   202.5041   0.45401    36.92673   216.404    127.9815   271.5773  
346.5576   202.2385   201.8082   0.4537659  36.92673   216.2222   127.022    270.8     
346.71     202.2385   202.4473   0.454071   36.92673   216.1134   126.3293   270.2167  
346.8624   202.2385   202.1277   0.4537048  36.92673   216.0495   125.4089   269.3591  
347.0148   202.2385   201.8082   0.454071   36.92673   215.9189   124.7537   268.835   
347.1672   202.2385   201.8082   0.4540405  36.92673   215.9616   123.9704   268.0092  
347.3196   202.2385   201.8082   0.4536438  36.92673   215.7902   123.0664   267.2756  
347.472    202.2385   201.8964   0.454071   36.92673   215.7751   122.2266   266.4517  
347.6244   202.2385   202.0402   0.4538879  36.92673   215.7498   121.6427   265.8928  
347.7768   202.2385   202.5041   0.4541321  36.92673   215.751    120.6418   264.8887  
347.9292   202.2385   202.3301   0.4540405  36.92673   215.7426   119.681    263.9384  
348.0816   202.0314   202.7361   0.4534912  36.92673   215.6367   118.7398   263.1036  
348.234    201.6172   202.1283   0.45224    36.92673   215.5691   117.5119   261.9418  
348.3864   201.6172   201.1123   0.4525452  36.92673   215.601    116.0922   260.4901  
348.5388   201.4101   203.2      0.4511108  36.92673   215.5626   114.136    258.5722  
348.6912   201.6172   202.5041   0.4510803  36.92673   215.6335   112.679    257.0444  
348.8436   202.2385   201.4324   0.4511719  36.92673   215.6479   110.9763   255.3301  
348.996    202.2385   203.2      0.4508057  36.92673   215.7054   110.0194   254.3134  
349.1484   202.2385   203.287    0.4510498  36.92673   215.7035   108.8203   253.1159  
349.3008   202.2385   203.287    0.4515686  36.92673   215.8899   107.7419   251.852   
349.4532   202.2385   201.5763   0.4511414  36.92673   215.921    106.6131   250.6938  
349.6056   202.2385   203.2      0.4498901  36.92673   215.826    105.6024   249.7756  
349.758    202.2385   203.8959   0.4494934  36.92673   215.9561   104.7684   248.8112  
349.9104   201.6172   203.7509   0.4476318  36.92673   215.9614   103.6086   247.6447  
350.0628   201.6172   203.432    0.4462891  36.92673   216.0078   102.4052   246.3962  
350.2152   201.6172   202.2722   0.4447937  36.92673   216.1634   101.1078   244.9426  
350.3676   201.4101   202.968    0.4437256  36.92673   216.2123   100.0723   243.8582  
350.52     199.7531   203.2      0.4423828  36.92673   216.3974   98.80923   242.4108  
350.6724   199.7531   202.3603   0.4414978  36.92673   216.5806   97.83722   241.2576  
350.8248   199.7531   202.5917   0.4419556  36.92673   216.6625   96.8808    240.2193  
350.9772   199.7531   202.6781   0.4420166  36.92673   216.6238   95.67838   239.0549  
351.1296   199.7531   202.8236   0.4421692  36.92673   216.7325   95.29807   238.5663  
351.282    199.7531   202.5986   0.4415894  36.92673   216.7014   94.59293   237.8912  
351.4344   199.7531   202.7361   0.4389648  36.92673   217.1133   93.03287   235.9203  
351.5868   199.7531   201.1123   0.4364319  36.92673   217.5844   91.48053   233.8968  
351.7392   197.2677   201.1123   0.4404907  36.92673   216.9673   89.52811   232.5607  
351.8916   197.2677   200.1845   0.4341736  36.92673   217.27     92.27603   235.0063  
352.044    197.4557   190.442    0.4316101  36.92673   216.191    91.56891   235.3781  
352.1964   197.2677   189.9781   0.4382935  36.92673   217.3914   91.65701   234.2657  
352.3488   189.9252   184.8804   0.4196472  36.92673   222.3497   92.3493    229.9984  
352.5012   187.6988   173.2767   0.3878784  36.92673   224.3066   89.69101   225.3825  
352.6536   169.3351   154.7796   0.3948975  36.92673   225.8004   88.30328   222.505   
