~Version
 VERS              .         2.0                           : CWLS LOG ASCII STANDARD - VERSION 2.0
 WRAP              .         NO                            : ONE LINE PER DEPTH STEP
 DLM               .         SPACE                         : DELIMITING CHARACTER(SPACE TAB OR COMMA)
~Well Information
#_______________________________________________________________________________
#
#PARAMETER_NAME    .UNIT     VALUE                         : DESCRIPTION
#_______________________________________________________________________________
STRT               .m        91.8972                       : First reference value
STOP               .m        352.6536                      : Last reference value
STEP               .m        0.1524                        : Step increment
NULL               .         -9999                         : Missing value
COMP               .                                       : Company
WELL               .         C                             : Well name
FLD                .                                       : Field
LOC                .                                       : Location
CNTY               .                                       : County
STAT               .                                       : State
CTRY               .                                       : Country
SRVC               .                                       : Service Company
DATE               .                                       : Date
API                .                                       : API number
~Parameter Information Block
#_______________________________________________________________________________
#
#PARAMETER_NAME    .UNIT     VALUE                         : DESCRIPTION
#_______________________________________________________________________________
SET                .         Inclination                   : 
TLFamily_C13       .         Caliper 1                     : 
TLFamily_C24       .         Caliper 2                     : 
TLFamily_DEVI      .         Hole Deviation                : 
TLFamily_GR        .         Gamma Ray                     : 
TLFamily_HAZI      .         Hole Azimuth                  : 
TLFamily_MD        .         Measured Depth                : 
TLFamily_P1AZ      .         Pad A Azimuth                 : 
TLFamily_RB        .         Relative Bearing              : 
~Curve Information
#_______________________________________________________________________________
#
#LOGNAME           .UNIT     LOG_ID                        : DESCRIPTION
#_______________________________________________________________________________
MD                 .m                                      :  
C13                .mm                                     : Caliper 1-3 
C24                .mm                                     : Caliper 2-4 
DEVI               .deg                                    : Deviation 
GR                 .gAPI                                   : Gamma Ray 
HAZI               .deg                                    : Hole Azimuth 
P1AZ               .deg                                    : Pad 1 Azimuth 
RB                 .deg                                    : Relative Bearing 
~Ascii
# ...
286.0548   199.7531   196.7983   0.4394836  47.92336   217.1691   44.70599   187.5364  
286.2072   199.7531   198.3288   0.4368591  42.68958   217.6056   43.30762   185.7019  
286.3596   199.7531   201.1123   0.4346008  39.25325   217.9045   43.09955   185.1948  
286.512    199.7531   201.201    0.4328613  39.55755   218.1415   43.2543    185.1113  
286.6644   199.7531   201.201    0.4303284  40.47045   218.4416   42.57419   184.1316  
286.8168   199.7531   201.1123   0.4290466  42.29618   218.5097   41.66833   183.1575  
286.9692   200.3745   201.201    0.4273682  45.76505   218.6591   39.70392   181.0445  
287.1216   201.6172   201.1123   0.4251404  54.77197   218.6374   41.03824   182.3996  
287.274    201.6172   201.8964   0.4234924  59.72322   218.5797   42.67822   184.0978  
287.4264   199.9602   201.4324   0.4233704  60.21      218.4205   42.46033   184.0392  
287.5788   199.7531   201.1123   0.4217224  55.4631    218.2778   42.26505   183.9885  
287.7312   199.7531   201.1123   0.4218445  51.49205   218.0092   40.87354   182.8637  
287.8836   199.7531   201.1123   0.4213867  47.90148   217.7531   41.36322   183.6108  
288.036    199.7531   199.9525   0.4197998  45.99454   217.5698   40.69406   183.1229  
288.1884   199.7531   201.1123   0.4191895  44.70999   217.3149   40.01511   182.6976  
288.3408   199.7531   201.1123   0.4182434  42.1018    217.2367   39.99683   182.7593  
288.4932   199.7531   201.201    0.4172363  39.93121   217.073    40.54428   183.4704  
288.6456   201.6172   201.1123   0.4159546  39.44442   217.0177   41.76553   184.7468  
288.798    200.9958   201.1123   0.4154358  42.60035   217.0561   42.34781   185.2901  
288.9504   201.6172   201.2897   0.4148254  50.73794   217.1939   42.50262   185.309   
289.1028   201.6172   201.8082   0.4142761  51.14367   217.3322   42.21536   184.883   
289.2552   199.7531   201.201    0.4138184  49.3788    217.5912   41.24533   183.6531  
289.4076   199.7531   201.1123   0.4134827  42.33667   217.8851   40.08279   182.1975  
289.56     199.7531   201.201    0.4128113  42.11351   218.1275   38.96323   180.8354  
289.7124   199.7531   200.5057   0.4114685  42.17433   218.3222   38.08472   179.761   
289.8648   199.7531   201.1123   0.4095154  41.40056   218.4601   36.60944   178.1501  
290.0172   199.7531   200.4164   0.4075928  40.4877    218.4732   34.10309   175.6315  
290.1696   199.7531   200.6484   0.4048462  38.05346   218.4426   29.86685   171.4254  
290.322    199.7531   201.1123   0.4014893  38.82721   218.3465   27.39078   169.0435  
290.4744   199.7531   201.2897   0.3980713  37.85341   218.2541   25.7908    167.5364  
290.6268   199.7531   201.1123   0.3948364  39.31393   218.2399   24.85495   166.6163  
290.7792   199.7531   201.8082   0.3927307  37.27962   218.2368   24.80472   166.5695  
290.9316   199.7531   201.201    0.3905029  38.49687   218.2781   24.0947    165.8185  
291.084    199.7531   201.201    0.388855   38.37512   218.3959   23.57364   165.1755  
291.2364   199.7531   201.201    0.3881531  37.91434   218.4599   22.87015   164.4111  
291.3888   199.7531   201.1123   0.3879089  36.39289   218.5146   22.62128   164.1087  
291.5412   199.7531   201.1123   0.3883972  34.87154   218.4249   22.01871   163.5917  
291.6936   199.7531   201.2897   0.3890381  34.99331   218.3797   21.40765   163.0264  
291.846    199.7531   201.2897   0.3893433  37.79272   218.2307   20.02036   161.7914  
291.9984   199.546    201.201    0.389679   41.6876    217.9658   19.29257   161.325   
292.1508   199.7531   202.2153   0.3894043  45.30423   217.6987   18.13556   160.4401  
292.3032   199.7531   201.665    0.3881226  45.42593   217.3709   16.62936   159.2596  
292.4556   199.7531   202.3603   0.3857727  43.60023   217.1491   15.47253   158.3222  
292.608    199.7531   201.8082   0.3830566  42.78085   216.897    13.66858   156.7729  
292.7604   199.546    201.1123   0.378479   40.86182   216.6703   11.38538   154.7155  
292.9128   199.7531   200.5063   0.3730469  42.28975   216.4235   5.92627    149.5023  
293.0652   199.7531   199.9525   0.3691711  43.08315   216.2975   3.580017   147.2841  
293.2176   199.7531   200.4164   0.3648071  46.80611   216.2571   2.799011   146.5406  
293.37     199.7531   199.8104   0.3616028  48.23846   216.2619   0.3401794  144.0793  
293.5224   199.7531   195.7772   0.3572388  48.24329   216.1224   358.5287   142.4077  
293.6748   199.7531   194.8493   0.3530273  51.36889   216.0422   359.7688   143.7241  
293.8272   199.7531   195.7317   0.350647   57.21113   215.9638   2.457367   146.4968  
293.9796   199.7531   199.7206   0.347168   66.03064   215.6821   3.029022   147.3479  
294.132    199.7531   201.1123   0.3454285  66.9391    215.5478   2.500549   146.9521  
294.2844   199.7531   201.1123   0.3424072  65.72215   215.186    4.442688   149.2592  
294.4368   199.7531   201.0049   0.3406982  59.33195   214.9802   4.848969   149.8699  
294.5892   199.7531   201.1123   0.3386841  51.76822   214.741    5.602814   150.865   
294.7416   199.7531   201.4603   0.3352966  41.23971   214.5238   7.929932   153.4072  
294.894    199.7531   201.1788   0.3338928  34.24115   214.3681   10.18619   155.8172  
295.0464   199.7531   201.1123   0.3320313  32.25464   214.3519   9.196899   154.8471  
295.1988   199.7531   201.1123   0.3304749  31.9351    214.2462   8.712494   154.466   
295.3512   199.7531   201.1123   0.3283386  31.69165   214.0968   8.966248   154.8687  
295.5036   199.7531   201.201    0.3271179  31.14389   214.0201   8.506653   154.49    
295.656    199.7531   201.201    0.3260193  32.21547   213.9296   9.029358   155.0995  
295.8084   199.7531   201.1123   0.3247375  32.70239   213.714    10.3364    156.6225  
295.9608   199.7531   201.201    0.3243103  34.95409   213.5607   13.98584   160.4261  
296.1132   199.7531   200.6484   0.3217468  35.64743   213.3252   15.23492   161.9105  
296.2656   199.7531   195.5452   0.3215942  38.20345   213.0571   15.6564    162.5992  
296.418    199.7531   197.4009   0.3218079  39.11634   212.7652   12.35239   159.589   
296.5704   197.2677   196.705    0.3208923  41.931     212.4754   10.29047   157.815   
296.7228   199.7531   197.0291   0.321106   41.0181    212.273    9.256836   156.9855  
296.8752   199.546    198.5107   0.3217773  39.31629   211.943    11.5621    159.6188  
297.0276   200.7887   200.8804   0.3243713  37.49052   211.6828   16.03915   164.3591  
297.18     200.9958   201.1123   0.3248901  37.97742   211.664    11.84671   160.1823  
297.3324   199.7531   201.201    0.3260803  34.76279   211.5716   8.966156   157.394   
297.4848   199.7531   201.1123   0.3280334  29.92057   211.4332   8.862518   157.4277  
297.6372   199.7531   200.6484   0.3275146  26.14953   211.5706   9.494446   157.925   
297.7896   198.3033   201.201    0.3277893  25.04108   211.5466   8.469727   156.9229  
297.942    197.2677   201.1123   0.3286133  25.17556   211.5506   7.276245   155.7267  
298.0944   201.6172   201.1123   0.3295288  25.1125    211.5576   4.13501    152.5779  
298.2468   199.9084   200.1845   0.3301392  28.33792   211.5454   2.677734   151.1337  
298.3992   199.7531   201.1123   0.331665   30.73307   211.4098   2.270538   150.8607  
298.5516   199.7531   201.1123   0.3325195  37.73172   211.3032   7.868164   156.5665  
298.704    199.7531   201.1788   0.3346252  41.20068   211.0511   8.514038   157.4622  
298.8564   199.7531   201.1123   0.3356323  44.12191   210.789    6.296082   155.5071  
299.0088   200.3745   201.1123   0.3365479  40.47044   210.5231   5.490112   154.9661  
299.1612   200.3745   201.1123   0.3372192  36.51459   210.2807   5.344696   155.0637  
299.3136   200.9958   201.1123   0.3371277  35.48433   210.0558   5.913177   155.8578  
299.466    200.9958   200.1845   0.337616   35.36266   209.7102   5.819031   156.1083  
299.6184   200.7887   199.7206   0.337616   34.67807   209.3739   6.662811   157.2883  
299.7708   200.9958   199.7206   0.3368225  32.54363   209.0086   8.441254   159.4338  
