~Version
 VERS              .         2.0                           : CWLS LOG ASCII STANDARD - VERSION 2.0
 WRAP              .         NO                            : ONE LINE PER DEPTH STEP
 DLM               .         SPACE                         : DELIMITING CHARACTER(SPACE TAB OR COMMA)
~Well Information
#_______________________________________________________________________________
#
#PARAMETER_NAME    .UNIT     VALUE                         : DESCRIPTION
#_______________________________________________________________________________
STRT               .m        91.8972                       : First reference value
STOP               .m        352.6536                      : Last reference value
STEP               .m        0.1524                        : Step increment
NULL               .         -9999                         : Missing value
COMP               .                                       : Company
WELL               .         C                             : Well name
FLD                .                                       : Field
LOC                .                                       : Location
CNTY               .                                       : County
STAT               .                                       : State
CTRY               .                                       : Country
SRVC               .                                       : Service Company
DATE               .                                       : Date
API                .                                       : API number
~Parameter Information Block
#_______________________________________________________________________________
#
#PARAMETER_NAME    .UNIT     VALUE                         : DESCRIPTION
#_______________________________________________________________________________
SET                .         Inclination                   : 
TLFamily_C13       .         Caliper 1                     : 
TLFamily_C24       .         Caliper 2                     : 
TLFamily_DEVI      .         Hole Deviation                : 
TLFamily_GR        .         Gamma Ray                     : 
TLFamily_HAZI      .         Hole Azimuth                  : 
TLFamily_MD        .         Measured Depth                : 
TLFamily_P1AZ      .         Pad A Azimuth                 : 
TLFamily_RB        .         Relative Bearing              : 
~Curve Information
#_______________________________________________________________________________
#
#LOGNAME           .UNIT     LOG_ID                        : DESCRIPTION
#_______________________________________________________________________________
MD                 .m                                      :  
C13                .mm                                     : Caliper 1-3 
C24                .mm                                     : Caliper 2-4 
DEVI               .deg                                    : Deviation 
GR                 .gAPI                                   : Gamma Ray 
HAZI               .deg                                    : Hole Azimuth 
P1AZ               .deg                                    : Pad 1 Azimuth 
RB                 .deg                                    : Relative Bearing 
~Ascii
# ...
244.4496   199.7531   199.2049   0.5041504  92.7038    228.9659   148.7408   279.7748  
244.602    199.7531   201.2897   0.4978333  92.31474   227.9902   147.5309   279.5398  
244.7544   198.5104   200.9691   0.4964294  90.12383   227.3228   145.4298   278.1073  
244.9068   209.6948   206.7005   0.4919739  89.78347   227.4231   144.0514   276.6286  
245.0592   227.507    218.1213   0.4873962  87.90334   227.2614   147.7887   280.5288  
245.2116   237.0344   242.3353   0.4828796  89.10091   227.4771   145.3255   277.8495  
245.364    221.0863   236.0274   0.482605   86.70922   227.8255   143.7651   275.9417  
245.5164   221.2934   225.9063   0.4814148  90.1715    228.5881   146.086    277.4968  
245.6688   222.5361   219.5114   0.4821472  90.73882   228.9541   150.6663   281.7132  
245.8212   219.4294   221.047    0.4856873  92.50363   228.9135   150.5327   281.6187  
245.9736   223.1575   217.9638   0.4876099  90.23891   229.0254   151.0555   282.031   
246.126    207.2094   215.9563   0.4898071  90.96919   228.882    150.54     281.6587  
246.2784   215.7012   230.5342   0.4937439  86.5157    228.8595   149.6812   280.8251  
246.4308   221.0863   242.0488   0.4945374  84.24673   228.7248   147.6943   278.9702  
246.5832   222.7433   223.9846   0.4965515  81.87324   228.9428   147.6634   278.7207  
246.7356   221.2935   231.3949   0.4978943  82.56657   229.2498   153.9265   284.675   
246.888    225.2287   222.4354   0.5        79.49321   230.1387   156.6887   286.5523  
247.0404   203.2741   207.0831   0.4995728  78.3631    230.7245   158.0652   287.342   
247.1928   198.0962   191.1971   0.4995117  81.16159   231.97     160.9794   289.0095  
247.3452   197.2677   190.4056   0.4967346  84.17184   232.9623   163.8707   290.9071  
247.4976   192.9182   184.8465   0.4958496  84.81516   233.7113   166.6159   292.9043  
247.65     190.4328   189.7461   0.4904785  81.32323   234.2707   169.1791   294.9106  
247.8024   190.4328   195.6384   0.4848938  80.882     234.6777   168.8458   294.1678  
247.9548   194.7823   192.0282   0.4778748  78.1433    234.7007   169.3282   294.6241  
248.1072   195.0929   190.0759   0.4734497  77.95435   234.5488   168.3963   293.8484  
248.2596   195.4036   188.0894   0.4668579  78.91499   233.9531   174.5722   300.6192  
248.412    190.4328   188.2219   0.4626465  81.57748   233.0855   173.7152   300.6304  
248.5644   201.8243   194.573    0.4598083  85.18534   232.9817   171.1      298.1194  
248.7168   216.3226   230.3027   0.4571533  85.6744    232.4588   171.2949   298.8358  
248.8692   206.588    212.4854   0.4555359  85.56799   232.5881   179.4994   306.913   
249.0216   211.5589   209.0815   0.4559326  85.11166   232.578    180.8603   308.2805  
249.174    214.0443   214.49     0.4536133  85.23124   232.8275   179.9114   307.085   
249.3264   206.588    218.733    0.4538269  87.41773   232.9535   179.5394   306.5844  
249.4788   214.8727   217.5761   0.4508972  89.27385   233.4999   178.8034   305.3028  
249.6312   214.8728   211.7912   0.4498901  87.13725   233.3362   177.564    304.2315  
249.7836   204.724    206.7631   0.4472961  83.0034    233.6253   176.267    302.6433  
249.936    200.9958   201.7525   0.4452515  78.18475   233.4335   175.0175   301.5847  
250.0884   199.3389   201.147    0.4460754  79.28663   233.3249   173.8212   300.4966  
250.2408   195.4036   190.9657   0.4462891  78.61724   232.9938   172.4996   299.5083  
250.3932   195.4036   186.7005   0.4501648  75.40282   232.6356   171.7501   299.1143  
250.5456   195.4036   190.3078   0.4528809  69.80402   232.324    170.7142   298.3913  
250.698    198.5104   197.0291   0.4586182  63.07268   231.8596   173.0233   301.1626  
250.8504   202.2385   202.5041   0.4639587  58.26483   231.3687   178.2476   306.8804  
251.0028   202.2385   203.2      0.4688721  55.26094   230.795    177.2098   306.4143  
251.1552   202.2385   202.5917   0.471283   56.88018   230.2848   176.3793   306.0987  
251.3076   202.2385   203.3305   0.4735413  61.05762   229.7065   175.433    305.7272  
251.46     202.2385   201.8964   0.474884   66.80016   229.0271   175.1431   306.116   
251.6124   202.2385   201.3784   0.473938   72.27731   228.6456   174.9239   306.2772  
251.7648   198.5104   200.0423   0.4732666  73.85307   228.1695   174.7177   306.5488  
251.9172   197.2677   195.6379   0.4716492  73.18362   227.7361   175.8908   308.1561  
252.0696   197.2677   189.7103   0.4713135  69.49087   227.5736   175.7444   308.1724  
252.222    195.4036   187.8904   0.4703674  67.57169   227.5269   175.0903   307.5625  
252.3744   195.4036   188.0894   0.4720764  67.47822   227.5976   175.0076   307.4113  
252.5268   195.8179   188.6858   0.4728394  69.05404   228.0497   175.385    307.3356  
252.6792   197.6819   190.674    0.4738159  65.82855   228.3064   175.7571   307.4502  
252.8316   197.8891   190.674    0.4738159  59.71447   228.9818   174.0251   305.0472  
252.984    202.2385   197.4009   0.4738464  53.8525    229.7423   171.3438   301.6035  
253.1364   202.2385   201.8958   0.4729309  59.63398   230.228    171.6674   301.4412  
253.2888   199.7531   196.0092   0.4723511  67.32386   230.9839   170.847    299.864   
253.4412   199.7531   194.8493   0.4703369  73.90307   231.7033   172.0002   300.2969  
253.5936   199.7531   195.6384   0.4678955  75.85046   232.2222   172.9625   300.7385  
253.746    199.7531   195.8704   0.4671631  73.45528   232.7434   172.0161   299.2732  
253.8984   197.2677   200.5057   0.4651489  71.35128   233.1441   173.7828   300.6379  
254.0508   197.2677   199.4886   0.463623   69.09967   233.4526   174.6888   301.2352  
254.2032   199.7531   199.347    0.4646301  70.25598   233.8228   175.0162   301.1956  
254.3556   197.2677   200.8269   0.4641418  72.3991    234.0414   175.9463   301.9046  
254.508    197.2677   195.2678   0.4660645  70.99933   234.1248   175.1287   301.0048  
254.6604   197.2677   195.5009   0.4679565  69.84296   234.1813   175.6517   301.4746  
254.8128   199.7531   201.2897   0.4699402  68.8301    233.9627   176.0063   302.0455  
254.9652   196.025    196.2877   0.4738464  70.47334   233.5809   175.4122   301.8361  
255.1176   195.4036   194.1108   0.4788513  75.70718   233.0095   176.5433   303.534   
255.27     195.6107   194.805    0.4827271  80.81709   232.419    176.8246   304.4063  
255.4224   195.4036   192.6246   0.4862366  86.03999   232.0609   176.7664   304.7078  
255.5748   198.3033   193.8794   0.489502   87.07439   231.7005   178.4761   306.7742  
255.7272   203.4813   202.5923   0.4916382  87.89387   231.4457   181.4281   309.9812  
255.8796   205.5524   206.7005   0.4952393  86.19189   231.5554   181.831    310.2775  
256.032    202.2385   221.4365   0.4978027  84.91393   231.6699   183.5685   311.8982  
256.1844   206.588    233.2484   0.5012512  84.52254   232.2412   180.0461   307.8079  
256.3368   223.3646   228.9144   0.5039978  84.52265   232.3207   175.9214   303.6021  
256.4892   227.7141   235.6249   0.5068665  86.59186   232.7317   167.1691   294.4402  
256.6416   213.8372   209.1634   0.509491   86.66803   232.7652   165.8223   293.0571  
256.794    207.2094   201.8963   0.513916   87.22446   232.9271   167.4846   294.5583  
256.9464   203.067    202.449    0.5143738  85.08144   232.7408   169.0298   296.29    
257.0988   199.7531   200.9156   0.5183411  87.31792   232.6503   170.4702   297.8198  
257.2512   200.3745   201.665    0.5205688  89.78695   232.4457   169.7211   297.2788  
257.4036   199.7531   201.2897   0.5229797  92.47771   232.0441   165.7728   293.73    
257.556    202.2385   203.287    0.5257263  92.51028   231.7156   161.9514   290.237   
257.7084   202.2385   201.3784   0.5285645  94.54466   231.3745   160.5093   289.1367  
257.8608   202.2385   201.4855   0.531311   93.42965   231.1934   160.3044   289.1087  
258.0132   202.4464   202.8385   0.5361023  93.94475   230.934    160.0756   289.1418  
258.1656   203.4813   202.6355   0.5385742  90.71282   230.6702   163.5104   292.8388  
