~Version
 VERS              .         2.0                           : CWLS LOG ASCII STANDARD - VERSION 2.0
 WRAP              .         NO                            : ONE LINE PER DEPTH STEP
 DLM               .         SPACE                         : DELIMITING CHARACTER(SPACE TAB OR COMMA)
~Well Information
#_______________________________________________________________________________
#
#PARAMETER_NAME    .UNIT     VALUE                         : DESCRIPTION
#_______________________________________________________________________________
STRT               .m        91.8972                       : First reference value
STOP               .m        352.6536                      : Last reference value
STEP               .m        0.1524                        : Step increment
NULL               .         -9999                         : Missing value
COMP               .                                       : Company
WELL               .         C                             : Well name
FLD                .                                       : Field
LOC                .                                       : Location
CNTY               .                                       : County
STAT               .                                       : State
CTRY               .                                       : Country
SRVC               .                                       : Service Company
DATE               .                                       : Date
API                .                                       : API number
~Parameter Information Block
#_______________________________________________________________________________
#
#PARAMETER_NAME    .UNIT     VALUE                         : DESCRIPTION
#_______________________________________________________________________________
SET                .         Inclination                   : 
TLFamily_C13       .         Caliper 1                     : 
TLFamily_C24       .         Caliper 2                     : 
TLFamily_DEVI      .         Hole Deviation                : 
TLFamily_GR        .         Gamma Ray                     : 
TLFamily_HAZI      .         Hole Azimuth                  : 
TLFamily_MD        .         Measured Depth                : 
TLFamily_P1AZ      .         Pad A Azimuth                 : 
TLFamily_RB        .         Relative Bearing              : 
~Curve Information
#_______________________________________________________________________________
#
#LOGNAME           .UNIT     LOG_ID                        : DESCRIPTION
#_______________________________________________________________________________
MD                 .m                                      :  
C13                .mm                                     : Caliper 1-3 
C24                .mm                                     : Caliper 2-4 
DEVI               .deg                                    : Deviation 
GR                 .gAPI                                   : Gamma Ray 
HAZI               .deg                                    : Hole Azimuth 
P1AZ               .deg                                    : Pad 1 Azimuth 
RB                 .deg                                    : Relative Bearing 
~Ascii
# ...
313.7916   204.1026   206.4475   0.2841187  55.70881   188.9326   317.6297   128.6979  
313.944    203.8955   206.2155   0.2860107  59.45811   189.6183   316.9317   127.3135  
314.0964   203.4813   204.3598   0.288208   55.92832   190.3537   316.36     126.0062  
314.2488   206.588    208.3032   0.2900696  46.55616   191.1398   315.7185   124.5795  
314.4012   203.4813   205.9216   0.2905273  41.44413   191.9521   314.5996   122.6478  
314.5536   203.4813   203.2      0.2908936  41.25502   192.4861   312.7029   120.2169  
314.706    203.4813   203.2      0.2909851  47.46254   193.3181   311.0095   117.6916  
314.8584   203.4813   204.4178   0.2910156  55.00887   194.2718   309.2228   114.9514  
315.0108   202.2385   205.2877   0.2908325  60.85778   195.2177   306.1026   110.8851  
315.1632   202.2385   203.9818   0.2921143  61.10117   196.1649   304.1233   107.9586  
315.3156   202.2385   203.6639   0.2940369  54.91761   197.2794   302.5464   105.2672  
315.468    202.2385   202.5917   0.2958374  48.46667   198.364    301.244    102.8805  
315.6204   202.2385   204.5918   0.29776    45.78898   199.1138   300.4892   101.3759  
315.7728   202.2385   205.0557   0.3001709  49.17315   200.0173   298.9294   98.91241  
315.9252   202.2385   203.9829   0.3022156  56.59782   200.7124   298.157    97.44446  
316.0776   202.2385   203.2      0.3035583  65.90496   201.3598   299.795    98.43521  
316.23     202.2385   203.055    0.3044434  74.48585   201.848    301.0757   99.22775  
316.3824   202.2385   202.2722   0.3034668  76.25068   202.1569   302.4091   100.2527  
316.5348   201.2029   201.5763   0.3016968  69.74294   202.4326   304.7366   102.3042  
316.6872   202.2385   201.201    0.2989197  57.63222   202.5273   305.7939   103.267   
316.8396   202.2385   203.374    0.2966003  49.23384   202.4777   305.4193   102.9417  
316.992    202.2385   203.2      0.2923889  49.8424    202.4199   305.2298   102.8088  
317.1444   202.2385   203.2      0.2889404  58.17999   202.1537   304.68     102.5275  
317.2968   201.6172   202.5041   0.2854919  67.24779   201.782    304.7037   102.9216  
317.4492   202.0314   202.6355   0.2822876  69.01271   201.4139   304.6433   103.2294  
317.6016   201.6172   202.5917   0.2797852  64.57      200.754    304.48     103.7256  
317.754    202.2385   203.2      0.2787781  58.78856   200.3846   303.6208   103.2358  
317.9064   202.2385   202.5917   0.2779846  61.42188   199.7281   302.5652   102.8383  
318.0588   202.0314   203.2      0.2782593  72.86324   199.2503   301.4232   102.1731  
318.2112   199.7531   202.1562   0.2796936  80.22916   198.808    300.1895   101.3817  
318.3636   199.7531   201.1123   0.2815552  81.24721   198.5147   299.4255   100.9108  
318.516    199.7531   202.2722   0.2837524  73.27476   198.3673   298.1405   99.77322  
318.6684   199.7531   201.1123   0.2864685  63.77878   198.2387   296.7293   98.49057  
318.8208   199.7531   201.2454   0.2892151  50.39016   198.2649   296.7763   98.51074  
318.9732   199.7531   201.201    0.2927856  37.36057   198.4685   297.6833   99.21524  
319.1256   199.7531   203.287    0.2973938  28.85067   198.7533   297.7889   99.03491  
319.278    203.4813   202.8521   0.302063   25.01664   199.2178   298.3505   99.13312  
319.4304   203.4813   203.7872   0.3068237  23.5621    199.9079   300.092    100.1844  
319.5828   203.4813   204.9397   0.311554   22.27391   200.4596   303.6525   103.1936  
319.7352   203.4813   201.8082   0.3155212  23.96576   200.7935   303.9225   103.1299  
319.8876   203.4813   202.7433   0.3200378  26.06739   201.0931   298.5076   97.41409  
320.04     203.4813   203.6639   0.3240662  29.30758   201.2731   294.5735   93.30014  
320.1924   203.4813   203.2      0.3274841  32.08096   201.1261   295.0515   93.92554  
320.3448   203.4813   204.8237   0.3299255  36.00425   200.7822   295.0276   94.24524  
320.4972   203.4813   200.4164   0.3305054  38.6997    200.4687   293.602    93.13348  
320.6496   204.3097   201.1123   0.3299866  40.98969   200.0311   290.4341   90.40259  
320.802    204.724    201.6342   0.3298645  41.70821   199.7822   289.3256   89.54333  
320.9544   204.724    204.4178   0.3279114  41.65673   199.5177   288.433    88.91492  
321.1068   204.724    206.1107   0.3259277  41.65268   199.542    287.9485   88.40622  
321.2592   204.724    205.9836   0.3239136  43.55113   199.7443   287.531    87.78625  
321.4116   206.588    205.9836   0.3217468  50.40579   200.1075   285.7347   85.62756  
321.564    204.724    208.3032   0.3198853  55.7088    200.5512   283.5402   82.98868  
321.7164   203.067    203.2      0.3180847  60.06867   201.1559   281.2451   80.08829  
321.8688   202.2385   202.5041   0.3157959  57.98858   201.9298   279.7156   77.78561  
322.0212   202.2385   201.8963   0.31427    56.41292   202.7023   278.6918   75.98935  
322.1736   202.2385   201.5763   0.3131714  53.45263   203.5226   278.326    74.80243  
322.326    202.2385   203.0556   0.3130798  57.80191   204.2459   277.7649   73.51852  
322.4784   202.2385   201.1123   0.3127747  62.52911   204.9498   277.0292   72.07901  
322.6308   202.2385   200.9691   0.3131409  66.43485   205.6661   275.8981   70.2308   
322.7832   202.2385   200.4164   0.313446   64.02443   206.4884   274.7806   68.29263  
322.9356   202.2385   201.1123   0.3133545  63.89839   207.1772   274.577    67.40128  
323.088    202.2385   201.201    0.3134155  71.90347   207.5254   273.9401   66.414    
323.2404   202.2385   201.5763   0.3133545  88.49594   207.8048   273.2248   65.42111  
323.3928   202.2385   201.8082   0.3129272  100.2198   207.9345   272.9196   64.98462  
323.5452   202.2385   202.5041   0.3121948  104.506    208.0535   272.4555   64.40234  
323.6976   202.2385   202.7361   0.3104858  97.71158   207.9523   272.4749   64.52356  
323.85     201.6172   201.1123   0.3093872  84.28584   207.9724   272.5069   64.53299  
324.0024   201.4101   201.8082   0.3081665  62.85519   208.0732   271.6893   63.61313  
324.1548   204.5168   204.3598   0.3068848  43.99575   207.978    271.6566   63.6774   
324.3072   204.724    206.5322   0.3064575  35.304     208.1642   271.2123   63.04904  
324.4596   204.1026   205.9836   0.3059082  31.52211   208.3952   270.6221   62.22601  
324.612    204.1026   205.2877   0.3059998  32.4677    208.7728   270.0631   61.28876  
324.7644   206.588    206.6795   0.3060303  30.69628   209.2708   269.237    59.96463  
324.9168   206.588    207.4584   0.3069153  33.91087   209.5765   268.6754   59.09644  
325.0692   204.1026   206.9962   0.308136   34.66713   210.0539   267.9921   57.93692  
325.2216   204.1026   203.6639   0.3084717  34.60411   210.3957   267.6311   57.23618  
325.374    204.724    207.2275   0.3096619  34.44115   210.9156   267.1144   56.19696  
325.5264   204.1026   206.6795   0.3105469  32.97624   211.4756   266.3822   54.90591  
325.6788   204.1026   204.8237   0.3120422  36.94726   212.0851   265.5067   53.41895  
325.8312   203.4813   203.2      0.3143005  42.24179   212.7501   264.4374   51.68503  
325.9836   203.4813   203.432    0.3161926  49.37951   213.2998   262.6613   49.36224  
326.136    203.4813   201.8082   0.3187256  51.62473   214.0424   260.7429   46.70041  
326.2884   203.4813   202.5041   0.321167   51.34656   214.4012   259.5      45.09488  
326.4408   203.4813   201.5763   0.3236694  49.86861   215.1164   258.4759   43.36005  
326.5932   203.4813   202.0402   0.3265076  46.15622   215.7641   256.5552   40.7912   
326.7456   203.4813   202.0402   0.3291321  42.51728   216.2438   254.4958   38.25415  
326.898    203.4813   203.287    0.3316345  42.06934   216.5336   251.3543   34.82144  
327.0504   203.4813   203.8959   0.3338318  49.18833   216.9438   249.4202   32.47491  
327.2028   203.4813   202.968    0.3348389  58.36489   217.2684   248.0042   30.73822  
327.3552   203.4813   203.026    0.3369446  59.08479   217.5735   247.3155   29.7431   
327.5076   202.2385   201.2897   0.3385925  53.43996   218.0217   246.4659   28.44083  
