~Version
 VERS              .         2.0                           : CWLS LOG ASCII STANDARD - VERSION 2.0
 WRAP              .         NO                            : ONE LINE PER DEPTH STEP
 DLM               .         SPACE                         : DELIMITING CHARACTER(SPACE TAB OR COMMA)
~Well Information
#_______________________________________________________________________________
#
#PARAMETER_NAME    .UNIT     VALUE                         : DESCRIPTION
#_______________________________________________________________________________
STRT               .m        91.8972                       : First reference value
STOP               .m        352.6536                      : Last reference value
STEP               .m        0.1524                        : Step increment
NULL               .         -9999                         : Missing value
COMP               .                                       : Company
WELL               .         C                             : Well name
FLD                .                                       : Field
LOC                .                                       : Location
CNTY               .                                       : County
STAT               .                                       : State
CTRY               .                                       : Country
SRVC               .                                       : Service Company
DATE               .                                       : Date
API                .                                       : API number
~Parameter Information Block
#_______________________________________________________________________________
#
#PARAMETER_NAME    .UNIT     VALUE                         : DESCRIPTION
#_______________________________________________________________________________
SET                .         Inclination                   : 
TLFamily_C13       .         Caliper 1                     : 
TLFamily_C24       .         Caliper 2                     : 
TLFamily_DEVI      .         Hole Deviation                : 
TLFamily_GR        .         Gamma Ray                     : 
TLFamily_HAZI      .         Hole Azimuth                  : 
TLFamily_MD        .         Measured Depth                : 
TLFamily_P1AZ      .         Pad A Azimuth                 : 
TLFamily_RB        .         Relative Bearing              : 
~Curve Information
#_______________________________________________________________________________
#
#LOGNAME           .UNIT     LOG_ID                        : DESCRIPTION
#_______________________________________________________________________________
MD                 .m                                      :  
C13                .mm                                     : Caliper 1-3 
C24                .mm                                     : Caliper 2-4 
DEVI               .deg                                    : Deviation 
GR                 .gAPI                                   : Gamma Ray 
HAZI               .deg                                    : Hole Azimuth 
P1AZ               .deg                                    : Pad 1 Azimuth 
RB                 .deg                                    : Relative Bearing 
~Ascii
# ...
188.976    199.7531   201.1123   0.505127   45.5216    251.838    164.0028   272.1689  
189.1284   199.7531   201.201    0.5019836  48.68615   252.0414   164.3148   272.2742  
189.2808   199.7531   201.2897   0.4985046  49.41642   252.3577   164.3328   271.9773  
189.4332   199.7531   201.3784   0.4960022  51.12042   252.6446   163.8237   271.1789  
189.5856   199.7531   200.8804   0.4919128  52.7028    253.1323   162.2916   269.1606  
189.738    199.7531   199.8104   0.4880371  54.68927   253.6306   163.5389   269.9092  
189.8904   199.7531   199.8104   0.4844971  54.93269   254.0383   164.4118   270.3698  
190.0428   199.7531   199.9525   0.480011   56.57587   254.3241   164.6323   270.3093  
190.1952   199.7531   201.2897   0.4754639  57.83652   254.4526   165.7999   271.3492  
190.3476   199.7531   200.0418   0.471283   59.65432   254.4405   167.491    273.0544  
190.5      199.7531   199.9901   0.4685364  57.84591   254.1619   168.3512   274.1926  
190.6524   199.7531   199.9002   0.465332   57.7635    253.7444   168.4362   274.692   
190.8048   199.7531   199.9002   0.4632568  54.78944   253.0899   168.6314   275.5426  
190.9572   199.7531   199.9901   0.4623413  52.03346   252.2263   169.2483   277.0197  
191.1096   199.7531   200.5057   0.4622803  49.21659   251.4638   170.6121   279.1529  
191.262    199.7531   200.6842   0.463562   50.61627   250.5507   170.1326   279.5863  
191.4144   199.7531   200.6173   0.4649048  52.62466   249.8166   168.9112   279.0942  
191.5668   201.2029   200.4164   0.4680481  52.58106   248.6986   167.4355   278.7374  
191.7192   199.9602   200.4164   0.4714355  51.71389   247.6692   165.626    277.9575  
191.8716   201.8243   201.201    0.4754028  51.40939   246.5039   163.5433   277.0422  
192.024    202.2385   200.7371   0.480072   52.26146   245.3495   162.2701   276.9213  
192.1764   202.2385   201.2454   0.4830017  52.88523   244.5771   161.6353   277.0578  
192.3288   202.2385   201.2454   0.4873657  54.46767   243.5999   160.7996   277.2004  
192.4812   202.2385   201.1788   0.4912415  53.55479   242.7611   159.2615   276.4984  
192.6336   202.2385   201.2454   0.4950256  52.23768   241.9864   157.0684   275.0809  
192.786    202.2385   201.3784   0.4984131  50.1685    241.2886   155.1356   273.8481  
192.9384   202.2385   201.1123   0.5008545  50.95961   240.5873   155.4261   274.8394  
193.0908   202.2385   201.1123   0.5030212  53.00701   239.8824   153.6266   273.7429  
193.2432   202.2385   199.8104   0.5052185  52.39843   239.2963   152.9822   273.6879  
193.3956   202.2385   200.595    0.507782   53.18961   238.5572   151.5196   272.9634  
193.548    202.2385   200.5504   0.5101929  53.3722    237.7375   149.5254   271.7908  
193.7004   202.2385   199.8553   0.5130005  57.02368   236.7827   150.9751   274.1915  
193.8528   202.2385   194.9896   0.5153809  61.04037   235.827    153.6909   277.8649  
194.0052   200.3745   193.6474   0.5178833  60.32312   234.8662   155.016    280.152   
194.1576   200.3745   195.9631   0.5193787  63.3153    234.1872   155.4973   281.3115  
194.31     199.7531   196.7272   0.5208435  62.70663   233.2852   154.8096   281.5265  
194.4624   199.9602   197.9075   0.5216675  70.7116    232.5238   155.887    283.3643  
194.6148   202.2385   198.7421   0.522583   71.67513   231.9614   155.8862   283.9264  
194.7672   202.2385   199.9901   0.5229797  76.05472   231.4423   155.429    283.9886  
194.9196   202.2385   200.3642   0.5222778  75.21797   231.0936   155.4569   284.3661  
195.072    202.2385   199.9901   0.5215759  77.10461   230.8852   155.8447   284.959   
195.2244   202.2385   200.2215   0.5195923  75.5853    230.7083   155.5305   284.8243  
195.3768   202.2385   198.6017   0.5164795  77.65445   230.5363   152.5789   282.0423  
195.5292   202.2385   198.4652   0.5124207  82.88822   230.4285   150.6138   280.1845  
195.6816   202.6528   199.0645   0.5080261  88.06116   230.4242   151.5217   281.0974  
195.834    207.2094   201.147    0.5032349  91.71271   230.5105   152.7801   282.2697  
195.9864   204.724    203.461    0.4992676  91.36057   230.4684   153.6113   283.1431  
196.1388   204.724    202.8747   0.4961548  91.23892   230.5999   154.4484   283.8477  
196.2912   210.0055   202.0726   0.4954529  89.35223   230.6337   154.4492   283.8168  
196.4436   211.5589   210.4028   0.4931641  89.21741   230.758    152.6335   281.876   
196.596    211.3518   207.5436   0.495575   88.73042   230.919    150.988    280.0693  
196.7484   214.0443   202.304    0.4995422  89.94762   231.271    150.0711   278.8018  
196.9008   215.7012   205.5435   0.5009766  91.04309   231.7488   149.1265   277.379   
197.0532   211.5589   212.6366   0.5054932  93.86001   232.217    147.0674   274.8504  
197.2056   213.2158   211.097    0.5080566  95.62492   232.9062   146.0668   273.1607  
197.358    219.0151   214.1051   0.5125122  92.52131   233.5113   143.325    269.8164  
197.5104   225.8501   214.49     0.5155029  91.04343   234.3815   140.2226   265.8411  
197.6628   228.1283   233.7737   0.5176697  88.79171   234.8048   144.1781   269.374   
197.8152   213.2158   205.0807   0.5205383  88.98071   235.0296   147.5909   272.5644  
197.9676   218.808    216.4191   0.5207214  89.34573   235.3608   149.5283   274.1679  
198.12     211.5589   211.097    0.5217285  88.06758   235.2943   151.509    276.2143  
198.2724   217.3582   212.7168   0.5200806  87.81558   235.3807   152.5233   277.144   
198.4248   218.3938   222.2039   0.5189514  86.01216   235.1746   148.6787   273.5036  
198.5772   205.9667   207.6261   0.518219   88.44648   235.0277   142.1424   267.1142  
198.7296   202.2385   203.461    0.5168457  90.39597   234.7525   138.9704   264.2159  
198.882    203.4813   202.304    0.5143127  90.16065   234.2291   137.7997   263.5706  
199.0344   203.4813   201.2897   0.5142822  88.13013   233.9999   137.4096   263.4085  
199.1868   204.5168   202.304    0.5152893  88.63873   233.8504   136.669    262.819   
199.3392   202.2385   201.6098   0.5175476  91.65118   233.6278   135.8163   262.1912  
199.4916   199.7531   202.7668   0.5217285  91.12569   233.6315   135.6151   261.9848  
199.644    199.7531   202.2159   0.5254822  89.94771   233.4376   135.949    262.5128  
199.7964   199.7531   196.2877   0.5301208  84.04451   233.2963   136.7569   263.4639  
199.9488   199.7531   193.0482   0.5344849  81.1842    233.2425   135.9091   262.6661  
200.1012   199.7531   193.7424   0.5370178  77.83702   233.1526   134.7662   261.6138  
200.2536   195.8179   193.2529   0.5397339  73.15089   232.9762   133.6587   260.6831  
200.406    195.4036   190.9657   0.5409851  67.94753   232.667    133.8955   261.2284  
200.5584   195.4036   191.7963   0.5413208  59.42535   232.2675   134.6779   262.4097  
200.7108   197.2677   194.5747   0.5409241  54.86106   231.8521   133.5668   261.7151  
200.8632   199.7531   195.7317   0.5402832  50.0228    231.2517   128.4437   257.1943  
201.0156   199.7531   197.9075   0.5392151  50.75517   230.6146   128.4644   257.8516  
201.168    199.7531   198.6017   0.5382996  50.69432   230.1733   127.9789   257.8038  
201.3204   199.7531   198.1884   0.5374756  52.31794   229.5591   125.3398   255.7773  
201.4728   199.7531   198.5107   0.5363464  51.5877    229.0608   122.0553   252.9955  
201.6252   199.7531   198.5334   0.5357361  52.80485   228.5485   119.7488   251.201   
201.7776   199.7531   198.0479   0.5353088  54.34595   228.1628   119.4021   251.2381  
201.93     199.7531   195.825    0.5352478  56.04989   227.7948   117.9534   250.1569  
202.0824   197.2677   195.4997   0.5351868  57.38886   227.4768   119.1198   251.6422  
202.2348   197.2677   197.1212   0.5349121  56.06219   227.2946   120.1506   252.8575  
202.3872   199.7531   197.3532   0.5348816  55.42758   227.0377   120.7376   253.6971  
202.5396   199.7531   199.2959   0.5341187  54.13126   226.8605   118.9092   252.0479  
202.692    199.7531   199.2959   0.5336609  53.22356   226.677    116.7711   250.0914  
