~Version
 VERS              .         2.0                           : CWLS LOG ASCII STANDARD - VERSION 2.0
 WRAP              .         NO                            : ONE LINE PER DEPTH STEP
 DLM               .         SPACE                         : DELIMITING CHARACTER(SPACE TAB OR COMMA)
~Well Information
#_______________________________________________________________________________
#
#PARAMETER_NAME    .UNIT     VALUE                         : DESCRIPTION
#_______________________________________________________________________________
STRT               .m        91.8972                       : First reference value
STOP               .m        352.6536                      : Last reference value
STEP               .m        0.1524                        : Step increment
NULL               .         -9999                         : Missing value
COMP               .                                       : Company
WELL               .         C                             : Well name
FLD                .                                       : Field
LOC                .                                       : Location
CNTY               .                                       : County
STAT               .                                       : State
CTRY               .                                       : Country
SRVC               .                                       : Service Company
DATE               .                                       : Date
API                .                                       : API number
~Parameter Information Block
#_______________________________________________________________________________
#
#PARAMETER_NAME    .UNIT     VALUE                         : DESCRIPTION
#_______________________________________________________________________________
SET                .         Inclination                   : 
TLFamily_C13       .         Caliper 1                     : 
TLFamily_C24       .         Caliper 2                     : 
TLFamily_DEVI      .         Hole Deviation                : 
TLFamily_GR        .         Gamma Ray                     : 
TLFamily_HAZI      .         Hole Azimuth                  : 
TLFamily_MD        .         Measured Depth                : 
TLFamily_P1AZ      .         Pad A Azimuth                 : 
TLFamily_RB        .         Relative Bearing              : 
~Curve Information
#_______________________________________________________________________________
#
#LOGNAME           .UNIT     LOG_ID                        : DESCRIPTION
#_______________________________________________________________________________
MD                 .m                                      :  
C13                .mm                                     : Caliper 1-3 
C24                .mm                                     : Caliper 2-4 
DEVI               .deg                                    : Deviation 
GR                 .gAPI                                   : Gamma Ray 
HAZI               .deg                                    : Hole Azimuth 
P1AZ               .deg                                    : Pad 1 Azimuth 
RB                 .deg                                    : Relative Bearing 
~Ascii
# ...
258.318    203.4813   201.1123   0.5384216  90.18472   230.8309   164.5472   293.7186  
258.4704   209.9019   206.1519   0.5406189  85.49874   230.8365   164.5213   293.6858  
258.6228   214.6656   210.3204   0.5411377  82.22102   230.8358   162.9196   292.0854  
258.7752   214.226    206.9495   0.5397339  81.12556   230.8856   160.8433   289.9606  
258.9276   214.0443   213.7163   0.5419617  80.00177   230.9792   159.3459   288.367   
259.08     220.1025   241.6411   0.5424194  76.91331   230.8697   159.1395   288.2708  
259.2324   218.3938   221.6684   0.5433655  72.92705   230.7894   161.4688   290.681   
259.3848   218.8598   219.4272   0.5452576  74.11163   230.4747   162.8759   292.3997  
259.5372   220.8792   218.9644   0.547699   76.71121   230.2107   160.5788   290.3686  
259.6896   203.4813   202.0726   0.547699   77.77616   230.1122   159.6852   289.5716  
259.842    214.8727   212.1749   0.5509033  76.9068    229.9556   159.7902   289.837   
259.9944   210.5233   207.3947   0.5509338  75.26372   229.7281   159.7642   290.0388  
260.1468   199.7531   195.825    0.5516357  76.08974   229.7945   159.1558   289.3618  
260.2992   202.2385   196.0091   0.5508728  75.74196   229.7801   157.4949   287.7172  
260.4516   202.2385   199.8104   0.54953    78.50433   229.8094   154.8267   285.0165  
260.604    199.7531   197.584    0.5471191  81.39062   229.9552   154.044    284.0892  
260.7564   199.7531   197.4447   0.5439148  82.68388   230.0956   154.5915   284.4947  
260.9088   199.7531   198.1878   0.5404053  84.36401   230.3571   153.9329   283.5768  
261.0612   199.7531   199.9002   0.5368958  83.05354   230.7488   152.8644   282.1155  
261.2136   199.7531   199.2055   0.5334778  82.79489   231.2275   153.3297   282.1036  
261.366    199.7531   199.8104   0.5324707  81.45595   231.628    154.5432   282.9149  
261.5184   199.7531   197.957    0.5309753  81.89711   232.186    155.8141   283.6283  
261.6708   199.7531   193.9738   0.5310974  85.42698   232.7793   157.8901   285.1111  
261.8232   200.5816   195.1757   0.5321655  86.91364   233.294    157.7      284.4044  
261.9756   202.2385   199.9901   0.5323181  89.85225   233.6299   156.9573   283.3275  
262.128    202.2385   199.9002   0.533844   85.69869   234.0699   154.7508   280.6779  
262.2804   203.4813   200.1316   0.5339355  86.07687   234.3041   154.4641   280.1617  
262.4328   202.2385   199.9901   0.5331421  83.64251   234.3874   154.8369   280.4497  
262.5852   200.1674   203.461    0.5335693  88.0546    234.363    153.2735   278.9113  
262.7376   199.7531   202.6792   0.531311   92.5191    234.1207   151.7989   277.6768  
262.89     202.6528   202.0726   0.5293274  93.97971   233.8088   151.3739   277.5648  
263.0424   204.9311   205.1422   0.5261536  94.79916   233.2952   151.5554   278.2627  
263.1948   197.2677   197.0291   0.5243225  89.74783   232.9682   151.6504   278.6806  
263.3472   202.6528   203.1426   0.5215454  88.66546   232.4122   151.1516   278.7389  
263.4996   219.0151   219.1219   0.5200195  85.09219   232.1627   150.4491   278.2875  
263.652    220.8792   222.2039   0.5177307  85.11179   231.8647   150.8122   278.9491  
263.8044   220.0507   219.4272   0.5175781  86.68751   231.9713   148.7216   276.7516  
263.9568   207.8307   212.6377   0.5166626  86.99176   231.8557   148.5629   276.7084  
264.1092   207.8307   204.0687   0.5145569  88.18938   231.9539   147.9956   276.0425  
264.2616   216.5297   215.9563   0.5154419  88.36546   231.9834   147.0699   275.0862  
264.414    218.3938   218.2702   0.5137329  88.92397   232.1025   145.4782   273.3774  
264.5664   218.3938   220.0492   0.5135193  87.21996   232.1152   144.5219   272.4075  
264.7188   220.8792   218.2702   0.5113525  85.46827   231.9346   145.0845   273.1481  
264.8712   216.1155   218.733    0.5107727  87.10065   231.7507   144.0496   272.3008  
265.0236   202.6528   204.444    0.5085144  90.50641   231.4152   143.3032   271.8882  
265.176    197.2677   198.6017   0.5080566  93.29272   231.0318   141.8262   270.7928  
265.3284   197.2677   199.2055   0.5080261  95.44229   230.6987   141.2567   270.5573  
265.4808   199.7531   200.8269   0.5079956  93.13188   230.2884   139.5453   269.2574  
265.6332   199.7531   201.3784   0.5100708  94.94672   230.1001   137.6519   267.5526  
265.7856   199.7531   201.201    0.5124207  93.89265   229.7254   137.6679   267.942   
265.938    199.7531   201.3784   0.5154114  97.08559   229.4155   133.4513   264.0348  
266.0904   198.5104   200.1316   0.5193481  96.79221   229.2191   134.1884   264.9673  
266.2428   197.2677   199.9901   0.5236206  100.5045   229.1212   135.3274   266.2048  
266.3952   198.5104   199.8104   0.5247498  100.5045   229.0446   135.2964   266.2508  
266.5476   197.4748   198.8331   0.5274048  98.55707   229.1106   138.7292   269.6173  
266.7      197.8891   199.206    0.5280762  93.75582   229.2523   138.4654   269.2142  
266.8524   197.4748   199.9002   0.527771   92.44939   229.4903   138.2339   268.7425  
267.0048   197.2677   199.2049   0.5264893  94.6272    229.6712   137.7912   268.1202  
267.1572   197.2677   196.6579   0.5260315  95.59431   229.9229   138.0276   268.1033  
267.3096   197.2677   197.6761   0.5239258  96.14217   230.0473   138.6365   268.5889  
267.462    197.2677   199.0645   0.522644   94.50336   230.1382   139.0859   268.9483  
267.6144   197.2677   199.9002   0.5231934  92.98199   230.1688   138.6334   268.4658  
267.7668   199.7531   201.7525   0.5231628  89.39138   229.999    137.9724   267.9729  
267.9192   199.7531   201.2897   0.5236206  88.00461   229.7126   136.9689   267.2545  
268.0716   198.3033   199.9901   0.5252686  84.90089   229.5081   136.0694   266.5619  
268.224    199.7531   201.8412   0.5267944  83.26195   229.212    134.4673   265.2549  
268.3764   204.1026   206.995    0.5289917  79.48458   228.916    131.5727   262.6588  
268.5288   199.7531   204.3001   0.5305176  83.25766   228.6754   130.5114   261.8361  
268.6812   199.7531   201.2897   0.5307922  86.15725   228.5041   130.4655   261.9589  
268.8336   199.7531   203.055    0.5307922  88.46973   228.3382   131.2663   262.9268  
268.986    199.7531   201.5211   0.529541   83.35779   228.1782   131.2842   263.104   
269.1384   201.4101   204.3001   0.5279541  79.19762   227.8708   129.7978   261.9259  
269.2908   202.2385   206.9114   0.5253906  75.78964   227.7517   125.7541   258.0035  
269.4432   202.0314   203.2296   0.5248108  73.41191   227.4577   122.9853   255.5263  
269.5956   199.9602   202.6792   0.5220337  71.80778   227.3463   122.5612   255.2142  
269.748    199.7531   201.5211   0.5223083  70.10374   226.9347   123.218    256.2802  
269.9004   197.2677   201.2897   0.5197144  70.41876   226.6683   125.6237   258.9551  
270.0528   197.2677   200.7377   0.5174866  70.05382   226.6819   126.2293   259.549   
270.2052   197.2677   199.1145   0.5154724  70.07561   226.5938   126.061    259.4648  
270.3576   197.2677   195.3622   0.5122375  72.44242   226.5847   125.1617   258.5753  
270.51     197.8891   198.5607   0.5105591  74.99845   226.6998   122.8111   256.1131  
270.6624   197.8891   200.595    0.5062866  76.95229   226.8669   119.6494   252.7822  
270.8148   197.2677   200.8269   0.5053406  77.63203   227.0115   116.1674   249.1564  
270.9672   197.2677   200.2737   0.5015564  79.88146   226.9174   113.0314   246.1157  
271.1196   197.2677   200.5944   0.4978333  78.87962   227.0733   113.5306   246.4591  
271.272    197.2677   203.5184   0.498291   81.50586   227.0688   113.7253   246.6562  
271.4244   197.2677   201.2897   0.4970093  82.11667   227.0806   113.691    246.6098  
271.5768   199.3389   203.7498   0.4983215  86.27007   227.0202   114.8681   247.8487  
271.7292   203.4813   206.2377   0.4992065  84.97263   226.897    115.4005   248.5018  
271.8816   203.4813   205.9836   0.5015564  81.44284   226.6551   114.3551   247.6985  
272.034    202.0314   207.3947   0.5029602  76.46336   226.5095   113.5019   246.9904  
