~Version
 VERS              .         2.0                           : CWLS LOG ASCII STANDARD - VERSION 2.0
 WRAP              .         NO                            : ONE LINE PER DEPTH STEP
 DLM               .         SPACE                         : DELIMITING CHARACTER(SPACE TAB OR COMMA)
~Well Information
#_______________________________________________________________________________
#
#PARAMETER_NAME    .UNIT     VALUE                         : DESCRIPTION
#_______________________________________________________________________________
STRT               .m        91.8972                       : First reference value
STOP               .m        352.6536                      : Last reference value
STEP               .m        0.1524                        : Step increment
NULL               .         -9999                         : Missing value
COMP               .                                       : Company
WELL               .         C                             : Well name
FLD                .                                       : Field
LOC                .                                       : Location
CNTY               .                                       : County
STAT               .                                       : State
CTRY               .                                       : Country
SRVC               .                                       : Service Company
DATE               .                                       : Date
API                .                                       : API number
~Parameter Information Block
#_______________________________________________________________________________
#
#PARAMETER_NAME    .UNIT     VALUE                         : DESCRIPTION
#_______________________________________________________________________________
SET                .         Inclination                   : 
TLFamily_C13       .         Caliper 1                     : 
TLFamily_C24       .         Caliper 2                     : 
TLFamily_DEVI      .         Hole Deviation                : 
TLFamily_GR        .         Gamma Ray                     : 
TLFamily_HAZI      .         Hole Azimuth                  : 
TLFamily_MD        .         Measured Depth                : 
TLFamily_P1AZ      .         Pad A Azimuth                 : 
TLFamily_RB        .         Relative Bearing              : 
~Curve Information
#_______________________________________________________________________________
#
#LOGNAME           .UNIT     LOG_ID                        : DESCRIPTION
#_______________________________________________________________________________
MD                 .m                                      :  
C13                .mm                                     : Caliper 1-3 
C24                .mm                                     : Caliper 2-4 
DEVI               .deg                                    : Deviation 
GR                 .gAPI                                   : Gamma Ray 
HAZI               .deg                                    : Hole Azimuth 
P1AZ               .deg                                    : Pad 1 Azimuth 
RB                 .deg                                    : Relative Bearing 
~Ascii
# ...
175.1076   199.7531   201.201    0.5422974  53.82414   252.6538   163.4759   270.8212  
175.26     199.7531   202.6792   0.5418091  54.06757   252.5945   163.2534   270.66    
175.4124   199.7531   201.2897   0.541626   54.95443   252.5737   162.9088   270.3372  
175.5648   200.6852   201.201    0.5414124  55.96958   252.511    162.1307   269.6182  
175.7172   200.9958   201.2897   0.5411682  57.55195   252.466    161.6365   269.1704  
175.8696   200.5816   201.3784   0.5410767  60.22974   252.3543   161.2021   268.8484  
176.022    202.2385   202.7668   0.5413818  59.85144   252.2402   159.082    266.8422  
176.1744   202.2385   202.5917   0.5420227  57.53879   252.2118   157.4956   265.2813  
176.3268   199.7531   201.8964   0.5429382  54.9218    252.1419   156.5717   264.4294  
176.4792   200.3745   202.3597   0.5440674  56.90193   252.2397   156.6705   264.4294  
176.6316   202.2385   204.0687   0.5461121  56.53688   252.396    156.8687   264.4702  
176.784    203.4813   206.3003   0.5487366  57.08462   252.5764   156.3296   263.7527  
176.9364   206.588    212.5587   0.5507813  54.52859   252.7942   156.4332   263.6413  
177.0888   206.588    211.6309   0.5523682  55.94558   253.0526   156.4422   263.3921  
177.2412   206.588    210.3215   0.5543518  56.61506   253.2841   158.2949   265.0097  
177.3936   206.588    210.8656   0.5562744  57.6496    253.4926   159.4623   265.9671  
177.546    203.4813   209.3129   0.5574036  55.62389   253.72     160.5131   266.7931  
177.6984   202.6528   204.9096   0.5576477  54.71109   253.8959   160.8323   266.934   
177.8508   199.7531   202.6792   0.5579224  54.69373   253.9832   160.934    266.95    
178.0032   199.7531   202.7668   0.5579529  55.05879   254.0082   161.7785   267.7695  
178.1556   199.7531   201.9845   0.5578003  53.59822   254.0577   162.1674   268.1102  
178.308    199.7531   201.3784   0.558197   53.98072   254.0613   161.2283   267.1678  
178.4604   199.7531   201.2897   0.5593567  54.31782   254.0689   161.3622   267.2944  
178.6128   197.2677   200.595    0.5604553  54.37856   254.1011   162.5816   268.4798  
178.7652   197.2677   199.9901   0.5621643  54.43945   253.9627   163.2722   269.3117  
178.9176   197.2677   200.1316   0.5639954  53.74604   253.9778   164.1992   270.221   
179.07     197.2677   199.4369   0.5667419  54.78057   253.7068   164.8575   271.1528  
179.2224   197.2677   197.0291   0.569519   54.41536   253.4823   163.3397   269.8584  
179.3748   196.025    195.7317   0.572113   56.04974   253.2855   162.881    269.5941  
179.5272   195.4036   190.7712   0.5746155  56.17148   252.9473   163.1328   270.1854  
179.6796   195.4036   193.7424   0.5765991  55.74564   252.6321   166.187    273.5545  
179.832    195.4036   195.6384   0.5780945  53.85912   252.3836   165.8959   273.512   
179.9844   195.4036   196.5191   0.5789185  55.24576   252.3546   164.7535   272.4018  
180.1368   195.4036   196.3338   0.5794067  55.42826   252.3106   163.1788   270.8677  
180.2892   196.4392   196.1018   0.5791321  55.54998   252.4277   162.5781   270.1513  
180.4416   197.0606   197.9075   0.5788879  55.13711   252.6767   161.4745   268.7948  
180.594    195.8179   198.4197   0.5775452  55.31959   252.962    160.4742   267.5094  
180.7464   196.025    198.5107   0.5755615  54.89372   253.245    160.4506   267.2103  
180.8988   196.025    199.2276   0.5742188  53.98076   253.5985   159.7572   266.1583  
181.0512   197.4748   199.9901   0.5726013  54.21555   253.8735   158.8972   265.0256  
181.2036   197.2677   196.937    0.5705261  53.81381   254.0813   158.3107   264.2285  
181.356    197.2677   199.4369   0.5679626  54.69856   254.3887   159.6116   265.2226  
181.5084   199.7531   201.1384   0.5646667  51.96864   254.7108   162.7958   268.0869  
181.6608   202.2385   202.6792   0.5606689  51.15321   254.9695   163.9348   268.9667  
181.8132   203.6884   206.4475   0.5566101  43.57415   255.3672   163.3748   268.0088  
181.9656   209.9019   215.2621   0.5543518  41.57672   255.5842   163.3313   267.7482  
182.118    203.8955   206.4475   0.5506287  38.04683   256.0467   163.1218   267.0725  
182.2704   203.4813   204.0687   0.5484924  38.35114   256.5195   162.4133   265.8944  
182.4228   203.4813   204.0687   0.5472717  34.26286   256.8573   161.6635   264.8096  
182.5752   203.4813   203.9823   0.545929   33.7674    257.0882   161.1107   264.0194  
182.7276   203.4813   203.8959   0.5453186  33.40227   257.2498   160.3979   263.1484  
182.88     203.4813   204.0687   0.545166   33.46309   257.309    159.6276   262.32    
183.0324   202.2385   203.9823   0.5449219  32.01117   257.2809   158.806    261.5216  
183.1848   202.2385   204.0255   0.5440063  32.43717   257.2658   157.8849   260.6186  
183.3372   202.2385   203.9823   0.5431213  35.72349   257.2044   157.1467   259.9397  
183.4896   202.2385   202.2722   0.5419617  39.38152   257.0568   156.1068   259.0472  
183.642    199.7531   201.201    0.5409241  44.06753   257.0904   153.0682   255.9803  
183.7944   199.7531   201.2897   0.5408936  47.41473   257.162    150.4894   253.3293  
183.9468   199.7531   201.2897   0.5404663  50.99881   257.2548   149.0813   251.825   
184.0992   199.7531   201.3784   0.5414734  51.95088   257.4478   147.7569   250.311   
184.2516   199.7531   197.6761   0.5422363  51.5005    257.6839   147.0401   249.3545  
184.404    199.7531   201.0583   0.5438232  52.29156   258.0807   148.8      250.7188  
184.5564   199.7531   201.2897   0.5453186  53.86731   258.4338   149.7567   251.3214  
184.7088   199.7531   201.2897   0.546814   55.2914    258.8683   149.9162   251.0496  
184.8612   199.7531   201.201    0.5469971  55.39146   259.1028   149.7101   250.6056  
185.0136   200.3745   201.201    0.5479736  53.95906   259.5332   150.0899   250.5565  
185.166    199.7531   202.1277   0.5486755  53.10703   259.8201   152.7347   252.9136  
185.3184   199.7531   202.5917   0.5476685  51.42474   260.009    154.986    254.978   
185.4708   199.7531   200.7371   0.5473022  50.39024   260.2408   158.419    258.1824  
185.6232   198.5104   197.725    0.5482483  51.88555   260.2658   162.1118   261.8436  
185.7756   197.8891   195.6384   0.5492859  53.16377   260.2806   161.951    261.6682  
185.928    197.6819   196.4265   0.550293   54.50259   260.1444   162.562    262.4193  
186.0804   197.6819   198.4197   0.552063   52.92683   260.0318   162.9023   262.8687  
186.2328   198.5104   200.8258   0.5541077  50.97906   259.7909   163.8702   264.0779  
186.3852   199.7531   201.1123   0.5543213  50.04383   259.5498   164.2737   264.7272  
186.5376   202.2385   201.201    0.553009   47.71176   259.1395   164.2982   265.1564  
186.69     202.2385   201.201    0.5515747  45.64261   258.7658   164.9503   266.1868  
186.8424   202.2385   201.8964   0.5474854  44.38701   258.0968   166.0743   267.9761  
186.9948   203.2741   201.6644   0.5424805  45.64764   257.2429   165.8182   268.5742  
187.1472   203.067    202.2159   0.5362854  44.91741   256.3306   165.5032   269.1711  
187.2996   202.2385   201.665    0.5302734  43.33515   255.4178   165.3364   269.9209  
187.452    202.2385   204.0687   0.5250854  41.50502   254.4701   165.0574   270.5861  
187.6044   202.2385   203.287    0.5207825  41.87016   253.6835   164.5563   270.8738  
187.7568   202.2385   203.519    0.5186462  41.13982   253.1055   164.1611   271.0521  
187.9092   202.2385   202.5041   0.5162048  37.8013    252.6176   163.5428   270.9238  
188.0616   202.2385   202.5041   0.51474    34.45413   252.1394   163.5453   271.4064  
188.214    202.2385   202.5041   0.5133972  31.22871   251.8721   164.6793   272.8085  
188.3664   202.2385   202.6792   0.5125427  32.04813   251.754    164.3643   272.6152  
188.5188   202.2385   202.5041   0.5115356  32.83932   251.6673   163.6571   271.9887  
188.6712   202.2385   202.5917   0.5097961  36.67332   251.6697   163.4226   271.7502  
188.8236   202.2385   202.5917   0.5080566  41.07903   251.712    163.9578   272.2445  
