~Version
 VERS              .         2.0                           : CWLS LOG ASCII STANDARD - VERSION 2.0
 WRAP              .         NO                            : ONE LINE PER DEPTH STEP
 DLM               .         SPACE                         : DELIMITING CHARACTER(SPACE TAB OR COMMA)
~Well Information
#_______________________________________________________________________________
#
#PARAMETER_NAME    .UNIT     VALUE                         : DESCRIPTION
#_______________________________________________________________________________
STRT               .m        91.8972                       : First reference value
STOP               .m        352.6536                      : Last reference value
STEP               .m        0.1524                        : Step increment
NULL               .         -9999                         : Missing value
COMP               .                                       : Company
WELL               .         C                             : Well name
FLD                .                                       : Field
LOC                .                                       : Location
CNTY               .                                       : County
STAT               .                                       : State
CTRY               .                                       : Country
SRVC               .                                       : Service Company
DATE               .                                       : Date
API                .                                       : API number
~Parameter Information Block
#_______________________________________________________________________________
#
#PARAMETER_NAME    .UNIT     VALUE                         : DESCRIPTION
#_______________________________________________________________________________
SET                .         Inclination                   : 
TLFamily_C13       .         Caliper 1                     : 
TLFamily_C24       .         Caliper 2                     : 
TLFamily_DEVI      .         Hole Deviation                : 
TLFamily_GR        .         Gamma Ray                     : 
TLFamily_HAZI      .         Hole Azimuth                  : 
TLFamily_MD        .         Measured Depth                : 
TLFamily_P1AZ      .         Pad A Azimuth                 : 
TLFamily_RB        .         Relative Bearing              : 
~Curve Information
#_______________________________________________________________________________
#
#LOGNAME           .UNIT     LOG_ID                        : DESCRIPTION
#_______________________________________________________________________________
MD                 .m                                      :  
C13                .mm                                     : Caliper 1-3 
C24                .mm                                     : Caliper 2-4 
DEVI               .deg                                    : Deviation 
GR                 .gAPI                                   : Gamma Ray 
HAZI               .deg                                    : Hole Azimuth 
P1AZ               .deg                                    : Pad 1 Azimuth 
RB                 .deg                                    : Relative Bearing 
~Ascii
# ...
327.66     202.2385   201.1123   0.3422546  44.59669   218.5716   245.9902   27.41812  
327.8124   202.2385   202.5041   0.3439636  40.94027   218.8542   245.7081   26.85483  
327.9648   202.2385   201.8082   0.3450623  40.82437   219.1339   243.6651   24.52847  
328.1172   202.2385   201.6999   0.3473206  41.94498   219.5317   243.9923   24.46173  
328.2696   203.4813   201.433    0.3481445  42.44831   219.8367   246.0997   26.26389  
328.422    203.4813   203.055    0.3484802  41.20698   220.0295   245.8442   25.81299  
328.5744   203.4813   202.0402   0.3485718  40.09098   220.1361   245.2163   25.0788   
328.7268   202.6528   201.8082   0.3485718  39.55412   220.1763   243.7209   23.54431  
328.8792   203.4813   202.6355   0.348175   39.77115   220.2816   242.6736   22.39322  
329.0316   203.4813   203.2      0.347168   38.49469   220.2253   241.675    21.44812  
329.184    203.4813   203.2      0.3468628  36.92673   220.0466   240.2812   20.2323   
329.3364   203.4813   203.6054   0.3457336  36.92673   219.9197   239.7362   19.81387  
329.4888   203.4813   203.6639   0.3444824  36.92673   219.5891   239.4404   19.85162  
329.6412   203.4813   203.2      0.3438721  36.92673   219.2301   238.4502   19.22144  
329.7936   202.2385   199.9525   0.3419495  36.92673   218.9444   237.5041   18.56015  
329.946    203.4813   201.8958   0.3390198  36.92673   218.7392   236.9828   18.24405  
330.0984   204.1026   203.6639   0.3375549  36.92673   218.6149   236.6905   18.0737   
330.2508   204.1026   203.432    0.3357849  36.92673   218.4689   236.089    17.61703  
330.4032   204.5168   204.3598   0.3339233  36.92673   218.6301   235.4753   16.84277  
330.5556   204.724    204.3598   0.3318176  36.92673   218.7662   234.9026   16.13773  
330.708    204.1026   207.4589   0.3296509  36.92673   218.9877   233.9861   14.99951  
330.8604   204.1026   203.6639   0.3282471  36.92673   219.1935   233.3281   14.13477  
331.0128   204.1026   203.2      0.3278503  36.92673   219.3467   232.9365   13.5889   
331.1652   204.1026   205.0557   0.3277283  36.92673   219.4549   232.2491   12.79346  
331.3176   204.3097   206.2155   0.3292542  36.92673   219.277    231.5802   12.30072  
331.47     204.1026   205.3718   0.3297729  36.92673   219.1618   231.1705   12.00836  
331.6224   203.4813   202.5041   0.3323975  36.92673   218.799    230.6468   11.84818  
331.7748   204.724    206.5316   0.334259   36.92673   218.5836   230.1013   11.51685  
331.9272   204.724    205.9836   0.336792   36.92673   218.5026   230.0498   11.55011  
332.0796   204.1026   206.0683   0.3401794  36.92673   218.0807   230.2437   12.16238  
332.232    204.1026   206.2155   0.3431396  36.92673   218.0752   230.4102   12.33475  
332.3844   203.4813   205.9836   0.344696   36.92673   218.1449   230.0537   11.90778  
332.5368   202.2385   204.909    0.3471069  36.92673   218.0834   229.5138   11.42786  
332.6892   202.2385   205.2877   0.3482361  36.92673   218.1683   229.1133   10.94669  
332.8416   202.2385   205.373    0.3505554  36.92673   218.0947   228.1382   10.04428  
332.994    202.2385   204.8237   0.3511658  36.92673   218.1757   227.375    9.200043  
333.1464   202.2385   204.5918   0.3506165  36.92673   218.2104   226.7117   8.503174  
333.2988   202.2385   205.2877   0.3499451  36.92673   218.18     227.8524   9.671082  
333.4512   203.4813   204.5918   0.3476257  36.92673   218.2694   228.0932   9.820801  
333.6036   203.4813   203.2      0.3467712  36.92673   218.2574   228.4452   10.18677  
333.756    202.8599   203.2      0.3434448  36.92673   218.4297   229.0006   10.56808  
333.9084   201.4101   201.8969   0.341217   36.92673   218.5189   228.8929   10.37228  
334.0608   203.4813   201.4324   0.338562   36.92673   218.515    227.5792   9.062714  
334.2132   203.4813   203.287    0.3356018  36.92673   218.6482   225.2171   6.566925  
334.3656   202.2385   201.1123   0.3329163  36.92673   218.5936   223.8933   5.301178  
334.518    199.7531   194.9431   0.3312378  36.92673   218.2965   227.174    8.873779  
334.6704   197.9773   197.5616   0.3308411  36.92673   218.1716   235.1567   16.98273  
334.8228   202.2385   201.1123   0.3311462  36.92673   217.7975   239.8526   22.05368  
334.9752   202.2385   201.201    0.3315125  36.92673   217.5676   238.4045   20.83588  
335.1276   201.6172   200.4164   0.3334045  36.92673   217.2164   237.1299   19.9137   
335.28     201.6172   199.7206   0.3357544  36.92673   217.0553   235.4404   18.38632  
335.4324   201.6172   199.7206   0.3384094  36.92673   216.9646   234.0603   17.0957   
335.5848   201.6172   199.1151   0.3407288  36.92673   216.9011   232.8616   15.96173  
335.7372   201.6172   199.0247   0.3432922  36.92673   216.918    230.9171   13.99863  
335.8896   201.6172   199.1151   0.3458557  36.92673   216.8938   228.4516   11.55832  
336.042    201.8243   199.0247   0.3486633  36.92673   216.9985   227.2782   10.27972  
336.1944   201.6172   199.0247   0.3512878  36.92673   217.1145   225.876    8.762024  
336.3468   201.6172   199.7206   0.354187   36.92673   217.1133   223.9693   6.853607  
336.4992   201.6172   199.8104   0.3572083  36.92673   217.1531   222.5134   5.36026   
336.6516   201.6172   199.8104   0.3595276  36.92673   217.2476   219.7545   2.505859  
336.804    201.6172   200.8804   0.361969   36.92673   217.1694   218.5474   1.377502  
336.9564   201.6172   197.4919   0.3643494  36.92673   217.0438   217.3292   0.2858582 
337.1088   201.6172   198.8831   0.3673096  36.92673   216.7452   215.7236   358.977   
337.2612   201.6172   200.6484   0.3704224  36.92673   216.3784   214.8663   358.4886  
337.4136   201.6172   200.595    0.3731689  36.92673   215.8768   213.2266   357.348   
337.566    201.6172   200.8264   0.3764648  36.92673   215.358    209.85     354.4933  
337.7184   201.6172   201.1123   0.3779297  36.92673   214.9971   207.4254   352.4301  
337.8708   201.6172   201.201    0.3812256  36.92673   214.6127   205.3111   350.6991  
338.0232   201.6172   200.4164   0.3830566  36.92673   214.3996   202.5453   348.146   
338.1756   201.6172   200.5057   0.3851013  36.92673   214.3205   200.5603   346.2396  
338.328    201.6172   200.4164   0.3875732  36.92673   214.3362   197.8752   343.5378  
338.4804   201.6172   200.4164   0.3901062  36.92673   214.4511   195.6254   341.1775  
338.6328   201.6172   200.4834   0.3930359  36.92673   214.5461   193.3075   338.7626  
338.7852   201.6172   200.7371   0.3953552  36.92673   214.602    192.302    337.701   
338.9376   201.6172   200.5057   0.3988037  36.92673   214.6225   191.1131   336.4895  
339.09     201.6172   200.4164   0.4023743  36.92673   214.5143   190.2554   335.7415  
339.2424   201.6172   200.9696   0.4056091  36.92673   214.3503   188.4631   334.1129  
339.3948   201.6172   200.8804   0.4090271  36.92673   214.0476   186.2413   332.1941  
339.5472   201.6172   200.5057   0.4119568  36.92673   213.7178   184.2761   330.5588  
339.6996   201.6172   201.201    0.4144287  36.92673   213.3988   182.5676   329.1696  
339.852    201.6172   201.201    0.4159241  36.92673   213.164    181.2799   328.1156  
340.0044   201.6172   201.1123   0.4176636  36.92673   212.9322   178.936    326.0035  
340.1568   201.6172   201.1123   0.4187927  36.92673   212.7961   177.0019   324.2062  
340.3092   201.6172   201.201    0.4196472  36.92673   212.7987   174.9424   322.1443  
340.4616   201.6172   201.3784   0.4211121  36.92673   212.8593   172.5695   319.7107  
340.614    201.6172   201.1123   0.4228821  36.92673   212.9995   170.2254   317.2253  
340.7664   201.6172   201.1123   0.4243469  36.92673   213.2337   168.109    314.8753  
340.9188   201.6172   201.201    0.4260254  36.92673   213.4069   166.364    312.9577  
341.0712   202.2385   201.5211   0.4272766  36.92673   213.6862   163.0691   309.3834  
341.2236   202.2385   201.1788   0.4291687  36.92673   213.9133   161.8587   307.9464  
341.376    203.4813   202.6355   0.4310913  36.92673   213.9901   160.7623   306.7746  
