~Version
 VERS              .         2.0                           : CWLS LOG ASCII STANDARD - VERSION 2.0
 WRAP              .         NO                            : ONE LINE PER DEPTH STEP
 DLM               .         SPACE                         : DELIMITING CHARACTER(SPACE TAB OR COMMA)
~Well Information
#_______________________________________________________________________________
#
#PARAMETER_NAME    .UNIT     VALUE                         : DESCRIPTION
#_______________________________________________________________________________
STRT               .m        91.8972                       : First reference value
STOP               .m        352.6536                      : Last reference value
STEP               .m        0.1524                        : Step increment
NULL               .         -9999                         : Missing value
COMP               .                                       : Company
WELL               .         C                             : Well name
FLD                .                                       : Field
LOC                .                                       : Location
CNTY               .                                       : County
STAT               .                                       : State
CTRY               .                                       : Country
SRVC               .                                       : Service Company
DATE               .                                       : Date
API                .                                       : API number
~Parameter Information Block
#_______________________________________________________________________________
#
#PARAMETER_NAME    .UNIT     VALUE                         : DESCRIPTION
#_______________________________________________________________________________
SET                .         Inclination                   : 
TLFamily_C13       .         Caliper 1                     : 
TLFamily_C24       .         Caliper 2                     : 
TLFamily_DEVI      .         Hole Deviation                : 
TLFamily_GR        .         Gamma Ray                     : 
TLFamily_HAZI      .         Hole Azimuth                  : 
TLFamily_MD        .         Measured Depth                : 
TLFamily_P1AZ      .         Pad A Azimuth                 : 
TLFamily_RB        .         Relative Bearing              : 
~Curve Information
#_______________________________________________________________________________
#
#LOGNAME           .UNIT     LOG_ID                        : DESCRIPTION
#_______________________________________________________________________________
MD                 .m                                      :  
C13                .mm                                     : Caliper 1-3 
C24                .mm                                     : Caliper 2-4 
DEVI               .deg                                    : Deviation 
GR                 .gAPI                                   : Gamma Ray 
HAZI               .deg                                    : Hole Azimuth 
P1AZ               .deg                                    : Pad 1 Azimuth 
RB                 .deg                                    : Relative Bearing 
~Ascii
# ...
147.3708   202.2385   201.3784   0.5018311  49.66644   255.4671   200.6495   305.1823  
147.5232   202.2385   201.3784   0.5046387  56.80851   255.5708   198.9155   303.3447  
147.6756   202.2385   202.6792   0.5060425  63.44215   255.6883   196.8488   301.1603  
147.828    202.2385   201.8964   0.5081482  69.30402   255.8125   195.5419   299.7289  
147.9804   203.4813   206.3838   0.5091858  72.2861    255.9411   193.6931   297.7554  
148.1328   203.4813   203.8959   0.5106506  71.01229   256.1426   192.5279   296.3847  
148.2852   203.4813   204.3007   0.5121155  71.75555   256.2032   191.5762   295.3739  
148.4376   204.724    206.7005   0.5132446  70.29491   256.2948   190.8861   294.5934  
148.59     207.2094   206.9319   0.5138855  74.95924   256.3165   190.7685   294.4499  
148.7424   207.2094   206.3849   0.5142822  76.29809   256.3637   189.4626   293.0996  
148.8948   207.2094   206.9319   0.5143127  79.40188   256.305    188.7396   292.4342  
149.0472   207.2094   211.097    0.51474    85.38977   256.2408   187.4868   291.2471  
149.1996   212.3873   215.9563   0.5145569  91.23218   256.167    188.2399   292.078   
149.352    216.5297   220.1214   0.5146179  96.04207   256.0164   188.0255   292.0108  
149.5044   216.1155   217.3447   0.5142212  92.38423   255.8697   186.0983   290.2288  
149.6568   216.5297   217.3447   0.5147705  89.28048   255.6354   183.9312   288.2966  
149.8092   216.5297   220.1214   0.5148621  88.33493   255.4807   182.2153   286.7336  
149.9616   218.808    220.1214   0.5136108  86.8743    255.2794   181.7392   286.4587  
150.114    220.8792   220.1214   0.5145874  84.95299   255.2219   180.0365   284.8162  
150.2664   221.5005   222.8981   0.5134277  84.51178   255.1319   178.9396   283.8105  
150.4188   221.5005   222.3643   0.5133667  90.29331   255.308    178.7553   283.4497  
150.5712   223.7789   228.1045   0.5137024  98.11781   255.3891   177.7038   282.3162  
150.7236   225.8501   230.997    0.5117798  102.3627   255.4518   177.2598   281.8132  
150.876    223.3646   236.0274   0.5116272  102.2409   255.5395   177.3179   281.7776  
151.0284   227.9212   231.4598   0.511261   101.9171   255.582    177.5089   281.9283  
151.1808   228.3355   232.7856   0.5108337  103.9862   255.6001   175.8582   280.2582  
151.3332   229.5782   234.4679   0.508728   108.0464   255.5843   175.5771   279.9923  
151.4856   227.0928   230.0066   0.5088501  112.2042   255.4729   176.9744   281.506   
151.638    228.3355   232.3854   0.5096436  117.7424   255.3501   175.7065   280.3566  
151.7904   228.3355   230.5342   0.5085449  118.4292   255.1907   175.4594   280.2686  
151.9428   228.7497   232.8481   0.5094604  114.7127   255.0816   175.242    280.1626  
152.0952   228.9568   234.9307   0.508667   110.9394   254.869    174.026    279.1617  
152.2476   228.3355   236.0876   0.5099792  113.9083   254.719    171.3135   276.6     
152.4      228.3355   233.3109   0.5105896  117.0163   254.6219   169.2223   274.5999  
152.5524   227.2999   231.9225   0.511261   117.9292   254.4397   168.2805   273.8381  
152.7048   228.3355   233.7737   0.5125122  113.328    254.4042   167.4797   273.08    
152.8572   229.9924   234.8698   0.5133362  110.0417   254.2629   167.6245   273.3608  
153.0096   228.3355   235.3935   0.5145874  105.7143   254.1332   167.2177   273.085   
153.162    228.3355   233.3109   0.5155029  104.7296   254.0486   166.4996   272.447   
153.3144   230.1995   235.3935   0.5160522  106.7989   254.034    165.7521   271.7168  
153.4668   230.4066   235.8563   0.516571   105.2839   253.9964   164.9426   270.9465  
153.6192   228.3355   230.997    0.5170593  103.9451   253.9433   163.965    270.0222  
153.7716   228.3355   230.5342   0.5177612  97.79836   253.9491   162.7175   268.7691  
153.924    227.9212   230.7656   0.518158   96.60297   253.8618   162.8208   268.9612  
154.0764   225.8501   227.7574   0.5167847  94.1078    253.8526   163.7472   269.8982  
154.2288   225.8501   227.7574   0.516571   95.75102   253.8399   164.7707   270.9303  
154.3812   225.8501   227.7574   0.5155945  99.68508   253.7808   164.688    270.9108  
154.5336   225.8501   229.84     0.5146484  106.136    253.7422   164.5417   270.7999  
154.686    224.6073   231.6912   0.5131836  111.248    253.5473   164.6418   271.0971  
154.8384   223.3646   230.0714   0.5110474  110.9437   253.4471   164.4417   270.9952  
154.9908   225.8501   230.5342   0.510376   110.1525   253.3424   164.8264   271.4848  
155.1432   223.3646   227.7574   0.5093689  107.779    253.2159   164.7551   271.5353  
155.2956   223.3646   224.9113   0.5098572  107.414    253.1343   163.9846   270.85    
155.448    221.0863   224.0551   0.5108337  107.1097   253.1476   164.0233   270.8754  
155.6004   219.8436   223.3609   0.5115967  108.327    253.1793   163.7854   270.6082  
155.7528   219.0151   222.2039   0.5145264  108.8745   253.1531   163.5626   270.4122  
155.9052   216.5297   220.1214   0.5154724  107.2922   253.2254   162.8811   269.6543  
156.0576   216.5297   218.2702   0.5183716  103.1125   253.2523   161.7697   268.5182  
156.21     215.7012   217.5761   0.5193176  97.47247   253.2691   161.3102   268.0383  
156.3624   212.3873   211.7912   0.5207825  95.73183   253.3448   160.8655   267.5209  
156.5148   211.5589   211.7912   0.5214233  94.78638   253.3645   161.3641   268.0004  
156.6672   211.5589   211.7912   0.5218811  99.6963    253.4147   161.6676   268.2556  
156.8196   211.5589   209.0145   0.5220337  95.17062   253.414    162.2335   268.8208  
156.972    211.5589   210.3215   0.5214233  93.23622   253.5073   163.4487   269.9417  
157.1244   209.2806   207.8575   0.5218201  85.56812   253.5623   164.0948   270.5279  
157.2768   207.2094   207.8575   0.5219116  86.47886   253.6331   161.7676   268.1362  
157.4292   207.2094   208.0889   0.5212708  84.83556   253.7372   162.1259   268.3918  
157.5816   207.2094   207.6261   0.5209961  87.97195   253.6376   161.8895   268.2542  
157.734    207.2094   206.2377   0.5203552  89.00657   253.6608   161.2459   267.5801  
157.8864   209.0735   206.6158   0.519928   92.77335   253.565    161.7527   268.1888  
158.0388   209.4877   209.0145   0.5185242  93.89695   253.4507   163.8841   270.4317  
158.1912   212.3873   210.0901   0.5180359  95.29674   253.45     162.5697   269.1151  
158.3436   214.0443   206.7005   0.5171509  94.6338    253.3858   163.8622   270.4769  
158.496    211.5589   211.4796   0.5172729  94.26665   253.3163   164.5685   271.253   
158.6484   207.0023   206.2377   0.5169678  92.2582    253.2477   163.5618   270.3166  
158.8008   205.9667   203.9823   0.5172424  86.47691   253.3094   161.4703   268.1611  
158.9532   204.724    204.1552   0.5171204  84.14445   253.3002   160.2567   266.9579  
159.1056   203.6884   204.0687   0.5176086  82.6231    253.3412   161.2618   267.9182  
159.258    202.2385   204.1552   0.5172119  86.35699   253.3134   161.7028   268.3882  
159.4104   206.7434   206.4113   0.5169983  83.70123   253.2795   161.3869   268.1077  
159.5628   206.588    211.7912   0.5163574  79.0759    253.3496   160.7252   267.3747  
159.7152   202.2385   203.6059   0.5166626  69.99941   253.2959   159.7187   266.4222  
159.8676   202.2385   201.5211   0.5160828  61.78353   253.2843   159.9976   266.7144  
160.02     200.1674   201.2897   0.5169678  54.48067   253.1062   160.4355   267.3318  
160.1724   199.7531   201.3784   0.5183716  50.51191   252.935    161.1229   268.1889  
160.3248   199.7531   201.3784   0.5189514  48.44278   252.699    160.8698   268.1712  
160.4772   199.7531   199.9002   0.5209961  50.0859    252.3522   158.1179   265.763   
160.6296   199.7531   200.4529   0.5232544  49.26422   252.0846   154.7161   262.6325  
160.782    199.7531   199.9002   0.5245361  48.89907   251.7746   152.864    261.0901  
160.9344   199.7531   199.5784   0.5266113  48.47309   251.5172   151.3256   259.8081  
161.0868   199.7531   197.2133   0.5278625  49.67073   251.2426   151.0022   259.7613  
