~Version
 VERS              .         2.0                           : CWLS LOG ASCII STANDARD - VERSION 2.0
 WRAP              .         NO                            : ONE LINE PER DEPTH STEP
 DLM               .         SPACE                         : DELIMITING CHARACTER(SPACE TAB OR COMMA)
~Well Information
#_______________________________________________________________________________
#
#PARAMETER_NAME    .UNIT     VALUE                         : DESCRIPTION
#_______________________________________________________________________________
STRT               .m        91.8972                       : First reference value
STOP               .m        352.6536                      : Last reference value
STEP               .m        0.1524                        : Step increment
NULL               .         -9999                         : Missing value
COMP               .                                       : Company
WELL               .         C                             : Well name
FLD                .                                       : Field
LOC                .                                       : Location
CNTY               .                                       : County
STAT               .                                       : State
CTRY               .                                       : Country
SRVC               .                                       : Service Company
DATE               .                                       : Date
API                .                                       : API number
~Parameter Information Block
#_______________________________________________________________________________
#
#PARAMETER_NAME    .UNIT     VALUE                         : DESCRIPTION
#_______________________________________________________________________________
SET                .         Inclination                   : 
TLFamily_C13       .         Caliper 1                     : 
TLFamily_C24       .         Caliper 2                     : 
TLFamily_DEVI      .         Hole Deviation                : 
TLFamily_GR        .         Gamma Ray                     : 
TLFamily_HAZI      .         Hole Azimuth                  : 
TLFamily_MD        .         Measured Depth                : 
TLFamily_P1AZ      .         Pad A Azimuth                 : 
TLFamily_RB        .         Relative Bearing              : 
~Curve Information
#_______________________________________________________________________________
#
#LOGNAME           .UNIT     LOG_ID                        : DESCRIPTION
#_______________________________________________________________________________
MD                 .m                                      :  
C13                .mm                                     : Caliper 1-3 
C24                .mm                                     : Caliper 2-4 
DEVI               .deg                                    : Deviation 
GR                 .gAPI                                   : Gamma Ray 
HAZI               .deg                                    : Hole Azimuth 
P1AZ               .deg                                    : Pad 1 Azimuth 
RB                 .deg                                    : Relative Bearing 
~Ascii
# ...
119.634    216.5297   217.3447   0.4630432  98.83722   261.8258   270.6736   8.846741  
119.7864   216.5297   220.048    0.4625854  98.75474   262.0187   270.7358   8.720642  
119.9388   216.5297   220.28     0.4600525  101.3064   262.2055   269.6455   7.44101   
120.0912   216.5297   217.3447   0.4594116  103.6537   262.2571   268.197    5.93869   
120.2436   216.5297   218.386    0.4577942  107.0227   262.5144   269.6509   7.138947  
120.396    216.5297   218.2702   0.4547119  110.9004   262.6649   270.7974   8.129944  
120.5484   214.8727   217.3447   0.4519348  116.3426   262.826    272.3245   9.50296   
120.7008   210.3162   210.6342   0.4478149  118.8356   262.9037   273.0609   10.15744  
120.8532   212.3873   212.0226   0.444397   118.3941   263.016    273.2311   10.21655  
121.0056   210.3162   210.4028   0.4418335  114.4015   262.9744   275.3621   12.3866   
121.158    214.0443   217.8075   0.4389648  108.6219   263.0471   276.6765   13.62601  
121.3104   214.0443   217.7318   0.4371033  98.97839   262.9337   280.195    17.2637   
121.4628   214.0443   220.5842   0.4341431  92.54935   262.9973   284.2632   21.27051  
121.6152   206.7952   205.4571   0.4312439  90.54128   262.971    284.7907   21.81982  
121.7676   207.2094   211.097    0.4293518  94.44923   262.9376   286.3156   23.37646  
121.92     209.2806   211.097    0.427063   97.99413   263.0898   288.1024   25.01505  
122.0724   223.3646   233.0795   0.4251709  95.80306   263.0295   290.9402   27.90897  
122.2248   220.8792   227.7574   0.4235229  88.74352   263.2188   292.5455   29.33429  
122.3772   208.2968   211.7912   0.4222717  83.63145   263.2247   292.8334   29.60626  
122.5296   207.2094   209.7086   0.4185486  82.89479   263.2171   292.3521   29.13901  
122.682    211.3518   214.2208   0.4161377  85.62036   263.2164   292.8506   29.63687  
122.8344   213.4229   216.6505   0.4162903  85.42255   263.1532   293.2855   30.13626  
122.9868   214.0443   219.6586   0.4147034  86.40273   263.1656   293.1372   29.97125  
123.1392   222.1219   229.1458   0.4159546  84.27271   263.1193   292.3327   29.20944  
123.2916   217.7724   224.9807   0.418335   82.12958   263.2724   289.474    26.20505  
123.444    216.5297   221.047    0.4216003  77.93476   263.2687   288.5751   25.30832  
123.5964   214.0443   218.2702   0.4248657  71.11877   263.3632   289.7534   26.39288  
123.7488   203.067    204.9079   0.427887   64.50065   263.3649   290.4211   27.05725  
123.9012   202.2385   202.9982   0.4310303  58.7648    263.6063   288.9745   25.36679  
124.0536   202.2385   202.0726   0.4337769  59.86018   263.6884   287.6485   23.95984  
124.206    202.2385   202.2159   0.4370728  64.19412   263.7932   286.5034   22.71454  
124.3584   202.2385   201.3784   0.4389038  72.95536   263.9504   286.0654   22.11209  
124.5108   202.2385   201.2897   0.4396973  76.88284   263.9849   285.7915   21.80661  
124.6632   202.2385   201.2897   0.440979   78.28247   264.0884   285.0201   20.9314   
124.8156   202.2385   201.3784   0.4412537  77.40012   264.1228   284.0472   19.92532  
124.968    202.2385   201.2897   0.4422302  73.77686   264.0724   283.1304   19.05905  
125.1204   202.2385   201.2897   0.4429626  65.74371   264.028    282.1359   18.11401  
125.2728   202.2385   202.6792   0.4429321  56.59766   263.9455   280.8537   16.90997  
125.4252   202.2385   201.3784   0.4437256  54.54807   263.8171   279.9925   16.17709  
125.5776   202.2385   203.6924   0.4442139  59.72094   263.6859   279.0864   15.39923  
125.73     202.2385   202.9982   0.4450073  65.71546   263.5783   278.2747   14.69699  
125.8824   202.2385   202.1148   0.446106   67.82597   263.5991   277.3181   13.71744  
126.0348   202.2385   201.5217   0.4466858  69.74307   263.6003   276.2763   12.67505  
126.1872   202.2385   201.3784   0.4477234  68.86061   263.7673   275.243    11.47339  
126.3396   202.2385   202.304    0.4483032  70.26031   263.855    274.6885   10.82852  
126.492    202.2385   201.2897   0.4484863  72.97058   263.9877   276.1361   12.15067  
126.6444   202.2385   202.0726   0.4483032  76.43939   264.1423   275.8723   11.72736  
126.7968   202.2385   201.4324   0.4480286  82.32083   264.1644   274.4236   10.2597   
126.9492   202.2385   201.665    0.4480896  86.09181   264.1775   272.5931   8.418396  
127.1016   203.067    201.3784   0.4477844  88.98917   264.1262   272.1      7.968811  
127.254    202.8599   202.7668   0.4480286  89.19346   264.0185   271.5177   7.499023  
127.4064   205.3453   205.0807   0.4490662  88.44812   263.96     271.4056   7.450867  
127.5588   214.0443   216.9976   0.4492188  88.57404   263.9233   270.5745   6.654266  
127.7112   216.5297   220.1214   0.4498596  88.08713   263.8893   271.6177   7.729431  
127.8636   225.8501   231.9225   0.4508362  86.95242   263.804    273.6473   9.843811  
128.016    225.8501   231.3967   0.4512634  85.45061   263.6953   273.5279   9.833405  
128.1684   207.2094   207.6261   0.4518433  89.28474   263.5415   274.2795   10.74188  
128.3208   202.2385   202.9982   0.4526672  90.23017   263.2743   275.5851   12.30371  
128.4732   202.2385   202.2153   0.4532166  90.41287   263.0111   275.4648   12.44733  
128.6256   202.2385   202.0726   0.4533386  86.16803   262.9548   275.3323   12.37726  
128.778    202.2385   201.201    0.45401    83.99889   262.7961   274.4846   11.68558  
128.9304   203.4813   202.5354   0.4549561  82.72087   262.7297   274.1129   11.37228  
129.0828   202.6528   202.6792   0.4560852  79.82139   262.6403   272.5298   9.886536  
129.2352   202.2385   201.201    0.458374   77.81315   262.4945   272.2252   9.732574  
129.3876   200.9958   201.3784   0.4602051  73.73038   262.4039   271.231    8.82486   
129.54     200.9958   201.3784   0.4632874  72.96316   262.2205   269.7382   7.519043  
129.6924   200.3745   201.1788   0.4667358  73.48484   262.0684   267.2833   5.214783  
129.8448   200.9958   201.2897   0.4695129  73.97686   261.8664   266.2372   4.371124  
129.9972   200.9958   201.3784   0.4728699  68.56706   261.7065   264.6706   2.96637   
130.1496   200.9958   201.2897   0.4750977  63.35924   261.5879   262.839    1.249146  
130.302    200.9958   201.3784   0.4787598  60.15564   261.436    258.9854   357.5561  
130.4544   202.2385   201.2897   0.4819031  58.57994   261.2903   255.4425   354.1508  
130.6068   202.2385   201.7525   0.4854431  52.25072   261.1164   252.1153   350.9949  
130.7592   201.6172   201.3784   0.4887695  46.19967   260.8956   249.8245   348.9301  
130.9116   201.2029   201.2454   0.4909058  41.80477   260.7953   248.0464   347.2511  
131.064    200.9958   201.201    0.4934692  43.69795   260.5609   246.2102   345.6493  
131.2164   200.9958   201.3784   0.4946594  47.41467   260.4213   245.3126   344.8953  
131.3688   200.9958   201.8964   0.4959412  49.72736   260.3156   243.6931   343.3771  
131.5212   200.9958   201.3784   0.4967651  50.48382   260.2278   242.8466   342.6245  
131.6736   200.9958   201.9845   0.49646    47.38004   260.1488   243.2421   343.0962  
131.826    200.9958   202.5917   0.4965515  47.07574   260.128    242.5562   342.4288  
131.9784   200.9958   202.6792   0.4958191  43.60897   260.0536   241.518    341.4637  
132.1308   200.9958   201.2897   0.4952393  44.33927   259.9929   241.3282   341.3349  
132.2832   200.9958   201.201    0.4946289  44.64569   259.9873   241.5415   341.5582  
132.4356   202.2385   201.433    0.4943237  46.98428   259.8824   241.7933   341.9074  
132.588    202.2385   202.7668   0.4936829  48.28843   259.8553   241.2014   341.3487  
132.7404   201.6172   202.7668   0.4936829  48.28624   259.777    241.2299   341.4576  
132.8928   201.2029   202.3597   0.4939575  49.07737   259.7525   240.5919   340.8384  
133.0452   201.6172   201.6098   0.4927368  47.18639   259.6852   240.3612   340.6767  
133.1976   201.6172   201.9404   0.4920349  46.57792   259.616    241.0787   341.4639  
133.35     200.9958   201.9839   0.4919434  46.85188   259.577    241.2218   341.6445  
