~Version
 VERS              .         2.0                           : CWLS LOG ASCII STANDARD - VERSION 2.0
 WRAP              .         NO                            : ONE LINE PER DEPTH STEP
 DLM               .         SPACE                         : DELIMITING CHARACTER(SPACE TAB OR COMMA)
~Well Information
#_______________________________________________________________________________
#
#PARAMETER_NAME    .UNIT     VALUE                         : DESCRIPTION
#_______________________________________________________________________________
STRT               .m        91.8972                       : First reference value
STOP               .m        352.6536                      : Last reference value
STEP               .m        0.1524                        : Step increment
NULL               .         -9999                         : Missing value
COMP               .                                       : Company
WELL               .         C                             : Well name
FLD                .                                       : Field
LOC                .                                       : Location
CNTY               .                                       : County
STAT               .                                       : State
CTRY               .                                       : Country
SRVC               .                                       : Service Company
DATE               .                                       : Date
API                .                                       : API number
~Parameter Information Block
#_______________________________________________________________________________
#
#PARAMETER_NAME    .UNIT     VALUE                         : DESCRIPTION
#_______________________________________________________________________________
SET                .         Inclination                   : 
TLFamily_C13       .         Caliper 1                     : 
TLFamily_C24       .         Caliper 2                     : 
TLFamily_DEVI      .         Hole Deviation                : 
TLFamily_GR        .         Gamma Ray                     : 
TLFamily_HAZI      .         Hole Azimuth                  : 
TLFamily_MD        .         Measured Depth                : 
TLFamily_P1AZ      .         Pad A Azimuth                 : 
TLFamily_RB        .         Relative Bearing              : 
~Curve Information
#_______________________________________________________________________________
#
#LOGNAME           .UNIT     LOG_ID                        : DESCRIPTION
#_______________________________________________________________________________
MD                 .m                                      :  
C13                .mm                                     : Caliper 1-3 
C24                .mm                                     : Caliper 2-4 
DEVI               .deg                                    : Deviation 
GR                 .gAPI                                   : Gamma Ray 
HAZI               .deg                                    : Hole Azimuth 
P1AZ               .deg                                    : Pad 1 Azimuth 
RB                 .deg                                    : Relative Bearing 
~Ascii
# ...
230.5812   232.0636   211.711    0.4941711  82.68295   226.8348   115.0089   248.1743  
230.7336   243.8693   219.89     0.4950256  86.08665   226.9444   117.9983   251.0503  
230.886    226.2643   210.1683   0.4923706  86.1007    226.7186   114.3446   247.6262  
231.0384   231.8565   207.5425   0.4908447  92.06528   226.7189   122.2227   255.5013  
231.1908   214.4585   222.8271   0.4920959  92.88447   226.7584   122.0906   255.3291  
231.3432   221.7077   230.4694   0.4898987  93.1997    226.7203   121.218    254.497   
231.4956   202.6528   209.778    0.4887085  90.38676   226.623    121.8809   255.2558  
231.648    202.2385   204.0687   0.4906616  89.48578   226.7118   122.8392   256.1269  
231.8004   211.9731   206.7005   0.4909363  89.98991   226.7521   122.567    255.8152  
231.9528   228.5426   204.0687   0.4919739  90.6833    226.6369   126.3004   259.6622  
232.1052   227.2999   201.7536   0.4919434  86.10052   226.6502   136.9176   270.2678  
232.2576   246.9761   215.6476   0.4949951  85.09211   226.7726   142.6879   275.9171  
232.41     253.1897   232.7856   0.4949951  84.90507   226.7453   145.8517   279.1085  
232.5624   226.0572   223.7526   0.4937439  88.02515   226.941    141.1848   274.2433  
232.7148   223.0881   225.5757   0.4938049  90.16112   227.3397   133.7461   266.4067  
232.8672   226.4714   217.733    0.4963379  91.924     227.9057   131.636    263.73    
233.0196   234.3419   246.5004   0.4936829  91.91692   227.9679   132.3834   264.4153  
233.172    237.0344   263.6236   0.4932861  89.81872   228.8321   129.1496   260.319   
233.3244   267.7915   248.1202   0.4926758  89.25126   229.1424   138.8393   269.6965  
233.4768   266.5488   257.3759   0.4912415  91.68522   229.5321   152.0134   282.4828  
233.6292   266.2382   268.2515   0.4847107  91.30702   230.4744   161.7748   291.3023  
233.7816   262.7172   251.3108   0.4830322  89.54233   230.7751   162.4343   291.659   
233.934    266.8595   272.6179   0.4795837  87.39912   230.8823   163.452    292.5699  
234.0864   269.3449   282.1352   0.479126   87.11122   231.4125   160.3999   288.9887  
234.2388   269.1378   276.5818   0.4774475  88.1827    231.3237   158.8454   287.5238  
234.3912   261.2673   285.1433   0.4808655  87.80458   231.6258   159.5236   287.8968  
234.5436   273.2802   264.7806   0.4865723  88.24383   231.172    159.4963   288.3219  
234.696    259.4032   227.2368   0.4885254  88.55883   231.3111   159.4493   288.1414  
234.8484   254.4324   219.1225   0.4909363  87.17452   231.1694   158.8408   287.6725  
235.0008   247.8046   229.3772   0.4973145  86.40951   230.7855   160.2387   289.4527  
235.1532   220.2578   209.1634   0.5003052  88.81409   230.7506   159.6262   288.8759  
235.3056   206.7952   218.733    0.499115   87.29901   230.3265   156.5452   286.2192  
235.458    211.5589   214.5679   0.4986877  88.44209   230.2314   156.1313   285.9033  
235.6104   215.7012   212.0948   0.4951477  85.65952   229.8645   154.5803   284.7154  
235.7628   213.2158   209.94     0.4925537  87.61344   229.7212   154.1133   284.3931  
235.9152   198.0962   199.9901   0.4872742  89.37834   230.0975   153.7109   283.6133  
236.0676   198.0962   200.363    0.4841309  91.01711   230.2405   154.5789   284.339   
236.22     203.4813   202.0065   0.4805603  94.35763   230.5134   156.8294   286.3183  
236.3724   203.6884   204.3001   0.4757996  90.76496   230.8144   157.4669   286.6501  
236.5248   195.4036   191.4285   0.4720459  88.18066   231.0275   159.0756   288.0516  
236.6772   195.4036   190.8684   0.470459   86.35289   231.143    158.577    287.437   
236.8296   197.2677   198.6017   0.4684143  87.36138   231.1347   158.4456   287.3107  
236.982    201.6172   202.6792   0.4680176  89.69357   231.077    160.5093   289.4337  
237.1344   202.2385   202.6792   0.4680176  89.94547   230.8926   162.656    291.7634  
237.2868   203.4813   203.142    0.4681091  91.77341   230.73     161.4532   290.7259  
237.4392   203.4813   204.1552   0.4692993  92.02546   230.681    161.1646   290.4871  
237.5916   202.2385   202.3544   0.4707947  91.77341   230.662    161.0495   290.3903  
237.744    203.4813   204.1552   0.471405   89.50417   230.6188   161.2965   290.6789  
237.8964   203.4813   203.9823   0.4719543  88.68472   230.6754   161.1749   290.497   
238.0488   202.2385   201.3784   0.4719543  88.24361   230.6418   161.3357   290.6968  
238.2012   203.4813   202.2722   0.4719238  92.02553   230.6555   161.903    291.248   
238.3536   203.4813   204.0687   0.472168   91.52147   230.5894   161.1289   290.5422  
238.506    202.2385   202.6781   0.4716797  92.21475   230.4937   160.4462   289.9517  
238.6584   202.2385   199.6682   0.4719849  88.49609   230.4459   159.7672   289.3232  
238.8108   199.7531   199.9002   0.4735718  87.61359   230.3028   160.0242   289.7234  
238.9632   200.9958   199.9901   0.4746094  84.02087   230.315    157.7092   287.3966  
239.1156   202.2385   200.5051   0.4753723  84.20995   230.2456   156.666    286.4224  
239.268    200.9958   199.9002   0.4762878  84.96629   230.345    155.9958   285.6501  
239.4204   200.9958   200.3372   0.4769592  89.94562   230.4463   152.7487   282.3014  
239.5728   202.2385   200.1316   0.4777832  94.55763   230.2815   148.5289   278.2475  
239.7252   203.9473   204.1552   0.4786987  95.25105   230.3523   148.7079   278.3553  
239.8776   204.5168   203.9823   0.4804382  97.45723   230.3913   147.8627   277.4709  
240.03     209.2806   209.94     0.4828186  91.24972   230.297    146.0043   275.708   
240.1824   204.724    201.2897   0.4838867  93.45559   230.3963   145.3739   274.9774  
240.3348   203.067    200.9156   0.4865723  91.6276    230.4198   144.3872   273.9682  
240.4872   202.2385   199.9002   0.4880066  95.15732   230.6404   143.0039   272.3641  
240.6396   200.1674   199.9901   0.4907837  92.947     230.5894   143.1111   272.5208  
240.792    195.4036   199.579    0.4920654  90.74099   230.5957   146.9476   276.3518  
240.9444   195.4036   198.6017   0.4920654  87.9416    230.6752   150.2274   279.5513  
241.0968   197.2677   199.9002   0.4908447  86.74831   230.4867   153.6647   283.1793  
241.2492   201.4101   197.4447   0.4888306  87.05038   230.5103   157.3713   286.8624  
241.4016   202.2385   199.9901   0.4868774  91.13006   230.3152   159.6672   289.3531  
241.554    202.2385   201.3784   0.4835815  93.17538   230.2631   161.9405   291.677   
241.7064   202.2385   200.6842   0.480957   93.31459   230.0107   165.6031   295.5934  
241.8588   203.4813   203.2296   0.4777527  93.73852   230.0005   166.8298   296.8314  
242.0112   204.5168   203.9823   0.4721985  94.59256   230.1808   166.9308   296.75    
242.1636   204.724    206.9319   0.4714661  93.66235   230.2671   165.7272   295.4606  
242.316    204.724    206.9319   0.4709778  95.12939   230.3886   165.5959   295.2059  
242.4684   210.9375   206.4691   0.4699402  94.88399   230.2635   165.8038   295.5424  
242.6208   203.4813   201.985    0.4717102  97.57896   230.4883   165.457    294.9671  
242.7732   212.8016   218.4249   0.4728699  94.5295    230.3484   164.1022   293.7546  
242.9256   208.8663   217.8075   0.4754028  91.56037   230.4422   161.316    290.877   
243.078    215.7012   221.205    0.4760437  92.15177   230.6656   156.1327   285.4688  
243.2304   204.9311   204.9949   0.478302   89.84355   230.5951   149.1929   278.5966  
243.3828   195.4036   199.579    0.481842   88.83501   230.7286   148.8762   278.1455  
243.5352   195.4036   196.6579   0.4810486  85.36607   230.6181   149.1627   278.5432  
243.6876   200.0638   200.6842   0.4851379  86.5005    230.9055   149.662    278.7552  
243.84     219.6365   213.3331   0.4893494  89.32174   230.7338   152.4785   281.7451  
243.9924   213.6301   217.3447   0.4941406  92.30367   230.7735   152.8502   282.0777  
244.1448   201.6172   201.2897   0.498291   93.5014    230.3925   151.0088   280.6159  
244.2972   202.2385   202.9982   0.5032654  93.5014    229.524    150.0443   280.521   
