~Version
 VERS              .         2.0                           : CWLS LOG ASCII STANDARD - VERSION 2.0
 WRAP              .         NO                            : ONE LINE PER DEPTH STEP
 DLM               .         SPACE                         : DELIMITING CHARACTER(SPACE TAB OR COMMA)
~Well Information
#_______________________________________________________________________________
#
#PARAMETER_NAME    .UNIT     VALUE                         : DESCRIPTION
#_______________________________________________________________________________
STRT               .m        91.8972                       : First reference value
STOP               .m        352.6536                      : Last reference value
STEP               .m        0.1524                        : Step increment
NULL               .         -9999                         : Missing value
COMP               .                                       : Company
WELL               .         C                             : Well name
FLD                .                                       : Field
LOC                .                                       : Location
CNTY               .                                       : County
STAT               .                                       : State
CTRY               .                                       : Country
SRVC               .                                       : Service Company
DATE               .                                       : Date
API                .                                       : API number
~Parameter Information Block
#_______________________________________________________________________________
#
#PARAMETER_NAME    .UNIT     VALUE                         : DESCRIPTION
#_______________________________________________________________________________
SET                .         Inclination                   : 
TLFamily_C13       .         Caliper 1                     : 
TLFamily_C24       .         Caliper 2                     : 
TLFamily_DEVI      .         Hole Deviation                : 
TLFamily_GR        .         Gamma Ray                     : 
TLFamily_HAZI      .         Hole Azimuth                  : 
TLFamily_MD        .         Measured Depth                : 
TLFamily_P1AZ      .         Pad A Azimuth                 : 
TLFamily_RB        .         Relative Bearing              : 
~Curve Information
#_______________________________________________________________________________
#
#LOGNAME           .UNIT     LOG_ID                        : DESCRIPTION
#_______________________________________________________________________________
MD                 .m                                      :  
C13                .mm                                     : Caliper 1-3 
C24                .mm                                     : Caliper 2-4 
DEVI               .deg                                    : Deviation 
GR                 .gAPI                                   : Gamma Ray 
HAZI               .deg                                    : Hole Azimuth 
P1AZ               .deg                                    : Pad 1 Azimuth 
RB                 .deg                                    : Relative Bearing 
~Ascii
# ...
105.7656   214.0443   209.4773   0.4792786  96.78541   263.9465   267.6385   3.698425  
105.918    211.5589   210.1714   0.4816895  96.1922    264.0448   267.2094   3.162476  
106.0704   210.9375   212.7168   0.4847717  94.24464   264.0916   265.4538   1.361603  
106.2228   210.9375   209.2458   0.4868164  92.10152   263.981    265.0191   1.036621  
106.3752   214.0443   213.4109   0.4886475  91.00624   263.8455   265.0392   1.194092  
106.5276   214.0443   214.5679   0.4900208  87.65916   263.6149   264.6069   0.9940491 
106.68     214.0443   211.097    0.4909668  80.41051   263.1667   265.0107   1.849731  
106.8324   216.5297   217.1133   0.4908447  77.24575   262.9459   264.827    1.879913  
106.9848   214.0443   217.3447   0.4904785  80.23867   262.51     265.038    2.531769  
107.1372   214.0443   216.8819   0.4893494  88.3763    262.1292   264.721    2.59436   
107.2896   214.0443   212.9482   0.4882813  91.46489   261.7618   263.9803   2.213593  
107.442    214.0443   211.4441   0.4877625  92.85373   261.5683   264.2711   2.700104  
107.5944   214.0443   214.5679   0.4876099  94.42296   261.3775   264.4018   3.025177  
107.7468   214.0443   217.3447   0.4879761  94.43817   261.3097   263.9955   2.68631   
107.8992   216.5297   219.4272   0.4879761  93.52544   261.1745   263.3168   2.145538  
108.0516   219.0151   218.2702   0.4892273  92.83199   260.9867   264.2494   3.263641  
108.204    216.5297   213.6423   0.4908142  96.66164   260.9483   264.6938   3.747253  
108.3564   214.0443   212.4854   0.4911194  97.81773   260.8629   264.1308   3.268616  
108.5088   214.0443   210.8656   0.4916382  98.58508   260.8795   263.8584   2.977234  
108.6612   215.287    213.1796   0.4906006  99.27837   260.9016   263.7886   2.889099  
108.8136   214.0443   211.7912   0.4898682  97.81789   260.8881   263.8911   2.998657  
108.966    215.4941   213.1796   0.4880066  94.71846   260.9603   264.0153   3.055756  
109.1184   216.5297   212.0226   0.4858704  93.84693   261.04     264.3119   3.271118  
109.2708   220.6721   221.5098   0.485199   95.12492   261.1152   264.8094   3.69516   
109.4232   221.7077   224.0551   0.4836426  94.02512   261.2163   264.6365   3.419037  
109.5756   217.3582   214.5679   0.4837952  88.42618   261.3997   264.7467   3.343079  
109.728    223.3646   220.1214   0.4833374  83.80103   261.5064   265.1204   3.618195  
109.8804   226.8856   225.9063   0.4833069  82.00154   261.6575   264.8657   3.207672  
110.0328   225.8501   234.4679   0.4838867  83.46217   261.9442   264.5435   2.604095  
110.1852   223.3646   232.3854   0.4840393  85.12487   262.0085   264.337    2.33197   
110.3376   223.3646   225.4435   0.4847717  87.35033   262.1127   263.0588   0.947937  
110.49     216.5297   216.4191   0.486145   86.81342   262.1689   261.884    359.7137  
110.6424   221.0863   220.8156   0.488739   87.71707   262.2154   261.7458   359.5283  
110.7948   218.808    221.047    0.4902344  84.73502   262.0472   261.0274   358.9785  
110.9472   220.8792   223.9394   0.4914856  77.48203   262.0268   261.6788   359.6501  
111.0996   215.7012   221.9725   0.4941101  67.35224   261.856    262.3518   0.4940186 
111.252    211.5589   217.8075   0.4949341  66.94508   261.8503   262.1458   0.3016663 
111.4044   210.5233   207.1633   0.4972534  73.19977   261.7144   260.3463   358.6339  
111.5568   216.5297   219.1213   0.4983215  77.65015   261.6686   259.4028   357.7346  
111.7092   215.0799   220.1214   0.4997559  71.9481    261.5385   259.8367   358.3005  
111.8616   203.4813   203.6924   0.5003967  64.94879   261.4935   260.5513   359.0535  
112.014    202.2385   201.3784   0.5000916  62.60206   261.4632   260.9244   359.4612  
112.1664   202.2385   201.2897   0.4998779  63.73183   261.395    261.2304   359.8308  
112.3188   202.2385   202.2159   0.4979858  67.39777   261.3471   261.0709   359.722   
112.4712   203.067    201.2897   0.496521   73.04021   261.1721   260.3795   359.2084  
112.6236   203.4813   204.0687   0.4950256  78.01976   260.9537   261.3544   0.4043274 
112.776    210.5233   210.0878   0.4929504  77.10683   260.8659   262.8481   1.978699  
112.9284   207.2094   206.8477   0.4899597  72.03166   260.5839   266.0937   5.509796  
113.0808   207.2094   209.0815   0.4878845  65.94585   260.4296   267.4786   7.053223  
113.2332   203.4813   205.5435   0.4861145  61.98787   260.1283   269.5767   9.449554  
113.3856   202.2385   202.5917   0.4825134  56.56718   259.8553   270.1571   10.30743  
113.538    202.2385   202.7668   0.4807129  54.19386   259.713    270.2741   10.56381  
113.6904   202.2385   202.3597   0.4788818  57.17819   259.604    270.7554   11.15198  
113.8428   202.2385   201.201    0.4772339  62.97714   259.5965   270.8868   11.2869   
113.9952   202.2385   199.2959   0.4753113  68.3325    259.5879   269.3743   9.791351  
114.1476   202.2385   199.9901   0.4730835  71.96649   259.6574   268.8644   9.204803  
114.3      203.4813   202.5354   0.4699097  77.13502   259.7299   268.2181   8.484314  
114.4524   202.2385   202.7668   0.4690247  81.33422   259.7292   268.234    8.503662  
114.6048   202.2385   202.6792   0.4656372  81.46027   259.8085   268.4      8.595367  
114.7572   202.6528   204.1552   0.4648743  82.09059   259.8958   268.1465   8.250092  
114.9096   206.1738   209.3954   0.4638977  82.39487   259.7813   268.6953   8.915436  
115.062    211.3518   211.3284   0.4620056  81.19673   259.9193   268.7678   8.848907  
115.2144   214.0443   216.8819   0.4639587  80.27739   260.1057   268.1168   8.011566  
115.3668   214.0443   217.9632   0.4645386  81.12944   260.1535   268.9583   8.807556  
115.5192   214.0443   220.8156   0.4669495  81.63419   260.1825   268.8461   8.662811  
115.6716   208.8663   215.6476   0.4683533  77.63705   260.2527   268.5385   8.283478  
115.824    210.6268   214.5679   0.4718628  74.04636   260.4851   267.7513   7.261841  
115.9764   207.2094   210.8656   0.4743652  74.73981   260.2466   267.466    7.217743  
116.1288   207.2094   210.6894   0.4743652  73.80739   260.2728   267.1638   6.889862  
116.2812   207.2094   209.857    0.4761658  69.24318   260.2512   266.7993   6.549255  
116.4336   204.3097   204.1552   0.474884   60.79696   260.3838   266.8362   6.452576  
116.586    203.4813   202.7668   0.4746094  56.59779   260.732    267.4018   6.666565  
116.7384   203.4813   203.461    0.473999   54.68497   260.8312   267.6386   6.801758  
116.8908   203.6884   202.0726   0.473175   60.79899   261.0797   268.365    7.279785  
117.0432   210.3162   214.5679   0.4728699  68.58884   261.417    268.8072   7.389679  
117.1956   213.2158   221.2784   0.4726868  76.97208   261.6477   268.2463   6.598846  
117.348    204.724    204.1552   0.472229   80.16933   261.8588   268.6283   6.769135  
117.5004   205.7596   204.0687   0.4725037  79.52824   262.0594   269.1025   7.041046  
117.6528   207.2094   208.5517   0.4719543  79.32604   262.2147   267.907    5.692535  
117.8052   202.2385   202.0726   0.4715881  81.36026   262.2054   267.6344   5.43103   
117.9576   203.067    202.7668   0.4698181  82.6837    262.2968   267.2964   4.998383  
118.11     204.724    202.5354   0.4675598  82.13602   262.3725   267.2741   4.901154  
118.2624   207.2094   207.3894   0.4664307  81.06466   262.414    269.3284   6.919067  
118.4148   211.1447   210.1714   0.4638062  84.09451   262.4386   272.7424   10.30594  
118.5672   208.0379   214.0273   0.4602356  90.9584    262.4736   275.0068   12.52985  
118.7196   214.0443   214.5679   0.4604492  91.33447   262.3346   273.2982   10.96619  
118.872    220.2578   220.1214   0.4586487  91.96041   262.3153   272.6235   10.30945  
119.0244   223.1575   222.3643   0.4598999  90.57372   262.1239   272.8433   10.72034  
119.1768   223.5717   224.5179   0.460083   95.05096   262.0126   271.952    9.937653  
119.3292   232.8921   234.9307   0.4616394  97.52873   261.925    269.6011   7.671906  
119.4816   232.0636   234.9307   0.4605713  99.41964   261.8394   269.9825   8.14444   
