~Version
 VERS              .         2.0                           : CWLS LOG ASCII STANDARD - VERSION 2.0
 WRAP              .         NO                            : ONE LINE PER DEPTH STEP
 DLM               .         SPACE                         : DELIMITING CHARACTER(SPACE TAB OR COMMA)
~Well Information
#_______________________________________________________________________________
#
#PARAMETER_NAME    .UNIT     VALUE                         : DESCRIPTION
#_______________________________________________________________________________
STRT               .M        -8.0768                       : First reference value
STOP               .M        356.464                       : Last reference value
STEP               .M        0.1524                        : Step increment
NULL               .         -9999                         : Missing value
COMP               .                                       : Company
WELL               .         C                             : Well name
FLD                .                                       : Field
LOC                .                                       : Location
CNTY               .                                       : County
STAT               .                                       : State
CTRY               .                                       : Country
SRVC               .                                       : Service Company
DATE               .                                       : Date
API                .                                       : API number
~Parameter Information Block
#_______________________________________________________________________________
#
#PARAMETER_NAME    .UNIT     VALUE                         : DESCRIPTION
#_______________________________________________________________________________
SET                .         Logs                          : 
TLFamily_DEPT      .         Measured Depth                : 
TLFamily_DT        .         Compressional Slowness        : 
TLFamily_GR        .         Gamma Ray                     : 
TLFamily_ILD       .         Resistivity - Deep            : 
TLFamily_NPOR_LIM  .         Thermal Neutron Porosity Limestone: 
TLFamily_PEF       .         Photoelectric Factor          : 
TLFamily_RHO       .         Bulk Density                  : 
~Curve Information
#_______________________________________________________________________________
#
#LOGNAME           .UNIT     LOG_ID                        : DESCRIPTION
#_______________________________________________________________________________
DEPT               .M                                      : 1 Depth Index - Measured Depth 
DT                 .US/M                                   : 3 DELTA-T COMPRESSIONAL 
GR                 .GAPI                                   : 51 GAMMA RAY (F14.5) **MERGED** 
ILD                .OHMM                                   : 28 ARRAY INDUCTION ONE FOOT RESISTIVITY A90 (F14.5) **MERGED** 
NPOR_LIM           .V/V                                    : 80 ENHANCED THERMAL NEUTRON POROSITY (MATRIX LIMESTONE) (F14.5) **MERGED** 
PEF                .B/E                                    : 85 HIGH RESOLUTION FORMATION PHOTOELECTRIC FACTOR (F14.5) **MERGED** 
RHO                .K/M3                                   : 87 STANDARD RESOLUTION FORMATION DENSITY (F14.5) **MERGED** 
~Ascii
# ...
128.626    467.77426  97.19923   19.95861053466797 0.3650699853897095 2.04803991317749 2117.01685
128.7784   469.63556  93.22622   19.21183013916016 0.3607900142669678 1.999950051307678 2120.02808
128.9308   471.45212  94.30135   18.59889984130859 0.3620100021362305 2.407599925994873 2122.91357
129.0832   472.65677  90.67882   18.3809700012207 0.4295200109481812 2.465270042419434 2116.21069
129.2356   473.75378  86.35525   20.10507965087891 0.3843199908733368 2.21953010559082 2094.58789
129.388    474.05386  82.14836   22.12816047668457 0.3804199993610382 1.935420036315918 2077.9917 
129.5404   472.82303  74.88814000000001 22.62723922729492 0.3820199966430664 1.998970031738281 2076.16992
129.6928   473.02246  74.07017999999999 21.83824920654297 0.3950099945068359 2.006619930267334 2088.7207 
129.8452   472.38275  77.80952000000001 20.67789077758789 0.3662599921226501 2.045629978179932 2094.31055
129.9976   470.10904  78.05867000000001 19.41572952270508 0.3821600079536438 1.995970010757446 2099.15796
130.15     469.2074   75.26973   20.52957916259766 0.3696399927139282 2.033169984817505 2089.72925
130.3024   469.92615  68.6091    21.13360023498535 0.3513399958610535 1.955139994621277 2073.58789
130.4548   471.30197  66.50578   17.9591007232666 0.363970011472702 1.90693998336792 2055.07056
130.6072   473.59924  61.81602   15.39807033538818 0.4621999859809875 1.918779969215393 2044.8866 
130.7596   475.80261  55.73943   25.13945960998535 0.4045900106430054 1.903339982032776 2048.33862
130.912    478.14523  48.49448   28.1799201965332 0.3501699864864349 1.851879954338074 2059.55322
131.0644   485.6077   46.15739   31.15937042236328 0.3415200114250183 1.834259986877441 2061.31006
131.2168   488.24182  45.698     33.17354965209961 0.3390200138092041 1.797399997711182 2051.11377
131.3692   494.6937   47.1001    32.0341911315918 0.3646900057792664 1.787160038948059 2028.06335
131.5216   496.40683  48.03479   30.17654037475586 0.3735899925231934 1.896440029144287 2008.98669
131.674    496.48001  48.72809   28.56954956054688 0.436269998550415 1.906780004501343 2002.1145 
131.8264   494.3334   47.91042   31.0349006652832 0.4042800068855286 1.852839946746826 2007.60559
131.9788   491.1694   48.72855   27.86713981628418 0.3815900087356567 1.900410056114197 2017.42004
132.1312   488.51614  50.48137   27.12535095214844 0.3395099937915802 1.90759003162384 2021.38879
132.2836   485.88229  50.14632   27.29520034790039 0.3539499938488007 1.944210052490234 2022.31433
132.436    485.85236  46.99113   27.34572982788086 0.3910999894142151 1.96494996547699 2027.4873 
132.5884   486.78427  43.71918   29.21943092346191 0.4173299968242645 1.962870001792908 2034.88354
132.7408   487.90884  45.57309   29.10570907592773 0.3802100121974945 1.983999967575073 2035.00293
132.8932   487.7959   48.02715   27.86709022521973 0.3594000041484833 1.919250011444092 2028.14392
133.0456   486.97678  50.3642    26.59988975524902 0.3709900081157684 1.928930044174194 2018.23779
133.198    486.42331  47.887     27.56644058227539 0.3871999979019165 1.911579966545105 2014.69922
133.3504   486.35291  50.45781   27.96404075622559 0.3791800141334534 1.895869970321655 2021.37903
133.5028   485.34814  50.92525   28.63719940185547 0.3600499927997589 1.849419951438904 2029.74182
133.6552   484.07446  51.64968   29.80278015136719 0.3774600028991699 1.882650017738342 2042.31018
133.8076   484.14862  46.62479   29.5780200958252 0.3371399939060211 1.85683000087738 2051.42236
133.96     481.22321  44.52145   28.67120933532715 0.3547199964523315 1.844499945640564 2059.88452
134.1124   481.25089  47.32595   27.07006072998047 0.3794200122356415 1.861070036888123 2061.75342
134.2648   479.26956  49.52275   26.73719024658203 0.36421999335289 1.909950017929077 2056.00098
134.4172   475.99976  52.0936    26.01147079467773 0.3723700046539307 1.978780031204224 2053.63892
134.5696   472.12335  56.65104   24.98175048828125 0.4033899903297424 2.127379894256592 2058.80029
134.722    469.44717  61.46566   22.23464012145996 0.3830200135707855 1.932250022888184 2081.79395
134.8744   470.52859  66.49034   19.70339965820313 0.3633899986743927 1.959939956665039 2108.96191
135.0268   469.36392  68.35996   16.9349308013916 0.3525600135326385 1.990990042686462 2129.78516
135.1792   468.00803  74.08565   15.65573978424072 0.357589989900589 1.983999967575073 2136.34424
135.3316   464.60013  77.35755   16.78860092163086 0.387580007314682 2.035830020904541 2135.75317
135.484    459.52667  78.05859   15.79043960571289 0.3643400073051453 2.053369998931885 2142.95166
135.6364   455.20328  75.62035   14.33106994628906 0.3497099876403809 2.137969970703125 2156.73486
135.7888   450.36304  75.97095   14.35466957092285 0.3841600120067596 2.239109992980957 2175.51318
135.9412   447.14661  77.84094   14.73451995849609 0.3653300106525421 2.260119915008545 2185.61182
136.0936   444.82715  82.03198999999999 15.45032978057861 0.3516300022602081 2.250439882278442 2198.72339
136.246    446.10852  83.65228   15.79152965545654 0.3532699942588806 2.168859958648682 2202.30737
136.3984   439.85907  82.13290000000001 15.95291042327881 0.3288699984550476 2.146889925003052 2208.09009
136.5508   440.57513  81.19807   16.63644981384277 0.3411299884319305 2.209660053253174 2209.927  
136.7032   445.06104  82.03169   16.69219017028809 0.3810499906539917 2.619400024414063 2201.20874
136.8556   447.4585   82.84972   17.08180046081543 0.3946599960327148 2.111680030822754 2173.76807
137.008    457.9274   81.21369   17.24600028991699 0.4239299893379211 2.192980051040649 2138.8501 
137.1604   466.87863  82.14839000000001 17.45373916625977 0.3848299980163574 2.072060108184814 2124.46875
137.3128   454.87598  84.71905   17.23628044128418 0.3919099867343903 2.121409893035889 2137.85449
137.4652   459.05008  89.51027999999999 16.00307083129883 0.3749699890613556 2.284159898757935 2160.42871
137.6176   460.53033  86.99399   14.80130004882813 0.3464699983596802 2.345160007476807 2193.56689
137.77     457.89481  86.76040999999999 14.22010040283203 0.367220014333725 2.50167989730835 2238.61353
137.9224   458.49048  80.80077   16.23033905029297 0.3441300094127655 2.443959951400757 2274.06909
138.0748   462.34528  81.21377   19.65523910522461 0.3276099860668182 3.550120115280151 2267.55273
138.2272   462.96744  81.91500000000001 16.12569046020508 0.3809199929237366 2.125619888305664 2228.03271
138.3796   465.29187  86.2385    15.30712032318115 0.3762199878692627 2.309329986572266 2197.70215
138.532    469.85895  85.88800999999999 14.83526992797852 0.3808700144290924 2.362250089645386 2188.61377
138.6844   469.50037  82.38216   14.4205904006958 0.3535600006580353 2.169519901275635 2184.65918
138.8368   469.90869  76.4849    15.21331977844238 0.3731200098991394 2.145220041275024 2173.51587
138.9892   455.55212  75.43326999999999 16.52679061889648 0.3814100027084351 2.188689947128296 2168.22363
139.1416   448.68512  72.04469   15.9849100112915 0.3384599983692169 2.149480104446411 2166.58789
139.294    447.68707  77.35795   15.69591999053955 0.3354400098323822 2.147629976272583 2165.1333 
139.4464   463.4007   79.11083000000001 15.47544956207275 0.3544799983501434 2.100549936294556 2167.65723
139.5988   464.55118  87.09578999999999 14.35159015655518 0.3869099915027618 2.147200107574463 2172.97607
139.7512   464.14529  87.32944000000001 13.61853981018066 0.3953900039196014 2.13782000541687 2179.62427
139.9036   462.15662  84.17427000000001 13.52140998840332 0.3587299883365631 2.19379997253418 2181.44507
140.056    457.7489   81.79798   13.08036041259766 0.3568300008773804 2.156860113143921 2184.22021
140.2084   454.58694  77.12372999999999 12.5492696762085 0.3697699904441833 2.271120071411133 2188.78662
140.3608   453.23834  80.62913   12.64027976989746 0.3806400001049042 2.162270069122314 2190.66333
140.5132   453.45584  79.46099   12.87211036682129 0.3608199954032898 2.112970113754272 2194.31592
140.6656   454.00012  83.08347000000001 12.63603019714355 0.3787299990653992 2.199660062789917 2194.6145 
