~Version
 VERS              .         2.0                           : CWLS LOG ASCII STANDARD - VERSION 2.0
 WRAP              .         NO                            : ONE LINE PER DEPTH STEP
 DLM               .         SPACE                         : DELIMITING CHARACTER(SPACE TAB OR COMMA)
~Well Information
#_______________________________________________________________________________
#
#PARAMETER_NAME    .UNIT     VALUE                         : DESCRIPTION
#_______________________________________________________________________________
STRT               .M        -8.0768                       : First reference value
STOP               .M        356.464                       : Last reference value
STEP               .M        0.1524                        : Step increment
NULL               .         -9999                         : Missing value
COMP               .                                       : Company
WELL               .         C                             : Well name
FLD                .                                       : Field
LOC                .                                       : Location
CNTY               .                                       : County
STAT               .                                       : State
CTRY               .                                       : Country
SRVC               .                                       : Service Company
DATE               .                                       : Date
API                .                                       : API number
~Parameter Information Block
#_______________________________________________________________________________
#
#PARAMETER_NAME    .UNIT     VALUE                         : DESCRIPTION
#_______________________________________________________________________________
SET                .         Logs                          : 
TLFamily_DEPT      .         Measured Depth                : 
TLFamily_DT        .         Compressional Slowness        : 
TLFamily_GR        .         Gamma Ray                     : 
TLFamily_ILD       .         Resistivity - Deep            : 
TLFamily_NPOR_LIM  .         Thermal Neutron Porosity Limestone: 
TLFamily_PEF       .         Photoelectric Factor          : 
TLFamily_RHO       .         Bulk Density                  : 
~Curve Information
#_______________________________________________________________________________
#
#LOGNAME           .UNIT     LOG_ID                        : DESCRIPTION
#_______________________________________________________________________________
DEPT               .M                                      : 1 Depth Index - Measured Depth 
DT                 .US/M                                   : 3 DELTA-T COMPRESSIONAL 
GR                 .GAPI                                   : 51 GAMMA RAY (F14.5) **MERGED** 
ILD                .OHMM                                   : 28 ARRAY INDUCTION ONE FOOT RESISTIVITY A90 (F14.5) **MERGED** 
NPOR_LIM           .V/V                                    : 80 ENHANCED THERMAL NEUTRON POROSITY (MATRIX LIMESTONE) (F14.5) **MERGED** 
PEF                .B/E                                    : 85 HIGH RESOLUTION FORMATION PHOTOELECTRIC FACTOR (F14.5) **MERGED** 
RHO                .K/M3                                   : 87 STANDARD RESOLUTION FORMATION DENSITY (F14.5) **MERGED** 
~Ascii
# ...
309.3724   416.02261  39.63674   44.56665   0.4048399925231934 1.671630024909973 2076.2356 
309.5248   417.31094  38.70195   64.80294000000001 0.4042600095272064 1.635110020637512 2065.25537
309.6772   418.9241   39.44978   95.53480999999999 0.360729992389679 1.668390035629272 2061.02222
309.8296   421.82312  45.52637   76.8599    0.3576900064945221 1.601089954376221 2068.42798
309.982    426.07507  50.20062   47.85945   0.3482100069522858 1.734889984130859 2084.30957
310.1344   428.48642  47.58315   49.07779   0.3722800016403198 1.687039971351624 2085.05566
310.2868   427.56079  43.02584   74.40403999999999 0.3702600002288818 1.771100044250488 2070.48584
310.4392   426.23291  38.81926   103.3614   0.3805899918079376 1.6700199842453 2048.45923
310.5916   420.72421  35.82778   141.07309  0.3675999939441681 1.565070033073425 2029.68005
310.744    420.06848  34.89288   162.90715  0.3425399959087372 1.57574999332428 2026.83447
310.8964   418.19553  32.43879   169.75705  0.3520399928092957 1.649049997329712 2034.96887
311.0488   419.92255  34.12144   182.4136   0.335209995508194 1.645560026168823 2041.52942
311.2012   423.51398  32.40749   221.65053  0.3677099943161011 1.595989942550659 2036.92151
311.3536   424.4953   33.10876   221.72011  0.3542400002479553 1.597890019416809 2026.93225
311.506    424.50513  30.30421   207.51392  0.3475199937820435 1.52292001247406 2021.62097
311.6584   424.34073  33.17112   270.36856  0.3569200038909912 1.511019945144653 2022.22949
311.8108   425.35379  36.79333   318.15637  0.3415200114250183 1.516700029373169 2027.94458
311.9632   423.15997  40.53286   348.05063  0.3677099943161011 1.552150011062622 2029.67639
312.1156   420.60095  37.74383   352.4451   0.3630299866199493 1.598129987716675 2029.15552
312.268    418.20831  35.64058   340.82117  0.3542700111865997 1.58610999584198 2028.62744
312.4204   418.01794  37.27633   292.91525  0.3304100036621094 1.55010998249054 2030.47803
312.5728   414.80777  40.68856   282.99817  0.3784599900245667 1.615749955177307 2034.41736
312.7252   417.75626  38.70203   284.89236  0.3789899945259094 1.610749959945679 2034.71875
312.8776   418.99905  36.44296   298.61417  0.3614600002765656 1.581519961357117 2027.92957
313.03     421.43805  33.61492   294.8208   0.3820199966430664 1.597890019416809 2020.75842
313.1824   429.38824  35.25095   298.92642  0.3937300145626068 1.5207200050354 2017.37903
313.3348   435.75491  35.87411   229.19933  0.3717600107192993 1.600020051002502 2012.4259 
313.4872   436.68927  38.09452   122.81056  0.3803299963474274 1.598870038986206 1997.17639
313.6396   441.50098  42.18431   55.07115   0.3896900117397308 1.618970036506653 2002.5647 
313.792    435.69095  48.66595   30.71395   0.390610009431839 1.827489972114563 2037.26794
313.9444   433.3425   55.32665   11.81851   0.3882499933242798 2.056400060653687 2080.25195
314.0968   428.52502  55.20979   14.59856   0.3937000036239624 1.824010014533997 2086.95044
314.2492   420.81036  51.09652   31.13818   0.3701199889183044 1.673609972000122 2070.78247
314.4016   413.83264  43.15038   53.91525   0.3477799892425537 1.650210022926331 2054.84668
314.554    415.04758  43.0336    64.58139   0.3502500057220459 1.563899993896484 2055.01636
314.7064   413.62784  43.40742   58.97586   0.3519999980926514 1.639039993286133 2066.62964
314.8588   413.81519  52.63894   31.79196   0.3234899938106537 1.666569948196411 2101.91919
315.0112   417.89453  58.36485   22.4584    0.324400007724762 1.75056004524231 2140.32813
315.1636   413.83066  62.97673   12.72682   0.3467400074005127 1.85820996761322 2155.94019
315.316    414.37903  59.23748   16.01075   0.3791300058364868 1.915380001068115 2134.93042
315.4684   415.87457  50.00589   40.20014   0.3863700032234192 1.656360030174255 2096.2959 
315.6208   414.28949  45.80688   47.57809   0.352869987487793 1.580610036849976 2077.99951
315.7732   417.85489  46.3211    45.59517   0.3216800093650818 1.630040049552917 2084.92822
315.9256   413.32474  57.30547   26.18327   0.3436999917030334 1.782109975814819 2113.20776
316.078    408.05505  65.95274000000001 17.84919   0.3546800017356873 1.836959958076477 2141.10864
316.2304   404.19119  78.16767   13.73793   0.329010009765625 1.926079988479614 2178.63989
316.3828   402.1738   80.38775   8.86284    0.3167900145053864 2.022720098495483 2220.72754
316.5352   403.314    79.68661   7.77157    0.2970600128173828 2.223419904708862 2233.36377
316.6876   403.55038  67.72101000000001 8.62623    0.3300600051879883 1.911739945411682 2196.78906
316.84     405.69922  55.56831   17.23238   0.3749699890613556 1.758249998092651 2136.79932
316.9924   406.24866  51.01089   21.77147   0.3745700120925903 1.653710007667542 2115.52271
317.1448   403.32675  59.71239   19.17604   0.2923299968242645 1.724939942359924 2145.02612
317.2972   402.86395  72.45735000000001 11.24587   0.2827999889850616 1.982460021972656 2198.6665 
317.4496   399.26074  77.48218   10.38023   0.2971499860286713 1.951349973678589 2227.56885
317.602    397.35403  71.40573999999999 8.83422    0.3111900091171265 2.218369960784912 2214.23071
317.7544   398.1705   64.67474   11.28208   0.3844799995422363 1.909369945526123 2170.21582
317.9068   400.19724  61.40294   15.28384   0.3450100123882294 1.674299955368042 2154.10205
318.0592   400.03525  68.41413   15.59158   0.283160001039505 1.713760018348694 2182.37207
318.2116   401.80069  75.02048000000001 7.55896    0.2994399964809418 2.093590021133423 2227.72803
318.364    404.23499  80.27888   8.73366    0.3672800064086914 2.126719951629639 2246.18188
318.5164   403.86517  79.11039   9.475529999999999 0.3193199932575226 2.132750034332275 2228.93726
318.6688   408.7056   72.21583   13.09401   0.3736299872398376 2.025059938430786 2185.52734
318.8212   411.30994  62.39999   22.86603   0.3722299933433533 1.748780012130737 2133.02759
318.9736   416.75577  48.26077   50.97549   0.3795000016689301 1.699380040168762 2086.79346
319.126    419.23416  38.21134   77.30892   0.369159996509552 1.616659998893738 2066.80469
319.2784   419.81717  29.21353   97.89063   0.3436500132083893 1.55076003074646 2067.47046
319.4308   420.06625  23.54214   144.5228   0.3416100144386292 1.532500028610229 2075.77441
319.5832   419.37457  21.32189   185.26259  0.3329100012779236 1.53505003452301 2079.48218
319.7356   416.45651  21.55557   185.95816  0.3488799929618835 1.521309971809387 2075.25171
319.888    414.97748  22.6696    150.36191  0.3265999853610992 1.535570025444031 2058.24194
320.0404   412.83267  24.30561   141.48315  0.3552399873733521 1.541560053825378 2044.60242
320.1928   413.63919  27.3361    132.45744  0.3584699928760529 1.523239970207214 2038.703  
320.3452   414.31616  32.59447   133.91542  0.3361899852752686 1.524180054664612 2045.65955
320.4976   413.69345  37.03492   159.86662  0.3400500118732452 1.6284099817276 2053.7561 
320.65     411.77817  39.02928   207.93938  0.3557499945163727 1.6526700258255 2058.91504
320.8024   415.94043  39.61368   243.63445  0.3595499992370605 1.595250010490417 2061.78149
320.9548   418.97098  38.67893   239.93246  0.3673799932003021 1.604329943656921 2061.26855
321.1072   419.78738  39.49683   265.70667  0.3395200073719025 1.522459983825684 2058.09204
321.2596   418.0174   40.51718   190.56418  0.3411999940872192 1.585510015487671 2056.09863
321.412    414.96976  44.72389   86.34791   0.3197599947452545 1.620679974555969 2076.33667
321.5644   411.65781  54.53968   44.55109   0.298090010881424 1.631780028343201 2113.17578
321.7168   407.98022  65.38388999999999 19.13927   0.3310999870300293 2.314640045166016 2141.14893
321.8692   406.51404  67.95469   14.64279   0.3655900061130524 2.088609933853149 2139.65942
322.0216   407.58804  62.92989   13.89097   0.3341900110244751 1.951349973678589 2120.44092
322.174    412.2991   55.03837   17.20552   0.3250600099563599 1.835039973258972 2104.59985
322.3264   416.55753  55.92632   25.03831   0.3057500123977661 1.679880023002625 2100.92358
322.4788   420.0784   58.73085   30.54424   0.2928900122642517 1.681540012359619 2118.00269
