~Version
 VERS              .         2.0                           : CWLS LOG ASCII STANDARD - VERSION 2.0
 WRAP              .         NO                            : ONE LINE PER DEPTH STEP
 DLM               .         SPACE                         : DELIMITING CHARACTER(SPACE TAB OR COMMA)
~Well Information
#_______________________________________________________________________________
#
#PARAMETER_NAME    .UNIT     VALUE                         : DESCRIPTION
#_______________________________________________________________________________
STRT               .M        -8.0768                       : First reference value
STOP               .M        356.464                       : Last reference value
STEP               .M        0.1524                        : Step increment
NULL               .         -9999                         : Missing value
COMP               .                                       : Company
WELL               .         C                             : Well name
FLD                .                                       : Field
LOC                .                                       : Location
CNTY               .                                       : County
STAT               .                                       : State
CTRY               .                                       : Country
SRVC               .                                       : Service Company
DATE               .                                       : Date
API                .                                       : API number
~Parameter Information Block
#_______________________________________________________________________________
#
#PARAMETER_NAME    .UNIT     VALUE                         : DESCRIPTION
#_______________________________________________________________________________
SET                .         Logs                          : 
TLFamily_DEPT      .         Measured Depth                : 
TLFamily_DT        .         Compressional Slowness        : 
TLFamily_GR        .         Gamma Ray                     : 
TLFamily_ILD       .         Resistivity - Deep            : 
TLFamily_NPOR_LIM  .         Thermal Neutron Porosity Limestone: 
TLFamily_PEF       .         Photoelectric Factor          : 
TLFamily_RHO       .         Bulk Density                  : 
~Curve Information
#_______________________________________________________________________________
#
#LOGNAME           .UNIT     LOG_ID                        : DESCRIPTION
#_______________________________________________________________________________
DEPT               .M                                      : 1 Depth Index - Measured Depth 
DT                 .US/M                                   : 3 DELTA-T COMPRESSIONAL 
GR                 .GAPI                                   : 51 GAMMA RAY (F14.5) **MERGED** 
ILD                .OHMM                                   : 28 ARRAY INDUCTION ONE FOOT RESISTIVITY A90 (F14.5) **MERGED** 
NPOR_LIM           .V/V                                    : 80 ENHANCED THERMAL NEUTRON POROSITY (MATRIX LIMESTONE) (F14.5) **MERGED** 
PEF                .B/E                                    : 85 HIGH RESOLUTION FORMATION PHOTOELECTRIC FACTOR (F14.5) **MERGED** 
RHO                .K/M3                                   : 87 STANDARD RESOLUTION FORMATION DENSITY (F14.5) **MERGED** 
~Ascii
# ...
153.1624   462.93329  112.67863  9.576089859008789 0.4029799997806549 2.673290014266968 2218.61255
153.3148   460.00226  113.34859  10.13383960723877 0.4433099925518036 2.604470014572144 2216.37354
153.4672   457.26898  112.06363  10.69295024871826 0.3972899913787842 2.406270027160645 2206.84985
153.6196   453.83722  112.88152  11.25454044342041 0.3932799994945526 2.244529962539673 2211.34033
153.772    448.61078  112.0632   10.89383029937744 0.393310010433197 2.27800989151001 2205.06299
153.9244   445.40091  108.9081   12.85031032562256 0.4348300099372864 2.24429988861084 2204.74072
154.0768   446.91238  100.962    13.20131015777588 0.4072700142860413 2.129590034484863 2194.63989
154.2292   450.64508  94.41824   13.19056034088135 0.3834199905395508 2.201849937438965 2186.34082
154.3816   458.38348  95.46992   12.37469959259033 0.4002900123596191 2.178719997406006 2181.29565
154.534    463.51572  104.42089  10.95800018310547 0.398580014705658 2.244699954986572 2183.01758
154.6864   466.2579   111.5491   8.937159538269043 0.4391599893569946 2.304559946060181 2189.57617
154.8388   467.58228  116.69079  9.34138011932373 0.4253099858760834 2.581360101699829 2204.68115
154.9912   467.58951  114.51747  10.19561004638672 0.3883199989795685 2.544820070266724 2213.88501
155.1436   464.647    116.15331  11.62961006164551 0.3659799993038177 2.408339977264404 2221.15039
155.296    463.03635  119.65865  11.51138019561768 0.3698999881744385 2.323100090026855 2216.96704
155.4484   466.26566  125.38467  11.07126045227051 0.3677499890327454 2.324670076370239 2216.80884
155.6008   466.17572  122.93812  10.49744033813477 0.4133599996566772 2.320529937744141 2216.71582
155.7532   469.81378  118.3809   10.01329040527344 0.4135400056838989 2.33653998374939 2212.89233
155.9056   469.86194  114.64133  9.400199890136719 0.4304800033569336 2.355040073394775 2204.75098
156.058    471.27716  113.34869  8.960249900817871 0.4046599864959717 2.443809986114502 2181.51221
156.2104   470.68225  111.8295   11.11493015289307 0.4193699955940247 2.370779991149902 2146.86914
156.3628   472.33566  105.63641  14.58847999572754 0.3812099993228912 2.166990041732788 2114.66504
156.5152   473.67041  105.75335  15.38683032989502 0.426580011844635 2.199739933013916 2098.07104
156.6676   471.42163  100.4949   14.97261047363281 0.4529399871826172 2.141319990158081 2104.57129
156.82     471.54681  104.93526  14.1427001953125 0.4029499888420105 2.168590068817139 2123.73169
156.9724   473.67517  107.73943  13.22620010375977 0.4325799942016602 2.236959934234619 2131.81665
157.1248   475.90744  108.00431  13.14634990692139 0.4379200041294098 2.224989891052246 2127.14673
157.2772   477.56726  104.61539  15.28629970550537 0.400299996137619 2.103250026702881 2108.92236
157.4296   476.84787  94.79956   14.97574996948242 0.4013400077819824 2.044150114059448 2102.71826
157.582    476.59393  89.74375000000001 14.94412994384766 0.4300700128078461 2.157340049743652 2107.96436
157.7344   474.30695  89.51007   14.25897026062012 0.3944100141525269 2.143389940261841 2110.81299
157.8868   470.95938  91.8475    13.96743011474609 0.3666099905967712 2.183020114898682 2110.08569
158.0392   467.63821  100.0274   13.21749019622803 0.3866899907588959 2.185889959335327 2116.69458
158.1916   461.76257  103.41629  12.9000997543335 0.4027999937534332 2.215189933776855 2132.56763
158.344    457.34323  108.26968  11.55729007720947 0.4208000004291534 2.264810085296631 2155.28784
158.4964   456.44107  110.72344  10.71895027160645 0.4100599884986877 2.397209882736206 2162.26807
158.6488   455.35797  105.2312   11.54047012329102 0.3892999887466431 2.186660051345825 2170.47705
158.8012   454.59811  100.02703  13.96916007995605 0.4101299941539764 2.200439929962158 2169.43848
158.9536   455.57306  95.0026    16.07889938354492 0.3903500139713287 2.32561993598938 2170.1604 
159.106    458.47745  94.88567   16.3458194732666 0.3750799894332886 2.484390020370483 2160.61768
159.2584   458.08054  89.97794   16.02976989746094 0.3277899920940399 2.450469970703125 2152.02905
159.4108   458.87369  88.34196   15.10638046264648 0.3411000072956085 2.432260036468506 2160.29126
159.5632   456.23828  88.45878999999999 11.2288703918457 0.3997699916362762 2.375839948654175 2160.03418
159.7156   448.82367  88.47432999999999 11.77324962615967 0.381989985704422 2.351200103759766 2152.56226
159.868    445.07559  78.07432   14.61028003692627 0.3737300038337708 2.385090112686157 2124.3584 
160.0204   442.04419  65.92147   17.27000045776367 0.3555499911308289 2.226020097732544 2101.33887
160.1728   445.00803  57.84297   21.60246086120605 0.3917199969291687 2.49261999130249 2088.8667 
160.3252   449.569    55.03843   21.49151039123535 0.4074999988079071 2.368160009384155 2086.44238
160.4776   453.85223  54.57098   23.85626983642578 0.3751499950885773 2.158519983291626 2091.11792
160.63     460.035    54.80466   25.72784042358398 0.3725999891757965 2.140439987182617 2095.3623 
160.7824   467.74002  52.26497   26.47405052185059 0.3499099910259247 2.1042799949646 2087.83057
160.9348   470.2659   50.62909   26.49349021911621 0.3372800052165985 2.114569902420044 2072.802  
161.0872   472.30823  49.34362   27.07136917114258 0.3867000043392181 2.109080076217651 2051.71948
161.2396   474.83823  51.41591   26.33292961120605 0.3995000123977661 2.057159900665283 2033.47156
161.392    475.76837  51.64954   25.77075958251953 0.3602299988269806 2.077359914779663 2022.09351
161.5444   473.69037  50.71479   25.03082084655762 0.3745200037956238 2.12935996055603 2018.52197
161.6968   470.21036  51.41596   23.55680084228516 0.3863799870014191 2.232000112533569 2023.20081
161.8492   469.79453  51.78995   24.14318084716797 0.3758299946784973 2.08447003364563 2032.95801
162.0016   466.06073  52.25731   23.23465919494629 0.3912599980831146 2.142090082168579 2036.81702
162.154    468.38577  50.73811   22.94602966308594 0.3783999979496002 2.085119962692261 2038.61499
162.3064   468.34592  50.94844   22.5132007598877 0.3973099887371063 2.10588002204895 2043.0946 
162.4588   468.6839   53.05185   21.33259010314941 0.4000700116157532 2.221379995346069 2050.89038
162.6112   470.75433  54.68765   22.03259086608887 0.3960500061511993 2.190069913864136 2055.09546
162.7636   471.3952   56.4404    21.58579063415527 0.3900499939918518 2.201070070266724 2050.78979
162.916    472.77139  55.20956   22.90382957458496 0.4144999980926514 2.075340032577515 2047.71545
163.0684   472.15558  56.14455   20.28311920166016 0.4073500037193298 2.152369976043701 2052.78369
163.2208   472.42133  56.9626    22.06257057189941 0.3932999968528748 2.142499923706055 2055.4397 
163.3732   473.11343  57.37538   18.92067909240723 0.3967399895191193 2.185580015182495 2054.76611
163.5256   472.60873  56.20692   16.26721000671387 0.3840500116348267 2.230170011520386 2050.9646 
163.678    473.13693  57.95969   15.05624008178711 0.4435999989509583 2.224560022354126 2053.40137
163.8304   474.20502  58.54413   14.81949996948242 0.4500600099563599 2.285449981689453 2056.22314
163.9828   475.42026  59.12829   19.10947036743164 0.3707599937915802 2.18080997467041 2054.60913
164.1352   477.0683   53.28566   23.42678070068359 0.3675999939441681 2.162960052490234 2046.98157
164.2876   477.63333  53.72537   25.32965087890625 0.3770900070667267 2.138309955596924 2041.6532 
164.44     478.88895  55.12769   23.22903060913086 0.3509199917316437 2.189019918441772 2042.10596
164.5924   479.99258  55.06538   23.93998908996582 0.3604300022125244 2.261169910430908 2045.81909
164.7448   480.61533  52.28846   24.76870918273926 0.3451499938964844 2.155250072479248 2047.04712
164.8972   482.13144  52.17149   23.01366996765137 0.3609200119972229 2.14736008644104 2049.4646 
165.0496   483.633    54.3371    21.35959053039551 0.3816800117492676 2.184060096740723 2053.20605
165.202    484.14355  55.50564   18.91148948669434 0.4100799858570099 2.197760105133057 2056.18579
165.3544   485.12543  53.05175   16.72649955749512 0.4156599938869476 2.244640111923218 2056.25269
