~Version
 VERS              .         2.0                           : CWLS LOG ASCII STANDARD - VERSION 2.0
 WRAP              .         NO                            : ONE LINE PER DEPTH STEP
 DLM               .         SPACE                         : DELIMITING CHARACTER(SPACE TAB OR COMMA)
~Well Information
#_______________________________________________________________________________
#
#PARAMETER_NAME    .UNIT     VALUE                         : DESCRIPTION
#_______________________________________________________________________________
STRT               .M        -8.0768                       : First reference value
STOP               .M        356.464                       : Last reference value
STEP               .M        0.1524                        : Step increment
NULL               .         -9999                         : Missing value
COMP               .                                       : Company
WELL               .         C                             : Well name
FLD                .                                       : Field
LOC                .                                       : Location
CNTY               .                                       : County
STAT               .                                       : State
CTRY               .                                       : Country
SRVC               .                                       : Service Company
DATE               .                                       : Date
API                .                                       : API number
~Parameter Information Block
#_______________________________________________________________________________
#
#PARAMETER_NAME    .UNIT     VALUE                         : DESCRIPTION
#_______________________________________________________________________________
SET                .         Logs                          : 
TLFamily_DEPT      .         Measured Depth                : 
TLFamily_DT        .         Compressional Slowness        : 
TLFamily_GR        .         Gamma Ray                     : 
TLFamily_ILD       .         Resistivity - Deep            : 
TLFamily_NPOR_LIM  .         Thermal Neutron Porosity Limestone: 
TLFamily_PEF       .         Photoelectric Factor          : 
TLFamily_RHO       .         Bulk Density                  : 
~Curve Information
#_______________________________________________________________________________
#
#LOGNAME           .UNIT     LOG_ID                        : DESCRIPTION
#_______________________________________________________________________________
DEPT               .M                                      : 1 Depth Index - Measured Depth 
DT                 .US/M                                   : 3 DELTA-T COMPRESSIONAL 
GR                 .GAPI                                   : 51 GAMMA RAY (F14.5) **MERGED** 
ILD                .OHMM                                   : 28 ARRAY INDUCTION ONE FOOT RESISTIVITY A90 (F14.5) **MERGED** 
NPOR_LIM           .V/V                                    : 80 ENHANCED THERMAL NEUTRON POROSITY (MATRIX LIMESTONE) (F14.5) **MERGED** 
PEF                .B/E                                    : 85 HIGH RESOLUTION FORMATION PHOTOELECTRIC FACTOR (F14.5) **MERGED** 
RHO                .K/M3                                   : 87 STANDARD RESOLUTION FORMATION DENSITY (F14.5) **MERGED** 
~Ascii
# ...
165.5068   485.91489  52.75577   20.11684989929199 0.3970800042152405 2.216370105743408 2057.72021
165.6592   486.41403  53.22322   21.50917053222656 0.3536399900913239 2.15762996673584 2060.71997
165.8116   485.03046  50.5355    21.83719062805176 0.3533200025558472 2.160989999771118 2064.32715
165.964    483.03464  52.35072   23.88578033447266 0.3478299975395203 2.161489963531494 2067.44458
166.1164   480.92661  52.11711   24.38957023620605 0.3400200009346008 2.283339977264404 2069.52539
166.2688   481.75488  57.14174   21.56623077392578 0.3341200053691864 2.202440023422241 2069.58203
166.4212   482.15747  54.33716   21.38245010375977 0.3654600083827972 2.236890077590942 2067.40283
166.5736   484.19757  58.31014   18.72208976745605 0.396120011806488 2.284120082855225 2068.63892
166.726    483.94543  53.05187   18.70314025878906 0.3403599858283997 2.253420114517212 2068.96802
166.8784   478.16205  52.67036   19.22587966918945 0.3425300121307373 2.300620079040527 2070.13525
167.0308   470.85742  48.93101   19.23230934143066 0.351720005273819 2.150820016860962 2073.18921
167.1832   466.94727  53.02092   17.12140083312988 0.3797099888324738 2.299420118331909 2090.98242
167.3356   465.10522  54.22026   19.79346084594727 0.386139988899231 2.308279991149902 2111.0271 
167.488    464.60709  51.76637   22.57257080078125 0.3697400093078613 3.156949996948242 2123.78979
167.6404   467.62225  49.66288   22.29649925231934 0.3952800035476685 2.483299970626831 2108.10986
167.7928   474.29224  48.37769   23.60157012939453 0.3784799873828888 2.206969976425171 2083.99927
167.9452   479.82855  50.59777   23.63236045837402 0.3635300099849701 2.235330104827881 2060.37988
168.0976   480.56958  53.19983   22.62319946289063 0.367029994726181 2.217200040817261 2051.95142
168.25     480.97617  52.84924   24.90961074829102 0.350270003080368 2.114779949188232 2052.37524
168.4024   480.14685  52.26495   25.23299980163574 0.3571099936962128 2.1975998878479 2058.66138
168.5548   477.44876  51.18211   22.86630058288574 0.3574199974536896 2.290879964828491 2066.27075
168.7072   477.0058   52.00007   23.72340965270996 0.3637199997901917 2.245779991149902 2069.31885
168.8596   474.23602  53.51939   24.72900009155273 0.3617500066757202 2.147589921951294 2066.56104
169.012    472.21704  52.81825   23.33312034606934 0.3587400019168854 2.129630088806152 2063.30151
169.1644   473.09998  52.18732   23.2509708404541 0.3686499893665314 2.161010026931763 2059.87036
169.3168   473.47626  50.78489   23.18578910827637 0.3592300117015839 2.198640108108521 2061.13477
169.4692   474.75665  51.25211   23.1373291015625 0.3688499927520752 2.181839942932129 2060.9436 
169.6216   476.29987  52.81793   25.24410057067871 0.3905099928379059 2.33801007270813 2062.76855
169.774    476.85666  52.93476   27.66037940979004 0.3730500042438507 2.162410020828247 2058.00513
169.9264   477.09515  54.33717   18.26675033569336 0.3792800009250641 2.19707989692688 2056.59326
170.0788   474.99417  54.22017   28.57062911987305 0.3803299963474274 2.160759925842285 2050.61914
170.2312   472.05292  55.97311   22.03074073791504 0.3642700016498566 2.222480058670044 2042.37292
170.3836   469.9812   55.13958   23.60874938964844 0.3785899877548218 2.291470050811768 2030.47083
170.536    469.79117  58.52844   20.97311019897461 0.414220005273819 2.284849882125854 2024.91138
170.6884   470.03342  60.74852   21.05915069580078 0.3778299987316132 2.314589977264404 2028.69299
170.8408   472.02109  59.82939   23.31295013427734 0.3545500040054321 2.287179946899414 2030.84229
170.9932   473.72864  57.60914   23.78000068664551 0.3493300080299377 2.168869972229004 2040.42505
171.1456   476.44116  55.85646   23.85758972167969 0.3607699871063232 2.203929901123047 2047.85327
171.298    476.90796  56.90793   24.54894065856934 0.3545199930667877 2.255889892578125 2059.72949
171.4504   475.99744  58.52842   24.74638938903809 0.3604300022125244 2.328939914703369 2061.63989
171.6028   473.96707  55.95767   24.83886909484863 0.3617100119590759 2.273339986801147 2059.99121
171.7552   471.54938  58.99608   25.75881004333496 0.3609000146389008 2.372750043869019 2053.65576
171.9076   471.42923  60.53067   26.4601001739502 0.3787199854850769 2.259510040283203 2047.57214
172.06     471.81552  63.68573   26.36466979980469 0.3860599994659424 2.302350044250488 2042.0675 
172.2124   473.33887  65.32147999999999 25.23026084899902 0.3619300127029419 2.373029947280884 2035.72131
172.3648   475.6983   62.63377   23.88655090332031 0.403659999370575 2.352299928665161 2020.07385
172.5172   475.61795  64.35563999999999 23.39106941223145 0.4102500081062317 2.281519889831543 2006.5293 
172.6696   475.15393  62.71975   19.33238983154297 0.389959990978241 2.387599945068359 1997.50928
172.822    474.24789  61.20069   15.87220001220703 0.4312500059604645 2.614459991455078 2004.32776
172.9744   471.86441  57.14168   18.12686920166016 0.4614599943161011 2.449490070343018 2015.28076
173.1268   467.63943  51.88318   19.37833976745605 0.4062300026416779 2.336770057678223 2028.26758
173.2792   464.63654  54.33718   19.91510963439941 0.398030012845993 2.349950075149536 2035.18982
173.4316   462.7215   57.27391   21.15250968933105 0.3777700066566467 2.323709964752197 2040.47205
173.584    460.73007  61.36388   18.50369071960449 0.3921599984169006 2.52209997177124 2047.41028
173.7364   459.884    59.14363   17.38376045227051 0.3872700035572052 2.687170028686523 2053.47681
173.8888   458.61911  59.71252   16.04647064208984 0.3813999891281128 2.702039957046509 2052.93994
174.0412   459.52441  59.01132   18.64748954772949 0.4408600032329559 2.526550054550171 2045.09668
174.1936   460.79996  60.88082   19.55347061157227 0.4269799888134003 2.331949949264526 2035.79834
174.346    462.85846  57.02472   20.25783920288086 0.4111700057983398 2.276070117950439 2030.91602
174.4984   465.44763  57.84291   21.28400039672852 0.3883500099182129 2.250940084457397 2030.91907
174.6508   466.14844  56.20701   21.43578910827637 0.3824299871921539 2.375190019607544 2036.99731
174.8032   467.52924  60.11757   22.36370086669922 0.3980099856853485 2.361299991607666 2041.54773
174.9556   469.55557  60.11762   23.48451042175293 0.4065400063991547 2.534450054168701 2044.98767
175.108    469.62363  62.92229   24.99229049682617 0.398030012845993 2.415270090103149 2043.70569
175.2604   470.23535  63.45205   25.83707046508789 0.3715099990367889 2.203320026397705 2042.39063
175.4128   471.72388  60.17997   26.66902923583984 0.334520012140274 2.246799945831299 2038.25806
175.5652   472.22803  55.85625   26.60956954956055 0.4025099873542786 2.327569961547852 2037.43958
175.7176   471.29282  52.70134   26.0998706817627 0.3764800131320953 2.234669923782349 2040.29749
175.87     469.76523  54.68792   25.33698081970215 0.3601999878883362 2.280719995498657 2046.68909
176.0224   468.36197  57.72613   25.26333999633789 0.3831599950790405 2.287080049514771 2048.86792
176.1748   467.97208  57.23523   25.82468032836914 0.3642100095748901 2.273829936981201 2047.46106
176.3272   469.50052  56.65097   24.76325035095215 0.3509100079536438 2.372430086135864 2045.7594 
176.4796   471.01657  56.53399   24.13348960876465 0.3541299998760223 2.363019943237305 2051.23682
176.632    473.91339  57.37533   24.37955093383789 0.3696900010108948 2.298290014266968 2058.24023
176.7844   478.22845  58.42688   24.5715503692627 0.3764500021934509 2.381720066070557 2058.46655
176.9368   479.94492  60.53025   24.76514053344727 0.4019500017166138 2.582740068435669 2050.30835
177.0892   480.81696  59.82917   24.52747917175293 0.4056699872016907 2.613359928131104 2039.74988
177.2416   480.0278   56.32376   25.09343910217285 0.4003399908542633 2.585390090942383 2035.11743
177.394    479.27026  55.27232   25.59970092773438 0.4057799875736237 2.524179935455322 2032.86218
177.5464   473.94821  55.15562   25.98315048217773 0.3907099962234497 2.592849969863892 2034.35474
177.6988   472.55365  58.85587   25.37018966674805 0.4049699902534485 2.649250030517578 2031.73877
