~Version
 VERS              .         2.0                           : CWLS LOG ASCII STANDARD - VERSION 2.0
 WRAP              .         NO                            : ONE LINE PER DEPTH STEP
 DLM               .         SPACE                         : DELIMITING CHARACTER(SPACE TAB OR COMMA)
~Well Information
#_______________________________________________________________________________
#
#PARAMETER_NAME    .UNIT     VALUE                         : DESCRIPTION
#_______________________________________________________________________________
STRT               .M        -8.0768                       : First reference value
STOP               .M        356.464                       : Last reference value
STEP               .M        0.1524                        : Step increment
NULL               .         -9999                         : Missing value
COMP               .                                       : Company
WELL               .         C                             : Well name
FLD                .                                       : Field
LOC                .                                       : Location
CNTY               .                                       : County
STAT               .                                       : State
CTRY               .                                       : Country
SRVC               .                                       : Service Company
DATE               .                                       : Date
API                .                                       : API number
~Parameter Information Block
#_______________________________________________________________________________
#
#PARAMETER_NAME    .UNIT     VALUE                         : DESCRIPTION
#_______________________________________________________________________________
SET                .         Logs                          : 
TLFamily_DEPT      .         Measured Depth                : 
TLFamily_DT        .         Compressional Slowness        : 
TLFamily_GR        .         Gamma Ray                     : 
TLFamily_ILD       .         Resistivity - Deep            : 
TLFamily_NPOR_LIM  .         Thermal Neutron Porosity Limestone: 
TLFamily_PEF       .         Photoelectric Factor          : 
TLFamily_RHO       .         Bulk Density                  : 
~Curve Information
#_______________________________________________________________________________
#
#LOGNAME           .UNIT     LOG_ID                        : DESCRIPTION
#_______________________________________________________________________________
DEPT               .M                                      : 1 Depth Index - Measured Depth 
DT                 .US/M                                   : 3 DELTA-T COMPRESSIONAL 
GR                 .GAPI                                   : 51 GAMMA RAY (F14.5) **MERGED** 
ILD                .OHMM                                   : 28 ARRAY INDUCTION ONE FOOT RESISTIVITY A90 (F14.5) **MERGED** 
NPOR_LIM           .V/V                                    : 80 ENHANCED THERMAL NEUTRON POROSITY (MATRIX LIMESTONE) (F14.5) **MERGED** 
PEF                .B/E                                    : 85 HIGH RESOLUTION FORMATION PHOTOELECTRIC FACTOR (F14.5) **MERGED** 
RHO                .K/M3                                   : 87 STANDARD RESOLUTION FORMATION DENSITY (F14.5) **MERGED** 
~Ascii
# ...
282.8548   413.99155  69.95697   11.04467   0.361409991979599 1.85328996181488 2183.93433
283.0072   414.40695  68.55463   12.5205    0.3793199956417084 1.944689989089966 2157.78931
283.1596   412.73334  67.89239000000001 18.14732   0.3685699999332428 1.74793004989624 2155.47729
283.312    411.15878  66.86411   15.2751    0.3021099865436554 1.924579977989197 2183.22095
283.4644   408.79453  70.13598   10.7928    0.2885099947452545 1.987190008163452 2214.48389
283.6168   405.84198  74.22604   9.96969    0.3023999929428101 1.961940050125122 2225.83643
283.7692   404.02625  79.92851   10.42648   0.3316699862480164 2.048820018768311 2221.96436
283.9216   404.78574  83.31723   10.60046   0.3068000078201294 2.008090019226074 2221.59497
284.074    405.47217  82.25774   10.61187   0.2776400148868561 2.116660118103027 2232.17114
284.2264   408.10687  77.11618   10.65084   0.2964699864387512 2.048439979553223 2234.91211
284.3788   411.86124  75.01287000000001 11.14483   0.3105399906635284 2.032999992370605 2232.94507
284.5312   413.77747  78.52612000000001 11.29866   0.2971599996089935 2.068419933319092 2216.52661
284.6836   415.46689  80.83193   11.83261   0.3301399946212769 2.050570011138916 2190.23389
284.836    415.38287  73.82080000000001 12.12876   0.349590003490448 1.88207995891571 2149.57422
284.9884   415.23376  67.9782    13.32521   0.2937999963760376 1.612840056419373 2116.94507
285.1408   415.02844  64.97118   15.02482   0.3253600001335144 1.79355001449585 2104.99048
285.2932   413.15836  62.98447   18.50936   0.3518500030040741 1.80623996257782 2098.6792 
285.4456   411.21497  57.08728   27.5754    0.3683399856090546 1.673740029335022 2094.56348
285.598    410.39572  52.52985   42.61662   0.3227899968624115 1.729200005531311 2089.21558
285.7504   411.35052  54.28263   51.49399   0.3319000005722046 1.757529973983765 2096.02344
285.9028   412.07758  57.02475   50.55327   0.3489499986171722 1.743860006332397 2107.54663
286.0552   412.34137  55.15517   65.19955   0.3433000147342682 1.711640000343323 2110.21802
286.2076   412.94931  53.13759   36.63907   0.3402099907398224 1.900910019874573 2102.33008
286.36     414.5448   45.4252    52.88177   0.3703700006008148 1.684739947319031 2092.30029
286.5124   414.67511  41.10163   88.00382999999999 0.3347899913787842 1.583750009536743 2087.2605 
286.6648   414.82843  38.0945    57.69853   0.3270699977874756 1.647150039672852 2087.5166 
286.8172   415.84183  41.07022   41.13722   0.3043699860572815 1.7639000415802 2085.72705
286.9696   415.68204  43.87469   33.93618   0.324400007724762 1.746240019798279 2096.23804
287.122    416.66467  48.31537   26.32597   0.3387799859046936 1.659170031547546 2121.04517
287.2744   411.12759  50.36424   15.29749   0.3206200003623962 1.81974995136261 2142.61377
287.4268   408.35919  55.62281   15.74381   0.3692300021648407 1.931220054626465 2135.7998 
287.5792   405.68607  57.95985   28.82863   0.3671000003814697 1.70334005355835 2108.66528
287.7316   403.66888  53.5428    54.60667   0.3650299906730652 1.730239987373352 2080.1958 
287.884    402.47852  50.97204   73.54101   0.3561199903488159 1.638800024986267 2070.66553
288.0364   404.06412  46.41451   103.382    0.3411400020122528 1.648339986801147 2071.2124 
288.1888   407.09619  45.80699   72.12692   0.3233500123023987 1.656919956207275 2075.74927
288.3412   410.20746  43.3529    52.48542   0.3210699856281281 1.649230003356934 2079.92285
288.4936   414.64429  41.95074   50.4067    0.3430100083351135 1.676040053367615 2081.91821
288.646    418.02771  40.19781   76.74015   0.3375599980354309 1.624650001525879 2086.15259
288.7984   420.62775  38.0945    61.74073   0.3275499939918518 1.621899962425232 2094.12549
288.9508   421.16284  39.7304    42.26601   0.3223299980163574 1.695850014686584 2108.96216
289.1032   419.83408  45.33944   29.27736   0.3490400016307831 1.682510018348694 2122.87939
289.2556   418.92529  49.07866   16.60937   0.3586699962615967 1.891600012779236 2122.69287
289.408    417.30927  47.67649   21.87255   0.3332599997520447 1.652109980583191 2109.55151
289.5604   417.66348  46.85848   25.50184   0.3330000042915344 1.663740038871765 2091.052  
289.7128   418.71542  44.59955   27.23469   0.329690009355545 1.673380017280579 2075.81299
289.8652   420.48666  45.06693   43.10646   0.3074199855327606 1.672469973564148 2063.18286
290.0176   423.78049  39.62279   35.06545   0.337799996137619 1.704879999160767 2051.82227
290.17     426.50555  36.15598   27.80237   0.3582099974155426 1.640349984169006 2049.73706
290.3224   426.97812  32.29986   23.90916   0.335099995136261 1.642959952354431 2054.2146 
290.4748   426.02859  35.17324   21.52539   0.3423100113868713 1.672049999237061 2061.52344
290.6272   424.35345  37.86089   23.76059   0.3740600049495697 1.607750058174133 2065.92041
290.7796   420.42453  39.96415   32.76526   0.3824000060558319 1.631680011749268 2067.42236
290.932    418.63446  37.86084   38.96944   0.3501400053501129 1.66769003868103 2067.271  
291.0844   416.15799  37.39333   43.6767    0.3258000016212463 1.614750027656555 2067.24658
291.2368   410.52005  33.7708    47.96386   0.3289600014686584 1.614719986915588 2069.71777
291.3892   424.66785  35.64042   47.19602   0.328249990940094 1.601490020751953 2070.16455
291.5416   428.44699  35.64043   50.58743   0.3525600135326385 1.674450039863586 2063.32813
291.694    430.30264  38.67873   49.07368   0.3612500131130219 1.692669987678528 2050.89673
291.8464   435.15234  37.80611   49.12008   0.3476099967956543 1.621950030326843 2043.95605
291.9988   441.11615  40.26008   54.77338   0.3414700031280518 1.621659994125366 2045.50928
292.1512   441.24731  43.18149   41.36221   0.3510900139808655 1.697110056877136 2050.47021
292.3036   441.15402  45.54978   41.81993   0.3853200078010559 1.803150057792664 2051.93066
292.456    437.73798  45.78357   55.89627   0.3679499924182892 1.631780028343201 2049.95972
292.6084   434.80704  44.96553   47.0913    0.3694399893283844 1.654520034790039 2046.86694
292.7608   431.1427   47.58323   45.9264    0.3697200119495392 1.649960041046143 2047.87988
292.9132   432.8187   46.39128   45.89436   0.3738000094890594 1.646759986877441 2050.74731
293.0656   432.10895  47.91054   48.80708   0.3593499958515167 1.654899954795837 2054.91309
293.218    431.2561   47.30274   50.69711   0.3490799963474274 1.595849990844727 2054.99072
293.3704   431.91937  52.4132    57.96431   0.3274300098419189 1.69228994846344 2050.5127 
293.5228   431.3638   53.46476   55.87172   0.3615100085735321 1.691200017929077 2046.27466
293.6752   431.32129  57.6716    44.91224   0.3159599900245667 1.611860036849976 2058.02856
293.8276   430.18652  59.66585   28.88845   0.3177500069141388 1.687250018119812 2088.53906
293.98     429.36859  66.09296000000001 16.26938   0.3364000022411346 1.789479970932007 2132.02319
294.1324   429.2999   67.84568   11.32015   0.3266600072383881 1.899379968643188 2162.23901
294.2848   429.67477  69.46606   9.787940000000001 0.3254500031471252 1.875489950180054 2177.64282
294.4372   433.26764  64.67476000000001 10.73747   0.3417899906635284 1.812409996986389 2165.73901
294.5896   431.41309  59.44752   12.17852   0.3548499941825867 1.830160021781921 2134.0752 
294.742    431.43411  48.29172   16.41585   0.3535900115966797 1.631479978561401 2092.74634
294.8944   430.71552  39.06039   23.40646   0.3406200110912323 1.622239947319031 2068.61865
295.0468   428.37842  30.95855   33.92896   0.3083699941635132 1.665560007095337 2067.96045
295.1992   425.37183  29.5565    40.39673   0.2989200055599213 1.624860048294067 2078.37671
295.3516   421.80487  30.60822   46.49491   0.2959400117397308 1.63332998752594 2089.48828
295.504    419.00784  31.35604   53.87096   0.2865599989891052 1.604210019111633 2095.29834
295.6564   415.93887  30.77169   71.693     0.2984699904918671 1.536399960517883 2098.98633
295.8088   415.47458  31.82337   103.04559  0.3116999864578247 1.615540027618408 2084.8103 
295.9612   414.57648  32.82047   80.38751999999999 0.3138900101184845 1.652379989624023 2069.13379
