~Version
 VERS              .         2.0                           : CWLS LOG ASCII STANDARD - VERSION 2.0
 WRAP              .         NO                            : ONE LINE PER DEPTH STEP
 DLM               .         SPACE                         : DELIMITING CHARACTER(SPACE TAB OR COMMA)
~Well Information
#_______________________________________________________________________________
#
#PARAMETER_NAME    .UNIT     VALUE                         : DESCRIPTION
#_______________________________________________________________________________
STRT               .M        -8.0768                       : First reference value
STOP               .M        356.464                       : Last reference value
STEP               .M        0.1524                        : Step increment
NULL               .         -9999                         : Missing value
COMP               .                                       : Company
WELL               .         C                             : Well name
FLD                .                                       : Field
LOC                .                                       : Location
CNTY               .                                       : County
STAT               .                                       : State
CTRY               .                                       : Country
SRVC               .                                       : Service Company
DATE               .                                       : Date
API                .                                       : API number
~Parameter Information Block
#_______________________________________________________________________________
#
#PARAMETER_NAME    .UNIT     VALUE                         : DESCRIPTION
#_______________________________________________________________________________
SET                .         Logs                          : 
TLFamily_DEPT      .         Measured Depth                : 
TLFamily_DT        .         Compressional Slowness        : 
TLFamily_GR        .         Gamma Ray                     : 
TLFamily_ILD       .         Resistivity - Deep            : 
TLFamily_NPOR_LIM  .         Thermal Neutron Porosity Limestone: 
TLFamily_PEF       .         Photoelectric Factor          : 
TLFamily_RHO       .         Bulk Density                  : 
~Curve Information
#_______________________________________________________________________________
#
#LOGNAME           .UNIT     LOG_ID                        : DESCRIPTION
#_______________________________________________________________________________
DEPT               .M                                      : 1 Depth Index - Measured Depth 
DT                 .US/M                                   : 3 DELTA-T COMPRESSIONAL 
GR                 .GAPI                                   : 51 GAMMA RAY (F14.5) **MERGED** 
ILD                .OHMM                                   : 28 ARRAY INDUCTION ONE FOOT RESISTIVITY A90 (F14.5) **MERGED** 
NPOR_LIM           .V/V                                    : 80 ENHANCED THERMAL NEUTRON POROSITY (MATRIX LIMESTONE) (F14.5) **MERGED** 
PEF                .B/E                                    : 85 HIGH RESOLUTION FORMATION PHOTOELECTRIC FACTOR (F14.5) **MERGED** 
RHO                .K/M3                                   : 87 STANDARD RESOLUTION FORMATION DENSITY (F14.5) **MERGED** 
~Ascii
# ...
269.7484   488.78671  71.04733   9.238670000000001 0.3036200106143951 2.335989952087402 2134.88867
269.9008   500.11276  73.52495999999999 8.813800000000001 0.301690012216568 2.439029932022095 2128.56616
270.0532   500.50742  74.45971   8.82673    0.2950800061225891 2.37664008140564 2138.68701
270.2056   494.93921  76.79696   8.759829999999999 0.2706800103187561 2.28518009185791 2155.48706
270.358    472.05872  74.08553000000001 7.64763    0.2981500029563904 2.225359916687012 2168.48315
270.5104   465.80963  76.18908999999999 7.29228    0.3251999914646149 2.284159898757935 2174.41113
270.6628   453.21585  75.37093   6.48414    0.3514400124549866 2.386879920959473 2176.91138
270.8152   443.75043  80.62954000000001 5.93861    0.3605400025844574 2.428169965744019 2187.30835
270.9676   436.35263  80.74638   5.94534    0.3383400142192841 2.513979911804199 2200.74243
271.12     440.82333  81.79805   5.9325     0.3446699976921082 2.792850017547607 2206.55615
271.2724   446.88486  79.46102999999999 6.03709    0.3562000095844269 2.439670085906982 2192.46143
271.4248   456.48312  82.33555   5.91624    0.3480300009250641 2.365119934082031 2171.11108
271.5772   462.31488  86.77614   4.33174    0.3913399875164032 2.513689994812012 2168.64282
271.7296   467.83298  92.0347    3.57609    0.4695299863815308 2.472660064697266 2172.91455
271.882    463.9671   91.02977   3.61717    0.4169999957084656 2.472729921340942 2170.0481 
272.0344   459.01016  86.82307   4.7365     0.3870800137519836 2.40966010093689 2141.12354
272.1868   456.2468   80.23211999999999 5.90362    0.4072700142860413 2.290169954299927 2110.34204
272.3392   460.25912  76.49290999999999 7.85861    0.3708899915218353 2.210210084915161 2098.20215
272.4916   473.22083  74.97378999999999 6.54537    0.3603399991989136 2.227240085601807 2106.50903
272.644    493.6329   72.68356   4.03078    0.408840000629425 2.336699962615967 2125.66333
272.7964   506.59229  72.33279   3.92201    0.4237299859523773 2.194679975509644 2136.15552
272.9488   505.52856  76.74996   3.58182    0.4214400053024292 2.173409938812256 2135.87085
273.1012   505.06201  80.25564   2.97461    0.4958600103855133 2.295300006866455 2121.62085
273.2536   498.64447  79.78822   3.39305    0.4499599933624268 2.285470008850098 2110.13525
273.406    497.65253  77.94192   6.19605    0.3440299928188324 1.848160028457642 2110.41309
273.5584   499.17267  77.47445999999999 6.89979    0.3256700038909912 1.945610046386719 2125.7439 
273.7108   503.82388  82.91206   6.53165    0.3444800078868866 1.995190024375916 2142.37134
273.8632   488.5463   79.63999   6.35515    0.3889900147914886 1.993039965629578 2142.07788
274.0156   491.44281  73.79746   6.14796    0.401199996471405 2.003649950027466 2119.60376
274.168    481.91672  58.19371   6.40114    0.3211599886417389 1.74917995929718 2091.47656
274.3204   487.21851  48.26103   5.69429    0.3020699918270111 1.750229954719543 2074.6875 
274.4728   483.91046  43.46991   5.08022    0.3282999992370605 1.804780006408691 2079.49585
274.6252   474.5936   51.09658   5.09485    0.3258900046348572 1.77469003200531 2103.24463
274.7776   456.62177  67.22224   5.97584    0.3117600083351135 1.782570004463196 2145.82446
274.93     451.33014  77.97264   7.55442    0.3064599931240082 2.079489946365356 2189.23145
275.0824   441.2952   83.31665   8.634679999999999 0.3248400092124939 2.128599882125854 2212.57666
275.2348   433.22028  80.86304   9.63626    0.3618699908256531 2.050940036773682 2214.62329
275.3872   438.4758   82.26551000000001 10.75947   0.3446100056171417 1.898339986801147 2213.7439 
275.5396   441.59821  81.65818   10.49768   0.3010900020599365 1.855589985847473 2213.53149
275.692    442.78137  78.38605   9.829980000000001 0.3106699883937836 1.905750036239624 2207.44824
275.8444   445.22086  76.28256   9.21041    0.3493900001049042 1.886090040206909 2193.83545
275.9968   445.64243  80.51253   9.03546    0.3172000050544739 1.950819969177246 2190.42749
276.1492   448.54678  82.84981000000001 9.207039999999999 0.2999500036239624 1.937569975852966 2203.72656
276.3016   447.00146  91.14627   9.12903    0.3071199953556061 2.098419904708862 2228.33691
276.454    450.89795  91.26336000000001 9.16545    0.3472400009632111 2.014830112457275 2246.33984
276.6064   439.93256  96.44398   9.123889999999999 0.3203400075435638 1.962890028953552 2251.53369
276.7588   439.92508  93.87332000000001 8.72955    0.335640013217926 2.011300086975098 2239.14844
276.9112   440.90506  86.62812   8.23244    0.3676300048828125 2.01311993598938 2216.37549
277.0636   444.74792  76.40712000000001 8.36741    0.3234800100326538 1.800400018692017 2184.97827
277.216    448.17374  65.30598000000001 7.51464    0.2890700101852417 1.890630006790161 2164.48608
277.3684   450.14999  63.55302   7.11214    0.2974599897861481 1.793959975242615 2149.88965
277.5208   452.13675  61.69886   6.89986    0.3117899894714355 1.844980001449585 2151.22632
277.6732   451.64362  66.02258   7.38875    0.3486100137233734 1.815520048141479 2159.05249
277.8256   446.2532   66.60706   8.02037    0.3225600123405457 1.824290037155151 2163.7522 
277.978    444.27054  66.21751   7.88814    0.3047299981117249 1.937340021133423 2154.89795
278.1304   444.7522   64.11407   7.86433    0.3222000002861023 1.903720021247864 2138.51758
278.2828   441.56165  63.29582   8.24113    0.2940100133419037 1.858299970626831 2144.00342
278.4352   439.83008  71.63157   8.60661    0.295740008354187 1.95032000541687 2172.396  
278.5876   440.20847  74.43624   8.06578    0.3037999868392944 2.043760061264038 2201.34717
278.74     433.24097  74.66998   7.5377     0.3140699863433838 1.859910011291504 2195.19019
278.8924   431.57126  69.32588   7.20293    0.3120400011539459 1.858909964561462 2168.65991
279.0448   435.39563  68.50785   7.21826    0.3004299998283386 1.775969982147217 2145.80176
279.1972   435.59241  68.62477   6.95935    0.312279999256134 1.922320008277893 2140.13672
279.3496   433.57745  63.21831   6.52002    0.3342500030994415 1.906100034713745 2128.53589
279.502    432.9556   60.06325   6.42573    0.3002699911594391 1.640599966049194 2120.6709 
279.6544   432.2348   61.11488   6.3802     0.2944500148296356 1.739109992980957 2123.16455
279.8068   433.44193  68.76478   6.99952    0.2980599999427795 1.793409943580627 2141.74268
279.9592   433.5752   72.62103   7.53541    0.3117800056934357 1.777029991149902 2156.71313
280.1116   433.39224  69.4658    8.17487    0.304069995880127 1.965489983558655 2162.59204
280.264    433.09409  68.21961   8.54471    0.3288300037384033 1.840759992599487 2159.49585
280.4164   437.31863  69.50493   7.66072    0.3428899943828583 1.899580001831055 2149.31226
280.5688   430.46893  70.43987   6.74935    0.347350001335144 1.79709005355835 2140.59058
280.7212   428.52185  65.78899   6.10866    0.3408200144767761 1.806139945983887 2127.44873
280.8736   424.29306  55.85621   5.60728    0.3393799960613251 1.758090019226074 2112.38257
281.026    426.52988  52.70915   5.11919    0.3373399972915649 1.748110055923462 2097.71265
281.1784   421.76498  53.29329   4.99528    0.309689998626709 1.722180008888245 2098.34351
281.3308   422.65445  55.74744   5.36566    0.3037799894809723 1.758380055427551 2107.08276
281.4832   426.38095  56.32375   5.58552    0.3491800129413605 1.709380030632019 2111.33423
281.6356   423.49622  54.57102   5.85561    0.3157500028610229 1.646049976348877 2109.61182
281.788    418.54892  59.24511   6.38146    0.2874400019645691 1.691840052604675 2126.79126
281.9404   415.46127  70.75923   7.51863    0.273279994726181 1.884610056877136 2169.32324
282.0928   411.41415  81.27592   8.5726     0.2742500007152557 2.168659925460815 2212.23047
282.2452   407.95837  82.91202   9.295339999999999 0.3093200027942657 2.098920106887817 2233.07275
282.3976   407.56238  78.17545   10.01097   0.321399986743927 1.962739944458008 2229.14209
282.55     409.02374  71.98248   10.71383   0.3276000022888184 1.883149981498718 2223.69482
282.7024   412.29391  70.42433   10.29168   0.3125900030136108 2.061049938201904 2208.82983
