~Version
 VERS              .         2.0                           : CWLS LOG ASCII STANDARD - VERSION 2.0
 WRAP              .         NO                            : ONE LINE PER DEPTH STEP
 DLM               .         SPACE                         : DELIMITING CHARACTER(SPACE TAB OR COMMA)
~Well Information
#_______________________________________________________________________________
#
#PARAMETER_NAME    .UNIT     VALUE                         : DESCRIPTION
#_______________________________________________________________________________
STRT               .M        -8.0768                       : First reference value
STOP               .M        356.464                       : Last reference value
STEP               .M        0.1524                        : Step increment
NULL               .         -9999                         : Missing value
COMP               .                                       : Company
WELL               .         C                             : Well name
FLD                .                                       : Field
LOC                .                                       : Location
CNTY               .                                       : County
STAT               .                                       : State
CTRY               .                                       : Country
SRVC               .                                       : Service Company
DATE               .                                       : Date
API                .                                       : API number
~Parameter Information Block
#_______________________________________________________________________________
#
#PARAMETER_NAME    .UNIT     VALUE                         : DESCRIPTION
#_______________________________________________________________________________
SET                .         Logs                          : 
TLFamily_DEPT      .         Measured Depth                : 
TLFamily_DT        .         Compressional Slowness        : 
TLFamily_GR        .         Gamma Ray                     : 
TLFamily_ILD       .         Resistivity - Deep            : 
TLFamily_NPOR_LIM  .         Thermal Neutron Porosity Limestone: 
TLFamily_PEF       .         Photoelectric Factor          : 
TLFamily_RHO       .         Bulk Density                  : 
~Curve Information
#_______________________________________________________________________________
#
#LOGNAME           .UNIT     LOG_ID                        : DESCRIPTION
#_______________________________________________________________________________
DEPT               .M                                      : 1 Depth Index - Measured Depth 
DT                 .US/M                                   : 3 DELTA-T COMPRESSIONAL 
GR                 .GAPI                                   : 51 GAMMA RAY (F14.5) **MERGED** 
ILD                .OHMM                                   : 28 ARRAY INDUCTION ONE FOOT RESISTIVITY A90 (F14.5) **MERGED** 
NPOR_LIM           .V/V                                    : 80 ENHANCED THERMAL NEUTRON POROSITY (MATRIX LIMESTONE) (F14.5) **MERGED** 
PEF                .B/E                                    : 85 HIGH RESOLUTION FORMATION PHOTOELECTRIC FACTOR (F14.5) **MERGED** 
RHO                .K/M3                                   : 87 STANDARD RESOLUTION FORMATION DENSITY (F14.5) **MERGED** 
~Ascii
# ...
80.0104    -9999      50.48112   3.107009887695313 0.3996700048446655 9.990079879760742 2841.80273
80.1628    -9999      46.27432   3.107000112533569 0.4010300040245056 9.977540016174316 2844.84351
80.3152    -9999      48.26062   3.107000112533569 0.3508599996566772 10         2846.22192
80.4676    -9999      51.88324   3.107000112533569 0.4119499921798706 10         2844.6875 
80.62      -9999      58.54391   3.107000112533569 0.451990008354187 9.930459976196289 2839.36841
80.7724    -9999      60.64749   3.106990098953247 0.4594100117683411 9.958250045776367 2839.10156
80.9248    -9999      61.34853   3.106990098953247 0.4699499905109406 9.967060089111328 2839.87134
81.0772    -9999      62.16645   3.106990098953247 0.4918099939823151 10         2840.98047
81.2296    -9999      63.79464   3.106980085372925 0.4755400121212006 9.975560188293457 2841.93896
81.38200000000001 -9999      65.78122999999999 3.106970071792603 0.4903799891471863 10         2843.74683
81.53440000000001 -9999      67.18374   3.10696005821228 0.410400003194809 9.998709678649902 2847.55493
81.68680000000001 -9999      68.12624   3.10696005821228 0.4396399855613708 9.934289932250977 2852.13721
81.83920000000001 -9999      69.06102   3.106950044631958 0.4293699860572815 10         2855.54321
81.99160000000001 -9999      70.34627   3.106940031051636 0.4965800046920776 10         2856.81323
82.14400000000001 -9999      69.64511   3.106940031051636 0.482340008020401 10         2855.80884
82.29640000000001 -9999      71.86563   3.106930017471313 0.4753699898719788 9.992500305175781 2853.07861
82.44880000000001 -9999      69.64541   3.106920003890991 0.462550014257431 9.961400032043457 2848.61743
82.60120000000001 -9999      71.51521   3.106909990310669 0.5278099775314331 9.98291015625 2844.65942
82.75360000000001 -9999      69.99578   3.106899976730347 0.5137400031089783 10         2843.19189
82.90600000000001 -9999      71.16443   3.106879949569702 0.4853299856185913 9.987070083618164 2843.39746
83.05840000000001 -9999      69.17802   3.106849908828735 0.4316500127315521 10         2842.0979 
83.21080000000001 -9999      69.17798999999999 3.106800079345703 0.4225899875164032 9.974260330200195 2827.46436
83.36320000000001 -9999      71.39802   3.10673999786377 0.4386799931526184 10         2826.50122
83.51560000000001 -9999      73.50158   3.106659889221191 0.4501000046730042 9.994950294494629 2819.45703
83.66800000000001 -9999      76.0723    3.106580018997192 0.4494099915027618 9.975130081176758 2838.91406
83.82040000000001 -9999      73.85207   3.106499910354614 0.4584600031375885 9.988499641418457 2844.30591
83.97280000000001 -9999      71.63142000000001 3.106470108032227 0.4753400087356567 9.982049942016602 2856.40015
84.12520000000001 -9999      70.93040000000001 3.10647988319397 0.4845199882984161 10         2854.80786
84.27760000000001 -9999      73.80500000000001 3.106519937515259 0.4922299981117249 10         2853.71411
84.43000000000001 -9999      75.92464   3.106610059738159 0.5223900079727173 9.957810401916504 2855.11865
84.58240000000001 -9999      73.70457   3.10669994354248 0.5385000109672546 10         2858.875  
84.73480000000001 -9999      74.56961   3.106770038604736 0.5249900221824646 9.973629951477051 2868.20142
84.88720000000001 -9999      72.68353   3.106820106506348 0.4643400013446808 9.983830451965332 2881.7229 
85.03959999999999 -9999      74.08583   3.106829881668091 0.4149999916553497 9.986249923706055 2894.69922
85.19199999999999 -9999      68.94392000000001 3.106800079345703 0.46875    10         2899.18848
85.34439999999999 -9999      66.4901    3.106729984283447 0.4398399889469147 9.960269927978516 2894.30884
85.49679999999999 -9999      65.4302    3.106630086898804 0.4129399955272675 10         2884.47437
85.64919999999999 -9999      67.88431   3.106509923934937 0.4634000062942505 9.957670211791992 2877.15063
85.80159999999999 -9999      70.44147   3.106379985809326 0.4507699906826019 9.997980117797852 2876.05786
85.95399999999999 -9999      69.63145   3.10627007484436 0.4110099971294403 10         2881.60791
86.10639999999999 -9999      71.73479   3.10617995262146 0.4867300093173981 9.997929573059082 2891.27612
86.25879999999999 -9999      69.41131   3.106090068817139 0.4651800096035004 10         2900.83911
86.41119999999999 -9999      69.76199   3.106009960174561 0.4197399914264679 10         2906.81885
86.56359999999999 -9999      68.2351    3.105920076370239 0.4989500045776367 9.960180282592773 2909.44922
86.71599999999999 -9999      70.80611   3.105849981307983 0.5131000280380249 9.962120056152344 2907.95044
86.86839999999999 533.95691  72.38023   3.105779886245728 0.4462200105190277 10         2933.35913
87.02079999999999 538.56873  68.26682   3.105730056762695 0.5055099725723267 10         3080.48242
87.17319999999999 517.73303  63.82623   3.105710029602051 0.4260100126266479 9.955389976501465 3132.54272
87.32559999999999 526.30957  63.18688   3.105720043182373 0.4200499951839447 10         3103.76001
87.47799999999999 536.25824  67.65877999999999 3.105859994888306 0.5154799818992615 8.82565975189209 2799.13892
87.63039999999999 545.96442  77.70797   3.10617995262146 0.5989500284194946 2.895819902420044 2469.40869
87.78279999999999 550.2576299999999 84.21277000000001 3.106839895248413 0.5083199739456177 2.650599956512451 2198.87183
87.93519999999999 546.9292   90.28910999999999 3.108000040054321 0.4320299923419952 2.499890089035034 2078.65308
88.08759999999999 536.32422  91.458     3.110529899597168 0.5880100131034851 2.386430025100708 2083.82861
88.23999999999999 536.36316  91.96446   3.115269899368286 0.5354700088500977 2.254849910736084 2090.39844
88.39239999999999 540.93719  95.00239000000001 3.125449895858765 0.5124599933624268 2.35194993019104 2098.47876
88.5448    524.82141  99.79347   3.142689943313599 0.5125899910926819 2.458879947662354 2106.88867
88.6972    510.54086  104.77174  3.165709972381592 0.5191100239753723 2.49357008934021 2121.39355
88.8496    504.5397   105.00571  3.186850070953369 0.4961200058460236 2.375509977340698 2132.54517
89.002     505.64838  102.78518  3.192929983139038 0.4648500084877014 2.528219938278198 2137.79028
89.1544    501.98691  99.32613000000001 3.176429986953735 0.4560199975967407 2.509759902954102 2127.45264
89.3068    508.7439   102.59787  3.144469976425171 0.4715200066566467 2.529969930648804 2126.02954
89.4592    513.91278  107.62271  3.128509998321533 0.456849992275238 2.505239963531494 2119.1731 
89.6116    517.8958699999999 109.84293  3.157730102539063 0.5054500102996826 2.405309915542603 2111.323  
89.764     529.91516  108.32401  3.267689943313599 0.5236999988555908 2.414220094680786 2102.82349
89.9164    529.66754  112.6475   3.542220115661621 0.5005599856376648 2.446369886398315 2099.91455
90.0688    525.2985200000001 114.98481  3.673629999160767 0.469539999961853 2.50652003288269 2097.04077
90.2212    543.29602  125.46261  3.517800092697144 0.5265300273895264 2.543600082397461 2091.66772
90.3736    543.1705899999999 120.78887  3.50957989692688 0.4830999970436096 2.627690076828003 2090.76929
90.526     545.0863000000001 123.2422   3.498589992523193 0.4906899929046631 2.623090028762817 2098.82861
90.6784    548.08276  115.80289  3.399209976196289 0.541920006275177 2.500799894332886 2100.92285
90.8308    541.93225  115.89609  3.253230094909668 0.6693099737167358 2.452630043029785 2091.67944
90.9832    549.18127  114.14359  3.03715991973877 0.6176900267601013 2.538340091705322 2078.08496
91.1356    551.41339  112.27335  2.971050024032593 0.584089994430542 2.5660400390625 2074.05469
91.288     549.71564  112.99798  2.958420038223267 0.536080002784729 2.756769895553589 2083.04102
91.4404    549.82458  109.82752  2.974839925765991 0.5744500160217285 2.747629880905151 2090.82153
91.5928    547.19922  106.55566  2.94025993347168 0.5192099809646606 2.527740001678467 2090.22241
91.7452    547.7019   104.80273  2.904799938201904 0.4919799864292145 2.71628999710083 2090.69897
91.8976    547.72272  107.50581  2.832000017166138 0.5554100275039673 2.638420104980469 2092.47583
