~Version
 VERS              .         2.0                           : CWLS LOG ASCII STANDARD - VERSION 2.0
 WRAP              .         NO                            : ONE LINE PER DEPTH STEP
 DLM               .         SPACE                         : DELIMITING CHARACTER(SPACE TAB OR COMMA)
~Well Information
#_______________________________________________________________________________
#
#PARAMETER_NAME    .UNIT     VALUE                         : DESCRIPTION
#_______________________________________________________________________________
STRT               .M        -8.0768                       : First reference value
STOP               .M        356.464                       : Last reference value
STEP               .M        0.1524                        : Step increment
NULL               .         -9999                         : Missing value
COMP               .                                       : Company
WELL               .         C                             : Well name
FLD                .                                       : Field
LOC                .                                       : Location
CNTY               .                                       : County
STAT               .                                       : State
CTRY               .                                       : Country
SRVC               .                                       : Service Company
DATE               .                                       : Date
API                .                                       : API number
~Parameter Information Block
#_______________________________________________________________________________
#
#PARAMETER_NAME    .UNIT     VALUE                         : DESCRIPTION
#_______________________________________________________________________________
SET                .         Logs                          : 
TLFamily_DEPT      .         Measured Depth                : 
TLFamily_DT        .         Compressional Slowness        : 
TLFamily_GR        .         Gamma Ray                     : 
TLFamily_ILD       .         Resistivity - Deep            : 
TLFamily_NPOR_LIM  .         Thermal Neutron Porosity Limestone: 
TLFamily_PEF       .         Photoelectric Factor          : 
TLFamily_RHO       .         Bulk Density                  : 
~Curve Information
#_______________________________________________________________________________
#
#LOGNAME           .UNIT     LOG_ID                        : DESCRIPTION
#_______________________________________________________________________________
DEPT               .M                                      : 1 Depth Index - Measured Depth 
DT                 .US/M                                   : 3 DELTA-T COMPRESSIONAL 
GR                 .GAPI                                   : 51 GAMMA RAY (F14.5) **MERGED** 
ILD                .OHMM                                   : 28 ARRAY INDUCTION ONE FOOT RESISTIVITY A90 (F14.5) **MERGED** 
NPOR_LIM           .V/V                                    : 80 ENHANCED THERMAL NEUTRON POROSITY (MATRIX LIMESTONE) (F14.5) **MERGED** 
PEF                .B/E                                    : 85 HIGH RESOLUTION FORMATION PHOTOELECTRIC FACTOR (F14.5) **MERGED** 
RHO                .K/M3                                   : 87 STANDARD RESOLUTION FORMATION DENSITY (F14.5) **MERGED** 
~Ascii
# ...
18.136     -9999      72.08229   3.104729890823364 0.4403299987316132 9.089550018310547 2068.12906
18.2884    -9999      110.22336  3.104729890823364 0.4679700136184692 9.207269668579102 2096.23098
18.4408    -9999      139.35405  3.104729890823364 0.4013200104236603 9.000060081481934 2140.9676 
18.5932    -9999      124.33219  3.104729890823364 0.3759199976921082 9.420200347900391 2180.85528
18.7456    -9999      84.80224   3.104729890823364 0.4740999937057495 9.997590065002441 2202.97788
18.898     -9999      53.47765   3.104729890823364 0.5050399899482727 9.080389976501465 2140.98644
19.0504    -9999      44.54525   3.104729890823364 0.4877400100231171 9.097370147705078 2084.5025 
19.2028    -9999      41.39278   3.104729890823364 0.5901700258255005 9.042140007019043 2039.00865
19.3552    -9999      42.58926   3.104729890823364 0.4915600121021271 9.085430145263672 2051.71571
19.5076    -9999      41.68961   3.104729890823364 0.4576199948787689 9.013950347900391 2053.69632
19.66      -9999      42.49592   3.104729890823364 0.4447500109672546 9.042440414428711 2046.4525 
19.8124    -9999      41.29901   3.104729890823364 0.4320600032806396 9.166790008544922 2039.40127
19.9648    -9999      42.07183   3.104729890823364 0.3617399930953979 8.956110000610352 2041.64458
20.1172    -9999      43.70227   3.104729890823364 0.3478600084781647 8.999699592590332 2045.56087
20.2696    -9999      44.20377   3.104729890823364 0.3941299915313721 9.025289535522461 2046.66507
20.422     -9999      44.00878   3.104729890823364 0.3610599935054779 9.044699668884277 2048.37918
20.5744    -9999      43.87082   3.104729890823364 0.4321300089359283 9.2222900390625 2059.38039
20.7268    -9999      46.02248   3.104729890823364 0.4217999875545502 9.104999542236328 2075.6358 
20.8792    -9999      46.0223    3.104729890823364 0.4156399965286255 8.956430435180664 2081.55844
21.0316    -9999      45.99883   3.104729890823364 0.4600600004196167 9.143830299377441 2068.29679
21.184     -9999      44.85381   3.104729890823364 0.4458799958229065 9.295639991760254 2056.22336
21.3364    -9999      45.85691   3.104729890823364 0.4480000138282776 9.283829689025879 2063.87332
21.4888    -9999      45.44725   3.104729890823364 0.3770900070667267 9.350130081176758 2084.42154
21.6412    -9999      45.45344   3.104729890823364 0.3818399906158447 9.142330169677734 2098.40595
21.7936    -9999      47.74736   3.104729890823364 0.3682500123977661 9.246879577636719 2102.39073
21.946     -9999      47.31938   3.104729890823364 0.3505299985408783 9.265449523925781 2109.57332
22.0984    -9999      48.18331   3.104729890823364 0.3066099882125854 9.167539596557617 2109.6676 
22.2508    -9999      49.48221   3.104729890823364 0.296860009431839 9.142499923706055 2099.11221
22.4032    -9999      52.50211   3.104729890823364 0.3497200012207031 9.079950332641602 2089.63246
22.5556    -9999      55.46452   3.104729890823364 0.3585200011730194 9.254050254821777 2096.85855
22.708     -9999      55.92771   3.104729890823364 0.399509996175766 9.2222900390625 2109.52587
22.8604    -9999      54.72634   3.104729890823364 0.4566999971866608 9.006099700927734 2106.99938
23.0128    -9999      52.50631   3.104729890823364 0.5141199827194214 8.988419532775879 2099.32825
23.1652    -9999      52.51178   3.104729890823364 0.4733099937438965 9.042570114135742 2093.71333
23.3176    -9999      54.65566   3.104729890823364 0.5069299936294556 8.993269920349121 2093.51442
23.47      -9999      53.22894   3.104729890823364 0.5217499732971191 9.080470085144043 2095.67344
23.6224    -9999      54.29481   3.104729890823364 0.5962299704551697 9.035519599914551 2103.52118
23.7748    -9999      56.707     3.104729890823364 0.4580299854278564 9.08413028717041 2110.17624
23.9272    -9999      65.08181   3.104729890823364 0.513729989528656 9.008620262145996 2109.2151 
24.0796    -9999      66.59276   3.104729890823364 0.4918499886989594 9.097499847412109 2101.13593
24.232     -9999      69.05722   3.104729890823364 0.4776900112628937 9.06659984588623 2096.48387
24.3844    -9999      64.13227999999999 3.104729890823364 0.4603500068187714 8.9681396484375 2099.38255
24.5368    -9999      62.69301   3.104729890823364 0.4436700046062469 9.118100166320801 2110.38758
24.6892    -9999      59.75513   3.104729890823364 0.3905200064182281 8.860610008239746 2134.81641
24.8416    -9999      56.94258   3.104729890823364 0.3210499882698059 8.737250328063965 2163.73724
24.994     -9999      51.07704   3.104729890823364 0.29789999127388 8.788060188293457 2190.09752
25.1464    -9999      49.25498   3.104729890823364 0.3034999966621399 8.769900321960449 2203.76289
25.2988    -9999      52.64925   3.104729890823364 0.3269200026988983 8.755370140075684 2197.64894
25.4512    -9999      51.83532   3.104729890823364 0.3158499896526337 8.74590015411377 2173.76417
25.6036    -9999      46.22538   3.104729890823364 0.3555600047111511 8.68826961517334 2155.87344
25.756     -9999      40.36782   3.104729890823364 0.2935299873352051 8.649629592895508 2160.82112
25.9084    -9999      41.47411   3.104729890823364 0.3451800048351288 8.69950008392334 2186.88327
26.0608    -9999      44.38521   3.104729890823364 0.3607499897480011 8.726469993591309 2209.05926
26.2132    -9999      49.64416   3.104729890823364 0.3191399872303009 8.641409873962402 2215.15262
26.3656    -9999      48.812     3.104729890823364 0.3133400082588196 8.731579780578613 2212.65899
26.518     -9999      48.8038    3.104729890823364 0.3075500130653381 8.695599555969238 2212.12633
26.6704    -9999      45.78149   3.104729890823364 0.2744700014591217 8.635990142822266 2213.54934
26.8228    -9999      48.7128    3.104729890823364 0.2574500143527985 8.761269569396973 2210.44492
26.9752    -9999      49.25114   3.104729890823364 0.2867999970912933 8.839500427246094 2189.71714
27.1276    -9999      51.34729   3.104729890823364 0.3540900051593781 8.835149765014648 2161.58695
27.28      -9999      50.81686   3.104729890823364 0.4552600085735321 8.967659950256348 2141.05263
27.4324    -9999      51.57559   3.104729890823364 0.4111300110816956 8.859270095825195 2123.70397
27.5848    -9999      48.83198   3.104729890823364 0.4285100102424622 8.909049987792969 2103.09114
27.7372    -9999      43.77053   3.104729890823364 0.4293200075626373 8.979140281677246 2080.74206
27.8896    -9999      43.76618   3.104729890823364 0.4141899943351746 9.062529563903809 2073.22415
28.042     -9999      42.17331   3.104729890823364 0.5292099714279175 9.129079818725586 2090.37398
28.1944    -9999      44.29709   3.104729890823364 0.5031999945640564 9.092720031738281 2150.62745
28.3468    -9999      41.49916   3.104729890823364 0.425790011882782 9.144610404968262 2208.53307
28.4992    -9999      41.2286    3.104729890823364 0.3870599865913391 9.850239753723145 2247.39504
28.6516    -9999      39.56253   3.104729890823364 0.418969988822937 9.090609550476074 2191.92721
28.804     -9999      39.19493   3.104729890823364 0.4514699876308441 8.892490386962891 2122.97642
28.9564    -9999      38.66716   3.104729890823364 0.4559400081634521 8.98136043548584 2049.64855
29.1088    -9999      40.60637   3.104729890823364 0.3503400087356567 8.914469718933105 2021.73201
29.2612    -9999      43.54224   3.104729890823364 0.359250009059906 9.210439682006836 2007.56461
29.4136    -9999      45.6364    3.104729890823364 0.3828800022602081 9.118000030517578 2007.42058
29.566     -9999      44.30335   3.104729890823364 0.4399499893188477 9.014399528503418 2018.43208
29.7184    -9999      43.83638   3.104729890823364 0.4148800075054169 8.978509902954102 2035.87499
29.8708    -9999      43.60485   3.104729890823364 0.3173199892044067 8.9375     2060.36038
30.0232    -9999      44.12993   3.104729890823364 0.2910900115966797 8.934849739074707 2077.36595
30.1756    -9999      41.32387   3.104729890823364 0.3557499945163727 8.97976016998291 2083.53396
30.328     -9999      37.87195   3.104729890823364 0.3455100059509277 8.822360038757324 2067.27247
30.4804    -9999      42.13228   3.104729890823364 0.3697499930858612 8.990779876708984 2053.91809
