~Version
 VERS              .         2.0                           : CWLS LOG ASCII STANDARD - VERSION 2.0
 WRAP              .         NO                            : ONE LINE PER DEPTH STEP
 DLM               .         SPACE                         : DELIMITING CHARACTER(SPACE TAB OR COMMA)
~Well Information
#_______________________________________________________________________________
#
#PARAMETER_NAME    .UNIT     VALUE                         : DESCRIPTION
#_______________________________________________________________________________
STRT               .M        -8.0768                       : First reference value
STOP               .M        356.464                       : Last reference value
STEP               .M        0.1524                        : Step increment
NULL               .         -9999                         : Missing value
COMP               .                                       : Company
WELL               .         C                             : Well name
FLD                .                                       : Field
LOC                .                                       : Location
CNTY               .                                       : County
STAT               .                                       : State
CTRY               .                                       : Country
SRVC               .                                       : Service Company
DATE               .                                       : Date
API                .                                       : API number
~Parameter Information Block
#_______________________________________________________________________________
#
#PARAMETER_NAME    .UNIT     VALUE                         : DESCRIPTION
#_______________________________________________________________________________
SET                .         Logs                          : 
TLFamily_DEPT      .         Measured Depth                : 
TLFamily_DT        .         Compressional Slowness        : 
TLFamily_GR        .         Gamma Ray                     : 
TLFamily_ILD       .         Resistivity - Deep            : 
TLFamily_NPOR_LIM  .         Thermal Neutron Porosity Limestone: 
TLFamily_PEF       .         Photoelectric Factor          : 
TLFamily_RHO       .         Bulk Density                  : 
~Curve Information
#_______________________________________________________________________________
#
#LOGNAME           .UNIT     LOG_ID                        : DESCRIPTION
#_______________________________________________________________________________
DEPT               .M                                      : 1 Depth Index - Measured Depth 
DT                 .US/M                                   : 3 DELTA-T COMPRESSIONAL 
GR                 .GAPI                                   : 51 GAMMA RAY (F14.5) **MERGED** 
ILD                .OHMM                                   : 28 ARRAY INDUCTION ONE FOOT RESISTIVITY A90 (F14.5) **MERGED** 
NPOR_LIM           .V/V                                    : 80 ENHANCED THERMAL NEUTRON POROSITY (MATRIX LIMESTONE) (F14.5) **MERGED** 
PEF                .B/E                                    : 85 HIGH RESOLUTION FORMATION PHOTOELECTRIC FACTOR (F14.5) **MERGED** 
RHO                .K/M3                                   : 87 STANDARD RESOLUTION FORMATION DENSITY (F14.5) **MERGED** 
~Ascii
# ...
243.688    452.47488  91.83993   9.31601    0.3508400022983551 2.568310022354126 2085.35156
243.8404   457.96277  89.19108   7.3627     0.4094099998474121 2.053699970245361 2072.17993
243.9928   455.45529  92.43178   6.59961    0.4137899875640869 2.249000072479248 2109.75659
244.1452   444.39627  96.40475000000001 8.61139    0.3513999879360199 2.489099979400635 2157.15527
244.2976   425.06635  97.1841    8.560980000000001 0.3455800116062164 2.522409915924072 2188.07935
244.45     422.12491  98.05611   8.615399999999999 0.3916999995708466 2.484200000762939 2200.5022 
244.6024   434.19049  93.14072   8.99808    0.3833599984645844 2.482330083847046 2184.26367
244.7548   448.24316  92.78986   9.481310000000001 0.3736999928951263 2.504559993743896 2156.71851
244.9072   463.1839   93.03968999999999 8.155279999999999 0.453110009431839 2.797689914703369 2101.23145
245.0596   474.995    97.83838   5.39893    0.5772799849510193 2.426759958267212 2041.79578
245.212    479.14511  100.87649  5.24427    0.5682799816131592 1.679550051689148 2015.44885
245.3644   478.52563  96.52164999999999 4.78954    0.4969300031661987 2.36680006980896 2027.99207
245.5168   473.00949  100.84507  4.35292    0.4331200122833252 2.474960088729858 2064.50952
245.6692   468.27631  98.85851   3.90145    0.4596799910068512 2.376070022583008 2076.4043 
245.8216   467.65717  100.59583  3.70925    0.5218499898910522 2.357069969177246 2087.49536
245.974    467.20963  97.32402   4.14574    0.4794999957084656 2.151530027389526 2073.4375 
246.1264   469.73969  97.55785   4.64731    0.4402399957180023 2.590879917144775 2066.23535
246.2788   471.14081  94.76893   4.88042    0.4620600044727325 2.518219947814941 2050.37891
246.4312   478.11511  90.91267000000001 4.777      0.5478000044822693 2.201539993286133 2069.13159
246.5836   496.4559   87.32917999999999 4.21803    0.5049999952316284 2.428179979324341 2076.63062
246.736    502.34497  90.71756999999999 3.78432    0.5335599780082703 2.299420118331909 2088.99976
246.8884   494.86349  88.38052999999999 3.78258    0.5195900201797485 2.332910060882568 2086.36426
247.0408   498.27423  89.27633   4.92641    0.4631600081920624 2.344180107116699 2076.92529
247.1932   493.76447  82.61593999999999 10.53493   0.3655399978160858 2.285629987716675 2074.45776
247.3456   492.04688  80.62951   11.07368   0.3309299945831299 2.345240116119385 2080.08667
247.498    463.09738  79.48451   9.53731    0.3880600035190582 2.413569927215576 2091.99902
247.6504   460.85883  85.79465   10.99726   0.4037899971008301 2.445820093154907 2095.64673
247.8028   451.75049  86.72948   11.32619   0.370279997587204 2.495719909667969 2101.66577
247.9552   443.94604  86.3553    11.49342   0.3636800050735474 2.36956000328064 2126.43335
248.1076   445.51434  82.38252   10.45859   0.3747200071811676 2.470230102539063 2154.51514
248.26     456.69672  85.6463    8.05702    0.3714100122451782 2.470170021057129 2156.41089
248.4124   468.29114  85.52952000000001 10.12156   0.3716099858283997 2.380199909210205 2123.03442
248.5648   486.84436  87.86668   7.21824    0.4220199882984161 2.724339962005615 2065.56934
248.7172   500.00272  86.35572999999999 3.29492    0.544979989528656 2.032510042190552 2031.15894
248.8696   501.93951  87.29057   2.74913    0.529420018196106 2.183710098266602 2033.45825
249.022    508.98871  89.15982   2.50476    0.5021899938583374 2.405590057373047 2065.52515
249.1744   501.66013  92.16673   2.65255    0.4801599979400635 2.508490085601807 2088.07495
249.3268   492.5192   94.85429999999999 2.72709    0.4652099907398224 2.65418004989624 2108.77417
249.4792   490.15289  96.95792   2.9319     0.4736199975013733 2.817090034484863 2121.35693
249.6316   489.14511  98.39138   3.2869     0.4671399891376495 2.586390018463135 2145.05713
249.784    484.54178  96.63876   4.89916    0.4480800032615662 2.602360010147095 2159.69312
249.9364   480.67075  89.5104    6.36212    0.3730500042438507 2.654589891433716 2152.9248 
250.0888   467.47168  83.43402   8.42327    0.34442999958992 2.687829971313477 2130.72095
250.2412   433.32925  82.42905   8.74644    0.3588699996471405 2.716650009155273 2113.7229 
250.3936   396.45212  81.14361   8.98019    0.3928999900817871 2.850950002670288 2149.81348
250.546    341.87949  73.89852999999999 9.15915    0.4094800055027008 2.731679916381836 2280.18164
250.6984   298.40723  65.78881   15.1823    0.2879700064659119 3.932960033416748 2461.31494
250.8508   249.72545  59.36188   27.68588   0.1702200025320053 4.531149864196777 2612.16699
251.0032   228.15698  58.89461   43.69979   0.1089200004935265 4.234489917755127 2673.18042
251.1556   234.92046  56.65879   53.3124    0.09149999916553497 4.161419868469238 2672.75   
251.308    259.97659  57.35991   76.33714000000001 0.07681000232696533 4.14654016494751 2662.39771
251.4604   289.89905  62.7351    49.45856   0.1109300032258034 4.139090061187744 2619.38672
251.6128   339.4574   66.95741   27.80414   0.2024199962615967 4.003180027008057 2511.29663
251.7652   373.70959  72.09911   16.37269   0.3434500098228455 3.33961009979248 2354.17969
251.9176   433.78415  74.84135000000001 10.86505   0.4348900020122528 2.657310009002686 2249.82593
252.07     433.99927  75.07507   9.4323     0.417930006980896 3.004509925842285 2233.76343
252.2224   439.02341  74.49062000000001 10.39723   0.39342001080513 4.319330215454102 2252.61523
252.3748   437.2149   73.26739999999999 9.68327    0.4193699955940247 3.221240043640137 2219.66187
252.5272   437.01547  74.78658   9.05719    0.4461199939250946 2.629889965057373 2163.87915
252.6796   416.72061  72.80006   8.9963     0.5034800171852112 2.396869897842407 2179.50366
252.832    394.20291  64.73729   11.69794   0.3747699856758118 2.466789960861206 2302.96899
252.9844   387.49393  57.64031   21.01492   0.1966799944639206 4.126949787139893 2458.62817
253.1368   378.15839  54.0178    24.54667   0.157940000295639 4.639430046081543 2509.95654
253.2892   393.81171  59.62685   18.80212   0.2732299864292145 3.392790079116821 2406.32959
253.4416   410.15643  67.65867   10.07887   0.4887399971485138 2.388609886169434 2253.65039
253.594    425.44431  71.63186   9.50056    0.424560010433197 2.545959949493408 2148.84082
253.7464   436.13138  74.31937000000001 9.44464    0.4014300107955933 2.462630033493042 2124.01953
253.8988   441.53775  71.89652   8.98371    0.3989099860191345 2.663739919662476 2118.41699
254.0512   444.39258  72.48058   9.107139999999999 0.3868600130081177 2.435410022735596 2115.78809
254.2036   437.18964  70.72796   9.28519    0.3956499993801117 2.360120058059692 2108.8313 
254.356    408.95334  73.50118000000001 8.97064    0.4207899868488312 2.360650062561035 2116.19165
254.5084   389.67682  71.39815   8.60854    0.402649998664856 2.302079916000366 2175.52637
254.6608   377.51169  72.51958999999999 9.607150000000001 0.3791300058364868 2.423719882965088 2281.01025
254.8132   385.95511  69.83219   14.25062   0.3396100103855133 4.335340023040771 2385.11499
254.9656   403.87088  76.14193   16.74696   0.3675000071525574 3.624170064926147 2357.61157
255.118    403.76682  75.83819   12.13827   0.3927499949932098 2.582509994506836 2261.06787
255.2704   419.61032  79.36726   11.95329   0.3901399970054626 2.442859888076782 2164.09155
255.4228   432.2005   84.04183   10.99745   0.3834500014781952 2.386300086975098 2153.16821
255.5752   439.06464  91.05313   9.24037    0.3739500045776367 2.692189931869507 2173.25586
255.7276   444.51318  95.47008   7.53124    0.4395799934864044 2.914959907531738 2186.27148
255.88     449.43124  93.01606   6.33365    0.4941200017929077 2.553080081939697 2170.70215
256.0324   458.33749  91.16986   5.91307    0.4630799889564514 2.507400035858154 2149.92896
256.1848   467.79453  90.35196000000001 6.12705    0.4366799890995026 2.257060050964355 2108.18774
256.3372   468.89728  92.10444   6.24337    0.5081999897956848 2.586800098419189 2088.73511
256.4896   470.67108  90.44524   6.48172    0.49235999584198 2.226109981536865 2087.87891
256.642    469.57047  91.49673   6.01672    0.471560001373291 2.269969940185547 2114.07715
