~Version
 VERS              .         2.0                           : CWLS LOG ASCII STANDARD - VERSION 2.0
 WRAP              .         NO                            : ONE LINE PER DEPTH STEP
 DLM               .         SPACE                         : DELIMITING CHARACTER(SPACE TAB OR COMMA)
~Well Information
#_______________________________________________________________________________
#
#PARAMETER_NAME    .UNIT     VALUE                         : DESCRIPTION
#_______________________________________________________________________________
STRT               .M        -8.0768                       : First reference value
STOP               .M        356.464                       : Last reference value
STEP               .M        0.1524                        : Step increment
NULL               .         -9999                         : Missing value
COMP               .                                       : Company
WELL               .         C                             : Well name
FLD                .                                       : Field
LOC                .                                       : Location
CNTY               .                                       : County
STAT               .                                       : State
CTRY               .                                       : Country
SRVC               .                                       : Service Company
DATE               .                                       : Date
API                .                                       : API number
~Parameter Information Block
#_______________________________________________________________________________
#
#PARAMETER_NAME    .UNIT     VALUE                         : DESCRIPTION
#_______________________________________________________________________________
SET                .         Logs                          : 
TLFamily_DEPT      .         Measured Depth                : 
TLFamily_DT        .         Compressional Slowness        : 
TLFamily_GR        .         Gamma Ray                     : 
TLFamily_ILD       .         Resistivity - Deep            : 
TLFamily_NPOR_LIM  .         Thermal Neutron Porosity Limestone: 
TLFamily_PEF       .         Photoelectric Factor          : 
TLFamily_RHO       .         Bulk Density                  : 
~Curve Information
#_______________________________________________________________________________
#
#LOGNAME           .UNIT     LOG_ID                        : DESCRIPTION
#_______________________________________________________________________________
DEPT               .M                                      : 1 Depth Index - Measured Depth 
DT                 .US/M                                   : 3 DELTA-T COMPRESSIONAL 
GR                 .GAPI                                   : 51 GAMMA RAY (F14.5) **MERGED** 
ILD                .OHMM                                   : 28 ARRAY INDUCTION ONE FOOT RESISTIVITY A90 (F14.5) **MERGED** 
NPOR_LIM           .V/V                                    : 80 ENHANCED THERMAL NEUTRON POROSITY (MATRIX LIMESTONE) (F14.5) **MERGED** 
PEF                .B/E                                    : 85 HIGH RESOLUTION FORMATION PHOTOELECTRIC FACTOR (F14.5) **MERGED** 
RHO                .K/M3                                   : 87 STANDARD RESOLUTION FORMATION DENSITY (F14.5) **MERGED** 
~Ascii
# ...
104.242    551.01776  103.53278  2.317490100860596 0.606440007686615 2.499249935150146 2055.99316
104.3944   551.36969  103.53275  2.37595009803772 0.583869993686676 2.563549995422363 2063.2334 
104.5468   549.25201  102.24741  2.352799892425537 0.5212299823760986 2.52059006690979 2083.4895 
104.6992   542.6394   98.27451000000001 2.380949974060059 0.5370799899101257 2.715660095214844 2108.86914
104.8516   542.3826299999999 94.88572000000001 2.413500070571899 0.4853099882602692 2.688790082931519 2116.65991
105.004    540.32623  94.76881   2.427229881286621 0.461899995803833 2.608669996261597 2106.51025
105.1564   540.01874  96.52959   2.480329990386963 0.4556699991226196 2.675410032272339 2096.04639
105.3088   535.65588  98.27553   2.562289953231812 0.4694499969482422 2.603729963302612 2092.27856
105.4612   532.29688  97.08369   2.709490060806274 0.5326300263404846 2.544579982757568 2097.60767
105.6136   529.37506  97.77666000000001 2.8055100440979 0.5143200159072876 2.492719888687134 2103.22925
105.766    529.09839  100.82162  2.89667010307312 0.4893099963665009 2.578249931335449 2116.04468
105.9184   527.31451  100.14413  3.007760047912598 0.5377500057220459 2.666520118713379 2121.90991
106.0708   521.55396  102.83205  3.046519994735718 0.5295900106430054 2.631259918212891 2121.41089
106.2232   518.2688000000001 102.94915  3.050869941711426 0.483020007610321 2.645159959793091 2116.21802
106.3756   510.9758   107.97368  2.940579891204834 0.5129899978637695 2.669140100479126 2126.92212
106.528    505.04337  99.67709000000001 2.973619937896729 0.5672799944877625 2.702810049057007 2133.10107
106.6804   500.79764  95.58710000000001 3.003429889678955 0.5428100228309631 2.600950002670288 2169.61279
106.8328   498.99579  87.52406999999999 3.721359968185425 0.468529999256134 2.488919973373413 2213.11963
106.9852   496.80087  89.07417   5.596650123596191 0.4034700095653534 3.137069940567017 2271.10767
107.1376   495.30673  92.57992   4.948080062866211 0.4329800009727478 3.544470071792603 2272.11719
107.29     497.17465  101.69441  4.094190120697021 0.4840900003910065 2.68641996383667 2241.59302
107.4424   500.68701  103.64966  3.590919971466064 0.4717099964618683 2.651690006256104 2199.2605 
107.5948   503.08762  100.02699  3.659420013427734 0.4888800084590912 2.558979988098145 2184.48657
107.7472   507.56006  95.23621   3.878649950027466 0.4705100059509277 2.623080015182495 2184.62207
107.8996   512.3631   97.57317   4.425519943237305 0.4616999924182892 2.547800064086914 2176.2522 
108.052    516.15326  102.62139  4.149449825286865 0.474700003862381 2.480809926986694 2164.05249
108.2044   518.6806   103.59706  3.297209978103638 0.4997099936008453 2.61434006690979 2138.77539
108.3568   516.95673  104.53993  3.198270082473755 0.5125100016593933 2.590529918670654 2124.65088
108.5092   512.9173   104.04936  3.299340009689331 0.4733499884605408 2.606329917907715 2124.35889
108.6616   505.57516  106.34566  3.465640068054199 0.4940299987792969 2.502609968185425 2141.87109
108.814    504.48361  106.45474  3.652909994125366 0.5106099843978882 2.521209955215454 2158.48657
108.9664   501.63654  105.16917  3.760260105133057 0.4822100102901459 2.639080047607422 2167.60059
109.1188   499.84689  108.79141  3.858530044555664 0.4736500084400177 2.514659881591797 2168.97876
109.2712   498.30444  106.80475  4.1109299659729 0.5183299779891968 2.584609985351563 2170.38403
109.4236   495.51981  105.16882  4.351809978485107 0.4838399887084961 2.365299940109253 2163.27393
109.576    494.60519  98.16186999999999 3.669749975204468 0.4310399889945984 2.514950037002563 2161.18555
109.7284   492.58142  94.18904000000001 4.008959770202637 0.4747900068759918 2.499289989471436 2156.6438 
109.8808   489.92542  90.68333   4.577499866485596 0.4953599870204926 2.508239984512329 2161.01782
110.0332   490.44009  90.67896   5.284969806671143 0.4244399964809418 2.509829998016357 2165.81616
110.1856   489.28061  93.32514999999999 5.649600028991699 0.4344500005245209 2.553339958190918 2181.07764
110.338    489.96149  98.34995000000001 6.117489814758301 0.4230599999427795 2.935610055923462 2188.50903
110.4904   492.41318  97.64905   4.971590042114258 0.440530002117157 2.648629903793335 2184.58154
110.6428   495.83405  100.37801  4.10968017578125 0.4761399924755096 2.527760028839111 2164.37573
110.7952   497.84235  98.70757   3.226850032806396 0.4704500138759613 2.436330080032349 2167.06396
110.9476   500.02863  96.01978   2.715490102767944 0.4868099987506866 2.530509948730469 2188.94653
111.1      501.45026  85.50297   3.270319938659668 0.4973399937152863 2.559429883956909 2219.3916 
111.2524   501.92935  72.21613000000001 6.212490081787109 0.3899100124835968 1.986150026321411 2198.53784
111.4048   495.64441  67.89948   6.680840015411377 0.3188199996948242 2.449079990386963 2177.28296
111.5572   492.37207  72.92402   5.247369766235352 0.4304200112819672 2.532579898834229 2168.62549
111.7096   488.44949  78.64969000000001 3.832289934158325 0.479889988899231 2.466249942779541 2175.97754
111.862    494.43491  74.90336000000001 8.348090171813965 0.4041000008583069 2.509530067443848 2150.00244
112.0144   492.23022  64.02916999999999 14.09500980377197 0.3305000066757202 2.014679908752441 2093.4939 
112.1668   491.43042  63.44485   17.21554946899414 0.3533599972724915 1.947080016136169 2056.37109
112.3192   488.81723  66.48323000000001 16.68176078796387 0.3576799929141998 2.010540008544922 2047.8446 
112.4716   488.68283  72.75230000000001 15.74532985687256 0.3372600078582764 1.948529958724976 2064.56982
112.624    486.59146  80.93210000000001 13.60017967224121 0.3589200079441071 1.975260019302368 2104.52173
112.7764   480.18964  82.91856   9.440990447998047 0.4234800040721893 2.23105001449585 2138.29321
112.9288   479.7915   80.74635000000001 11.26933002471924 0.3818700015544891 2.081219911575317 2142.08984
113.0812   479.28873  71.39816999999999 19.22241973876953 0.3351899981498718 1.918759942054749 2120.53955
113.2336   483.28284  66.02285999999999 23.04281997680664 0.3514100015163422 1.96425998210907 2098.59766
113.386    484.06497  63.35576   26.01382064819336 0.3380599915981293 1.946619987487793 2090.51245
113.5384   486.56586  59.38259   29.38800048828125 0.3389999866485596 1.941720008850098 2081.79224
113.6908   489.54352  59.6163    30.61327934265137 0.3589600026607513 1.887730002403259 2076.19458
113.8432   489.63898  62.9845    28.46170997619629 0.3313699960708618 1.867300033569336 2086.90259
113.9956   484.05881  68.47665000000001 26.8077392578125 0.3435600101947784 1.87365996837616 2095.40137
114.148    478.83997  74.90349999999999 23.06366920471191 0.3422600030899048 1.883559942245483 2108.198  
114.3004   479.06226  76.1545    20.46566963195801 0.3432399928569794 2.019920110702515 2113.62646
114.4528   476.27963  81.41306   18.41814994812012 0.3776699900627136 2.128870010375977 2119.73071
114.6052   471.76791  84.21777   17.28202056884766 0.3830400109291077 2.173399925231934 2124.74536
114.7576   469.61145  89.97788   16.72126007080078 0.3897599875926971 2.042759895324707 2137.00757
114.91     469.94855  92.08121   15.51686954498291 0.354200005531311 2.1805100440979 2160.02588
115.0624   470.44653  94.53476999999999 13.94186973571777 0.363400012254715 2.23304009437561 2178.08203
115.2148   468.7168   96.87201   11.41040992736816 0.3864299952983856 2.20334005355835 2193.02783
115.3672   465.01395  97.57290999999999 12.23900985717773 0.3707500100135803 2.200000047683716 2204.06079
115.5196   461.95132  95.93716000000001 10.02095985412598 0.3784500062465668 2.388890027999878 2216.35059
115.672    459.36874  88.66079999999999 11.24357032775879 0.4006499946117401 2.571769952774048 2226.34814
115.8244   455.77252  82.70142   12.12333011627197 0.336899995803833 2.219350099563599 2228.65869
115.9768   452.88345  78.96219000000001 13.12687015533447 0.3163700103759766 2.337430000305176 2244.18481
116.1292   453.54523  82.73291   12.13455009460449 0.3189499974250793 2.790839910507202 2238.02441
116.2816   457.51025  78.52630000000001 11.4451904296875 0.3743799924850464 2.280139923095703 2219.54517
