~Version
 VERS              .         2.0                           : CWLS LOG ASCII STANDARD - VERSION 2.0
 WRAP              .         NO                            : ONE LINE PER DEPTH STEP
 DLM               .         SPACE                         : DELIMITING CHARACTER(SPACE TAB OR COMMA)
~Well Information
#_______________________________________________________________________________
#
#PARAMETER_NAME    .UNIT     VALUE                         : DESCRIPTION
#_______________________________________________________________________________
STRT               .M        -8.0768                       : First reference value
STOP               .M        356.464                       : Last reference value
STEP               .M        0.1524                        : Step increment
NULL               .         -9999                         : Missing value
COMP               .                                       : Company
WELL               .         C                             : Well name
FLD                .                                       : Field
LOC                .                                       : Location
CNTY               .                                       : County
STAT               .                                       : State
CTRY               .                                       : Country
SRVC               .                                       : Service Company
DATE               .                                       : Date
API                .                                       : API number
~Parameter Information Block
#_______________________________________________________________________________
#
#PARAMETER_NAME    .UNIT     VALUE                         : DESCRIPTION
#_______________________________________________________________________________
SET                .         Logs                          : 
TLFamily_DEPT      .         Measured Depth                : 
TLFamily_DT        .         Compressional Slowness        : 
TLFamily_GR        .         Gamma Ray                     : 
TLFamily_ILD       .         Resistivity - Deep            : 
TLFamily_NPOR_LIM  .         Thermal Neutron Porosity Limestone: 
TLFamily_PEF       .         Photoelectric Factor          : 
TLFamily_RHO       .         Bulk Density                  : 
~Curve Information
#_______________________________________________________________________________
#
#LOGNAME           .UNIT     LOG_ID                        : DESCRIPTION
#_______________________________________________________________________________
DEPT               .M                                      : 1 Depth Index - Measured Depth 
DT                 .US/M                                   : 3 DELTA-T COMPRESSIONAL 
GR                 .GAPI                                   : 51 GAMMA RAY (F14.5) **MERGED** 
ILD                .OHMM                                   : 28 ARRAY INDUCTION ONE FOOT RESISTIVITY A90 (F14.5) **MERGED** 
NPOR_LIM           .V/V                                    : 80 ENHANCED THERMAL NEUTRON POROSITY (MATRIX LIMESTONE) (F14.5) **MERGED** 
PEF                .B/E                                    : 85 HIGH RESOLUTION FORMATION PHOTOELECTRIC FACTOR (F14.5) **MERGED** 
RHO                .K/M3                                   : 87 STANDARD RESOLUTION FORMATION DENSITY (F14.5) **MERGED** 
~Ascii
-8.0768    -9999      213.14243  3.104729890823364 -9999      7.433139801025391 1948.63318
-7.9244    -9999      213.14243  3.104729890823364 -9999      7.433139801025391 1948.63318
-7.772     -9999      213.14243  3.104729890823364 -9999      7.433139801025391 1948.63318
-7.6196    -9999      213.14243  3.104729890823364 -9999      7.433139801025391 1948.63318
-7.4672    -9999      213.14243  3.104729890823364 -9999      7.433139801025391 1948.63318
-7.3148    -9999      213.14243  3.104729890823364 -9999      7.433139801025391 1948.63318
-7.1624    -9999      213.14243  3.104729890823364 -9999      7.433139801025391 1948.63318
-7.01      -9999      213.14243  3.104729890823364 -9999      7.433139801025391 1948.63318
-6.8576    -9999      213.14243  3.104729890823364 -9999      7.433139801025391 1948.63318
-6.7052    -9999      213.14243  3.104729890823364 -9999      7.433139801025391 1948.63318
-6.5528    -9999      213.14243  3.104729890823364 -9999      7.433139801025391 1948.63318
-6.4004    -9999      213.14243  3.104729890823364 -9999      7.433139801025391 1948.63318
-6.248     -9999      213.14243  3.104729890823364 -9999      7.433139801025391 1948.63318
-6.0956    -9999      213.14243  3.104729890823364 -9999      7.433139801025391 1948.63318
-5.9432    -9999      213.14243  3.104729890823364 -9999      7.433139801025391 1948.63318
-5.7908    -9999      213.14243  3.104729890823364 -9999      7.433139801025391 1948.63318
-5.6384    -9999      213.14243  3.104729890823364 -9999      7.433139801025391 1948.63318
-5.486     -9999      213.14243  3.104729890823364 -9999      7.433139801025391 1948.63318
-5.3336    -9999      213.14243  3.104729890823364 -9999      7.433139801025391 1948.63318
-5.1812    -9999      213.14243  3.104729890823364 -9999      7.433139801025391 1948.63318
-5.0288    -9999      213.14243  3.104729890823364 -9999      7.433139801025391 1948.63318
-4.8764    -9999      213.14243  3.104729890823364 -9999      7.433139801025391 1948.63318
-4.724     -9999      213.14243  3.104729890823364 -9999      7.433139801025391 1948.63318
-4.5716    -9999      213.14243  3.104729890823364 -9999      7.433139801025391 1948.63318
-4.4192    -9999      213.14243  3.104729890823364 -9999      7.433139801025391 1948.63318
-4.2668    -9999      213.14243  3.104729890823364 -9999      7.433139801025391 1948.63318
-4.1144    -9999      213.14243  3.104729890823364 -9999      7.433139801025391 1948.63318
-3.962     -9999      213.14243  3.104729890823364 -9999      7.433139801025391 1948.63318
-3.8096    -9999      213.14243  3.104729890823364 -9999      7.433139801025391 1948.63318
-3.6572    -9999      213.14243  3.104729890823364 -9999      7.433139801025391 1948.63318
-3.5048    -9999      213.14243  3.104729890823364 -9999      7.433139801025391 1948.63318
-3.3524    -9999      213.14243  3.104729890823364 -9999      7.433139801025391 1948.63318
-3.2       -9999      213.14243  3.104729890823364 -9999      7.433139801025391 1948.63318
-3.0476    -9999      213.14243  3.104729890823364 -9999      7.433139801025391 1948.63318
-2.8952    -9999      213.14243  3.104729890823364 -9999      7.433139801025391 1948.63318
-2.7428    -9999      213.14243  3.104729890823364 -9999      7.433139801025391 1948.63318
-2.5904    -9999      213.14243  3.104729890823364 -9999      7.433139801025391 1948.63318
-2.438     -9999      213.14243  3.104729890823364 -9999      7.433139801025391 1948.63318
-2.2856    -9999      213.14243  3.104729890823364 -9999      7.433139801025391 1948.63318
-2.1332    -9999      213.14243  3.104729890823364 -9999      7.433139801025391 1948.63318
-1.9808    -9999      213.14243  3.104729890823364 -9999      7.433139801025391 1948.63318
-1.8284    -9999      213.14243  3.104729890823364 -9999      7.433139801025391 1948.63318
-1.676     -9999      213.14243  3.104729890823364 -9999      7.433139801025391 1948.63318
-1.5236    -9999      213.14243  3.104729890823364 -9999      7.433139801025391 1948.63318
-1.3712    -9999      213.14243  3.104729890823364 -9999      7.433139801025391 1948.63318
-1.2188    -9999      213.14243  3.104729890823364 -9999      7.433139801025391 1948.63318
-1.0664    -9999      213.14243  3.104729890823364 -9999      7.433139801025391 1948.63318
-0.914     -9999      213.14243  3.104729890823364 -9999      7.433139801025391 1948.63318
-0.7616000000000001 -9999      213.14243  3.104729890823364 -9999      7.433139801025391 1948.63318
-0.6092    -9999      212.98485  3.104729890823364 -9999      7.433139801025391 1948.63318
-0.4568    -9999      153.00595  3.104729890823364 -9999      7.433139801025391 1948.63318
-0.3044    -9999      115.30429  3.104729890823364 -9999      7.433139801025391 1948.63318
-0.152     -9999      118.41235  3.104729890823364 -9999      7.433139801025391 1948.63318
0.0004     -9999      118.60155  3.104729890823364 -9999      7.433139801025391 1948.63318
0.1528     -9999      190.56773  3.104729890823364 -9999      7.433139801025391 1948.63318
0.3052     -9999      217.20903  3.104729890823364 -9999      7.433139801025391 1948.63318
0.4576     -9999      243.11473  3.104729890823364 -9999      7.433139801025391 1948.63318
0.61       -9999      245.07058  3.104729890823364 -9999      7.433139801025391 1948.63318
0.7624     -9999      249.90123  3.104729890823364 -9999      7.433139801025391 1948.63318
0.9147999999999999 -9999      215.61567  3.104729890823364 -9999      7.433139801025391 1948.63318
1.0672     -9999      178.46981  3.104729890823364 -9999      7.433139801025391 1948.63318
1.2196     -9999      146.95063  3.104729890823364 -9999      7.433139801025391 1948.63318
1.372      -9999      137.1465   3.104729890823364 -9999      7.433139801025391 1948.63318
1.5244     -9999      111.94226  3.104729890823364 -9999      7.433139801025391 1948.63318
1.6768     -9999      100.29054  3.104729890823364 -9999      7.433139801025391 1948.63318
1.8292     -9999      81.78825000000001 3.104729890823364 -9999      7.433139801025391 1948.63318
1.9816     -9999      58.39901   3.104729890823364 -9999      7.433139801025391 1948.63318
2.134      -9999      27.90306   3.104729890823364 -9999      7.433139801025391 1948.63318
2.2864     -9999      13.38229   3.104729890823364 -9999      7.433139801025391 1948.63318
2.4388     -9999      6.85213    3.104729890823364 -9999      7.433139801025391 1948.63318
2.5912     -9999      5.61067    3.104729890823364 -9999      7.433139801025391 1948.63318
2.7436     -9999      6.23332    3.104729890823364 -9999      7.433139801025391 1948.63318
2.896      -9999      6.65102    3.104729890823364 -9999      7.433139801025391 1948.63318
3.0484     -9999      7.89473    3.104729890823364 -9999      7.433139801025391 1948.63318
3.2008     -9999      8.10352    3.104729890823364 -9999      7.433139801025391 1948.63318
3.3532     -9999      8.72621    3.104729890823364 -9999      7.433139801025391 1948.63318
3.5056     -9999      9.14977    3.104729890823364 -9999      7.433139801025391 1948.63318
3.658      -9999      12.67788   3.104729890823364 -9999      7.433139801025391 1948.63318
3.8104     -9999      14.87319   3.104729890823364 -9999      7.433139801025391 1948.63318
3.9628     -9999      18.86256   3.104729890823364 -9999      7.433139801025391 1948.63318
4.1152     -9999      23.09442   3.104729890823364 -9999      7.433139801025391 1948.63318
4.2676     -9999      27.85687   3.104729890823364 -9999      7.433139801025391 1948.63318
4.42       -9999      33.83186   3.104729890823364 -9999      7.433139801025391 1948.63318
4.5724     -9999      36.79889   3.104729890823364 -9999      7.433139801025391 1948.63318
4.7248     -9999      43.41904   3.104729890823364 -9999      7.433139801025391 1948.63318
4.8772     -9999      46.81262   3.104729890823364 -9999      7.433139801025391 1948.63318
5.0296     -9999      47.93741   3.104729890823364 -9999      7.433139801025391 1948.63318
5.182      -9999      50.15445   3.104729890823364 -9999      7.433139801025391 1948.63318
