~Version
 VERS              .         2.0                           : CWLS LOG ASCII STANDARD - VERSION 2.0
 WRAP              .         NO                            : ONE LINE PER DEPTH STEP
 DLM               .         SPACE                         : DELIMITING CHARACTER(SPACE TAB OR COMMA)
~Well Information
#_______________________________________________________________________________
#
#PARAMETER_NAME    .UNIT     VALUE                         : DESCRIPTION
#_______________________________________________________________________________
STRT               .M        -8.0768                       : First reference value
STOP               .M        356.464                       : Last reference value
STEP               .M        0.1524                        : Step increment
NULL               .         -9999                         : Missing value
COMP               .                                       : Company
WELL               .         C                             : Well name
FLD                .                                       : Field
LOC                .                                       : Location
CNTY               .                                       : County
STAT               .                                       : State
CTRY               .                                       : Country
SRVC               .                                       : Service Company
DATE               .                                       : Date
API                .                                       : API number
~Parameter Information Block
#_______________________________________________________________________________
#
#PARAMETER_NAME    .UNIT     VALUE                         : DESCRIPTION
#_______________________________________________________________________________
SET                .         Logs                          : 
TLFamily_DEPT      .         Measured Depth                : 
TLFamily_DT        .         Compressional Slowness        : 
TLFamily_GR        .         Gamma Ray                     : 
TLFamily_ILD       .         Resistivity - Deep            : 
TLFamily_NPOR_LIM  .         Thermal Neutron Porosity Limestone: 
TLFamily_PEF       .         Photoelectric Factor          : 
TLFamily_RHO       .         Bulk Density                  : 
~Curve Information
#_______________________________________________________________________________
#
#LOGNAME           .UNIT     LOG_ID                        : DESCRIPTION
#_______________________________________________________________________________
DEPT               .M                                      : 1 Depth Index - Measured Depth 
DT                 .US/M                                   : 3 DELTA-T COMPRESSIONAL 
GR                 .GAPI                                   : 51 GAMMA RAY (F14.5) **MERGED** 
ILD                .OHMM                                   : 28 ARRAY INDUCTION ONE FOOT RESISTIVITY A90 (F14.5) **MERGED** 
NPOR_LIM           .V/V                                    : 80 ENHANCED THERMAL NEUTRON POROSITY (MATRIX LIMESTONE) (F14.5) **MERGED** 
PEF                .B/E                                    : 85 HIGH RESOLUTION FORMATION PHOTOELECTRIC FACTOR (F14.5) **MERGED** 
RHO                .K/M3                                   : 87 STANDARD RESOLUTION FORMATION DENSITY (F14.5) **MERGED** 
~Ascii
# ...
190.8052   484.89169  56.96257   22.53886   0.3899900019168854 2.319639921188354 2034.62122
190.9576   479.59375  57.46096   23.79505   0.3838399946689606 2.385430097579956 2035.55225
191.11     473.78464  56.64316   27.2787    0.3707999885082245 2.222440004348755 2030.79822
191.2624   460.28101  52.08585   30.68177   0.3738400042057037 2.142580032348633 2027.84802
191.4148   458.37897  50.59008   29.03587   0.3692800104618073 2.183480024337769 2025.19226
191.5672   458.29758  52.81008   34.74635   0.3746399879455566 2.263089895248413 2022.19897
191.7196   460.01086  55.03043   32.46716   0.3936899900436401 2.261729955673218 2019.63562
191.872    465.67761  54.92136   31.43134   0.400629997253418 2.227390050888062 2025.88562
192.0244   470.09851  56.16783   31.37085   0.3982599973678589 2.310790061950684 2032.69983
192.1768   476.05704  50.55875   32.05073   0.3744800090789795 2.161780118942261 2039.10229
192.3292   479.46912  51.84446   32.62956   0.3756900131702423 2.21412992477417 2041.70996
192.4816   481.04843  50.84746   32.94893   0.3627699911594391 2.196120023727417 2046.18213
192.634    482.70712  55.989     33.07101   0.3545899987220764 2.163189888000488 2041.15894
192.7864   483.4201   55.87189   32.9285    0.3655999898910522 2.21274995803833 2032.3656 
192.9388   483.35461  55.49807   32.51525   0.37814000248909 2.279119968414307 2023.94727
193.0912   482.75687  56.54974   33.05093   0.3859100043773651 2.2918701171875 2026.18604
193.2436   482.64212  55.84872   30.7704    0.3419100046157837 2.458349943161011 2030.28674
193.396    481.77783  56.55731   27.46734   0.3610399961471558 2.231780052185059 2034.47009
193.5484   481.47809  57.6558    28.82984   0.3751699924468994 2.326689958572388 2039.08276
193.7008   480.75687  60.34332   29.78451   0.3724800050258636 2.266599893569946 2042.1167 
193.8532   481.31     61.50425   30.96914   0.3744499981403351 2.300940036773682 2043.40576
194.0056   478.48538  59.93844   32.63854   0.3358399868011475 2.322230100631714 2046.06885
194.158    475.81656  61.37975   33.10502   0.3278200030326843 2.327569961547852 2050.82104
194.3104   472.91815  59.28409   27.63329   0.3504999876022339 2.252350091934204 2074.64282
194.4628   468.42014  60.92009   20.94126   0.3510999977588654 2.419310092926025 2098.66821
194.6152   463.93369  63.80263   16.24379   0.4016700088977814 2.611409902572632 2111.19873
194.7676   461.2402   74.49876   11.71789   0.404449999332428 2.716279983520508 2108.9624 
194.92     459.35873  76.60194   11.70237   0.4346199929714203 2.818120002746582 2101.95825
195.0724   460.70511  79.99075000000001 12.23553   0.4132100045681 2.826900005340576 2102.74023
195.2248   463.47787  78.37042   13.5527    0.4292899966239929 2.789560079574585 2103.20972
195.3772   471.62207  82.10981   11.37459   0.4107800126075745 2.769160032272339 2101.72803
195.5296   481.49219  83.62877   10.13396   0.3693499863147736 2.57315993309021 2098.5022 
195.682    493.77426  92.19783   5.59428    0.3705399930477142 2.642810106277466 2098.00781
195.8344   505.69217  99.49747000000001 2.69177    0.4959999918937683 2.647670030593872 2100.89331
195.9868   516.5354   103.82097  2.34898    0.5968400239944458 2.886709928512573 2096.83716
196.1392   523.08923  96.62286   2.57732    0.5495700240135193 3.077600002288818 2086.44873
196.2916   525.39246  88.97272   2.47536    0.5364099740982056 2.849940061569214 2069.5564 
196.444    524.27252  86.63594000000001 2.41555    0.4821799993515015 2.916110038757324 2070.56689
196.5964   523.66998  91.02967   2.36697    0.5247399806976318 2.863699913024902 2067.39185
196.7488   521.28741  96.06216999999999 2.04671    0.520579993724823 2.590559959411621 2056.17847
196.9012   520.9032   95.94535999999999 1.73982    0.5394899845123291 2.556509971618652 2043.31226
197.0536   521.3333699999999 97.40983   3.0614     0.5422599911689758 2.39766001701355 2028.55225
197.206    519.78302  99.97284000000001 2.6278     0.6075199842453003 2.420569896697998 2031.33276
197.3584   515.36371  104.64664  1.83252    0.636430025100708 2.379679918289185 2027.19519
197.5108   514.6951299999999 102.2473   2.23722    0.5864700078964233 2.21107006072998 2034.3158 
197.6632   514.15826  100.02712  2.80438    0.6021400094032288 2.151619911193848 2020.01709
197.8156   516.37555  93.01606   3.44036    0.5318800210952759 2.522860050201416 2025.00586
197.968    517.63086  93.36673   3.66507    0.5536100268363953 2.134569883346558 2015.27576
198.1204   517.32452  91.40338   3.28737    0.516569972038269 2.458230018615723 2012.63599
198.2728   516.02197  93.03928000000001 2.93753    0.5159199833869934 2.413470029830933 1985.39038
198.4252   514.3764   94.34044   2.64966    0.6134399771690369 1.846300005912781 1997.40381
198.5776   506.24658  96.77114   2.76898    0.5258100032806396 2.267580032348633 2019.88147
198.73     499.20996  98.05663   3.37181    0.4915600121021271 2.548759937286377 2055.40845
198.8824   498.13507  95.7038    4.3147     0.4230700135231018 2.571300029754639 2067.9436 
199.0348   495.55533  93.39767000000001 4.53417    0.4702700078487396 2.514569997787476 2089.63354
199.1872   494.92651  93.04706   4.31604    0.5528200268745422 2.489459991455078 2099.83813
199.3396   488.54977  89.42455   4.24333    0.5976700186729431 2.640980005264282 2104.85449
199.492    482.5686   89.79871   4.17345    0.4884499907493591 2.578219890594482 2101.4314 
199.6444   482.56564  89.91558999999999 3.81253    0.4946700036525726 2.689110040664673 2095.20776
199.7968   484.58414  90.38292   4.73937    0.477979987859726 2.609369993209839 2089.77905
199.9492   482.40833  88.92603   7.92907    0.3946300148963928 2.537600040435791 2081.14941
200.1016   480.09113  84.39985   7.49603    0.4007200002670288 2.579580068588257 2082.42505
200.254    475.10504  82.29647   8.05527    0.4459800124168396 2.637939929962158 2075.53906
200.4064   434.14871  79.01699000000001 11.92194   0.3938499987125397 2.562060117721558 2067.38525
200.5588   417.69864  71.39014   14.64188   0.4325099885463715 2.499239921569824 2058.96045
200.7112   394.06992  63.91144   21.69211   0.461080014705658 2.561739921569824 2092.79346
200.8636   386.34113  54.81229   28.73215   0.4325500130653381 2.934319972991943 2159.84351
201.016    394.39999  55.16323   47.63612   0.3487400114536285 3.72406005859375 2216.58691
201.1684   433.66431  51.65776   45.50035   0.3656199872493744 3.956979990005493 2203.16406
201.3208   450.28284  50.1307    25.71139   0.4167099893093109 2.855220079421997 2133.46777
201.4732   458.15421  47.31041   24.94987   0.3884899914264679 2.47625994682312 2072.12964
201.6256   464.94818  52.10138   24.7856    0.386790007352829 2.435699939727783 2046.12354
201.778    467.62375  57.00942   23.73168   0.3839200139045715 2.321229934692383 2046.4408 
201.9304   465.78052  57.38324   22.83358   0.3811799883842468 2.287480115890503 2044.14844
202.0828   463.56372  55.86411   22.19567   0.4122799932956696 2.396569967269897 2042.46667
202.2352   461.98615  54.9292    21.7567    0.4339900016784668 2.530210018157959 2035.28479
202.3876   460.99426  56.20678   22.1992    0.424919992685318 2.446069955825806 2028.80579
202.54     459.7056   53.45667   22.12369   0.4108400046825409 2.40802001953125 2025.84961
202.6924   460.95297  51.93753   21.97336   0.4352400004863739 2.369420051574707 2032.02393
202.8448   459.603    54.04123   22.34734   0.4392800033092499 2.338069915771484 2038.31262
202.9972   461.98334  56.90819   21.96241   0.4790700078010559 2.33102011680603 2036.53601
203.1496   462.12088  56.97828   21.90321   0.4184199869632721 2.356149911880493 2031.01367
203.302    462.08185  52.42069   22.14841   0.3723599910736084 2.330749988555908 2028.66577
203.4544   463.83115  53.29329   21.51852   0.4206700026988983 2.428920030593872 2029.66113
203.6068   461.88077  55.91087   21.00237   0.4195699989795685 2.367219924926758 2033.98413
203.7592   461.50159  60.70202   22.02175   0.4284699857234955 2.383359909057617 2035.98047
203.9116   461.49521  62.75074   20.26134   0.4083899855613708 2.383349895477295 2034.93738
