~Version
 VERS              .         2.0                           : CWLS LOG ASCII STANDARD - VERSION 2.0
 WRAP              .         NO                            : ONE LINE PER DEPTH STEP
 DLM               .         SPACE                         : DELIMITING CHARACTER(SPACE TAB OR COMMA)
~Well Information
#_______________________________________________________________________________
#
#PARAMETER_NAME    .UNIT     VALUE                         : DESCRIPTION
#_______________________________________________________________________________
STRT               .M        -8.0768                       : First reference value
STOP               .M        356.464                       : Last reference value
STEP               .M        0.1524                        : Step increment
NULL               .         -9999                         : Missing value
COMP               .                                       : Company
WELL               .         C                             : Well name
FLD                .                                       : Field
LOC                .                                       : Location
CNTY               .                                       : County
STAT               .                                       : State
CTRY               .                                       : Country
SRVC               .                                       : Service Company
DATE               .                                       : Date
API                .                                       : API number
~Parameter Information Block
#_______________________________________________________________________________
#
#PARAMETER_NAME    .UNIT     VALUE                         : DESCRIPTION
#_______________________________________________________________________________
SET                .         Logs                          : 
TLFamily_DEPT      .         Measured Depth                : 
TLFamily_DT        .         Compressional Slowness        : 
TLFamily_GR        .         Gamma Ray                     : 
TLFamily_ILD       .         Resistivity - Deep            : 
TLFamily_NPOR_LIM  .         Thermal Neutron Porosity Limestone: 
TLFamily_PEF       .         Photoelectric Factor          : 
TLFamily_RHO       .         Bulk Density                  : 
~Curve Information
#_______________________________________________________________________________
#
#LOGNAME           .UNIT     LOG_ID                        : DESCRIPTION
#_______________________________________________________________________________
DEPT               .M                                      : 1 Depth Index - Measured Depth 
DT                 .US/M                                   : 3 DELTA-T COMPRESSIONAL 
GR                 .GAPI                                   : 51 GAMMA RAY (F14.5) **MERGED** 
ILD                .OHMM                                   : 28 ARRAY INDUCTION ONE FOOT RESISTIVITY A90 (F14.5) **MERGED** 
NPOR_LIM           .V/V                                    : 80 ENHANCED THERMAL NEUTRON POROSITY (MATRIX LIMESTONE) (F14.5) **MERGED** 
PEF                .B/E                                    : 85 HIGH RESOLUTION FORMATION PHOTOELECTRIC FACTOR (F14.5) **MERGED** 
RHO                .K/M3                                   : 87 STANDARD RESOLUTION FORMATION DENSITY (F14.5) **MERGED** 
~Ascii
# ...
55.3216    -9999      71.21850000000001 3.104729890823364 0.4647000133991241 9.01356029510498 2054.01607
55.474     -9999      72.82001   3.104729890823364 0.41975998878479 8.809709548950195 2046.17384
55.6264    -9999      73.98666   3.104729890823364 0.4297699928283691 8.882080078125 2033.38268
55.7788    -9999      74.24442999999999 3.104729890823364 0.5107200145721436 8.794520378112793 2018.60154
55.9312    -9999      70.99464   3.104729890823364 0.5280600190162659 8.872540473937988 2009.0547 
56.0836    -9999      63.52974   3.104729890823364 0.5811100006103516 8.627900123596191 2016.36109
56.236     -9999      61.39838   3.104729890823364 0.7287300229072571 8.676179885864258 2040.91136
56.3884    -9999      61.40579   3.104729890823364 0.7230200171470642 8.820630073547363 2061.56476
56.5408    -9999      64.07384   3.104729890823364 0.6987900137901306 8.829970359802246 2068.43601
56.6932    -9999      65.77985   3.104729890823364 0.6102100014686584 8.94159984588623 2061.73498
56.8456    -9999      68.74523000000001 3.104729890823364 0.4706700146198273 8.955769538879395 2057.23033
56.998     -9999      69.54491   3.104729890823364 0.478740006685257 9.08253002166748 2055.97561
57.1504    -9999      69.54353999999999 3.104729890823364 0.5514100193977356 8.962610244750977 2057.29933
57.3028    -9999      68.99815   3.104729890823364 0.5730599761009216 8.965100288391113 2063.34084
57.4552    -9999      64.18409   3.104729890823364 0.4739899933338165 9.043120384216309 2100.51926
57.6076    -9999      56.95466   3.104729890823364 0.606719970703125 8.964710235595703 2159.03146
57.76      -9999      55.63579   3.104729890823364 0.5435299873352051 9.724180221557617 2221.84463
57.9124    -9999      60.49543   3.104729890823364 0.675570011138916 9.568019866943359 2228.62325
58.0648    -9999      72.41428000000001 3.104729890823364 0.6525599956512451 8.686599731445313 2175.19423
58.2172    -9999      71.55435   3.104729890823364 0.5590400099754333 8.817279815673828 2113.37429
58.3696    -9999      73.90356   3.104729890823364 0.5477799773216248 9.076339721679688 2081.48642
58.522     -9999      68.05059   3.104729890823364 0.7204200029373169 9.189680099487305 2087.83131
58.6744    -9999      71.07877999999999 3.104729890823364 0.7722300291061401 9.10612964630127 2088.3015 
58.8268    -9999      70.28473   3.104729890823364 0.8816900253295898 9.167810440063477 2089.71073
58.9792    -9999      72.38006   3.104729890823364 0.5201600193977356 9.080769538879395 2098.14553
59.1316    -9999      71.27627   3.104729890823364 0.4217100143432617 8.962120056152344 2124.72466
59.284     -9999      69.48878999999999 3.104729890823364 0.3503499925136566 9.071840286254883 2174.12505
59.4364    -9999      73.53388   3.104729890823364 0.3403100073337555 9.192500114440918 2253.95384
59.5888    -9999      79.38959   3.104729890823364 0.4632099866867065 9.29185962677002 2333.9808 
59.7412    -9999      77.51223   3.104729890823364 0.4102500081062317 9.40386962890625 2392.46535
59.8936    -9999      72.71507   3.104729890823364 0.4429999887943268 8.758729934692383 2429.31413
60.046     -9999      72.15627000000001 3.104729890823364 0.4837599992752075 8.462010383605957 2469.12372
60.1984    -9999      74.76269000000001 3.104729890823364 0.6740400195121765 8.314789772033691 2520.68358
60.3508    -9999      78.30597   3.104729890823364 0.7524700164794922 8.383489608764648 2555.93542
60.5032    -9999      70.89264   3.104729890823364 0.5151600241661072 8.331009864807129 2591.04316
60.6556    -9999      75.67692   3.104729890823364 0.5366399884223938 8.685139656066895 2589.2897 
60.808     -9999      71.48066   3.104729890823364 0.6116700172424316 9.333990097045898 2564.93438
60.9604    -9999      71.19256   3.104729890823364 0.5743399858474731 9.303250312805176 2524.79705
61.1128    -9999      62.9321    3.104729890823364 0.440530002117157 9.400870323181152 2493.66475
61.2652    -9999      62.01246   3.104729890823364 0.5333700180053711 9.45950984954834 2484.44243
61.4176    -9999      66.83257   3.104729890823364 0.5947800278663635 9.53555965423584 2475.75347
61.57      -9999      76.33439   3.104729890823364 0.862060010433197 9.549289703369141 2480.41262
61.7224    -9999      80.82971000000001 3.104729890823364 0.5501400232315063 9.563449859619141 2479.82853
61.8748    -9999      80.81104000000001 3.104729890823364 0.5268200039863586 9.753939628601074 2465.03064
62.0272    -9999      73.57392   3.104729890823364 0.5089200139045715 9.996760368347168 2423.89756
62.1796    -9999      69.30334000000001 3.104729890823364 0.6470500230789185 10         2358.69945
62.332     -9999      66.13540999999999 3.104729890823364 0.4572199881076813 10         2317.82145
62.4844    -9999      64.67577   3.104729890823364 0.5025799870491028 9.998760223388672 2368.72655
62.6368    -9999      66.76921   3.104729890823364 0.4998500049114227 9.529069900512695 2511.9407 
62.7892    -9999      65.14484   3.104729890823364 0.7173299789428711 9.802599906921387 2680.25659
62.9416    -9999      67.79648   3.104729890823364 0.5067600011825562 10         2792.19436
63.094     -9999      63.1409    3.104729890823364 0.4929499924182892 10         2848.23008
63.2464    -9999      65.53986   3.104729890823364 0.4069600105285645 9.999970436096191 2880.15358
63.3988    -9999      66.20643   3.104729890823364 0.4748199880123138 9.988369941711426 2904.24029
63.5512    -9999      66.38061999999999 3.104729890823364 0.4032700061798096 9.999810218811035 2923.65305
63.7036    -9999      69.33641   3.104729890823364 0.3825100064277649 9.928979873657227 2924.91424
63.856     -9999      66.27959   3.104729890823364 0.418179988861084 9.934659957885742 2914.36339
64.00839999999999 -9999      68.91249999999999 3.104729890823364 0.3681400120258331 10         2897.02104
64.16079999999999 -9999      69.69765   3.104729890823364 0.4545100033283234 10         2884.60599
64.31319999999999 -9999      76.8991    3.104729890823364 0.4183399975299835 9.999959945678711 2884.18235
64.46559999999999 -9999      80.14587   3.104729890823364 0.4574300050735474 9.983830451965332 2895.54171
64.61799999999999 -9999      74.0098    3.104729890823364 0.6199100017547607 10         2915.41559
64.7704    -9999      70.54732   3.104729890823364 0.7160300016403198 9.99962043762207 2928.05166
64.9228    -9999      70.79210999999999 3.104729890823364 0.657800018787384 9.856820106506348 2925.05998
65.0752    -9999      75.05877   3.104729890823364 0.4999400079250336 9.999990463256836 2896.0328 
65.2276    -9999      76.95471000000001 3.104729890823364 0.552869975566864 9.995490074157715 2876.13841
65.38      -9999      76.15558   3.104729890823364 0.6033099889755249 9.999979972839355 2847.83707
65.5324    -9999      76.14603   3.104729890823364 0.5977399945259094 9.99174976348877 2848.52598
65.6848    -9999      72.42328999999999 3.104729890823364 0.5135999917984009 9.974570274353027 2841.81757
65.8372    -9999      75.08602   3.104729890823364 0.4666999876499176 9.999919891357422 2851.73645
65.9896    -9999      74.78922   3.104729890823364 0.5788800120353699 9.9693603515625 2856.89015
66.142     -9999      75.81323999999999 3.104729890823364 0.5625100135803223 9.936470031738281 2858.66034
66.2944    -9999      72.54594   3.104729890823364 0.7688500285148621 9.897299766540527 2859.46775
66.4468    -9999      70.99381   3.104729890823364 0.5785999894142151 9.999979972839355 2857.61447
66.5992    -9999      76.06419   3.104729890823364 0.593280017375946 9.992919921875 2861.7028 
66.7516    -9999      79.56598   3.104729890823364 0.6583300232887268 9.999859809875488 2868.95083
66.904     -9999      81.42531   3.104729890823364 0.7413700222969055 9.945659637451172 2885.97969
67.0564    -9999      79.2757    3.104729890823364 0.6929399967193604 10         2991.20687
67.2088    -9999      72.37541   3.104729890823364 0.6358600258827209 10         3219.33061
67.3612    -9999      69.74027   3.104729890823364 0.4397000074386597 10         3450.9784 
67.5136    -9999      67.88806   3.104729890823364 0.452129989862442 9.999409675598145 3477.00194
