~Version
 VERS              .         2.0                           : CWLS LOG ASCII STANDARD - VERSION 2.0
 WRAP              .         NO                            : ONE LINE PER DEPTH STEP
 DLM               .         SPACE                         : DELIMITING CHARACTER(SPACE TAB OR COMMA)
~Well Information
#_______________________________________________________________________________
#
#PARAMETER_NAME    .UNIT     VALUE                         : DESCRIPTION
#_______________________________________________________________________________
STRT               .M        -8.0768                       : First reference value
STOP               .M        356.464                       : Last reference value
STEP               .M        0.1524                        : Step increment
NULL               .         -9999                         : Missing value
COMP               .                                       : Company
WELL               .         C                             : Well name
FLD                .                                       : Field
LOC                .                                       : Location
CNTY               .                                       : County
STAT               .                                       : State
CTRY               .                                       : Country
SRVC               .                                       : Service Company
DATE               .                                       : Date
API                .                                       : API number
~Parameter Information Block
#_______________________________________________________________________________
#
#PARAMETER_NAME    .UNIT     VALUE                         : DESCRIPTION
#_______________________________________________________________________________
SET                .         Logs                          : 
TLFamily_DEPT      .         Measured Depth                : 
TLFamily_DT        .         Compressional Slowness        : 
TLFamily_GR        .         Gamma Ray                     : 
TLFamily_ILD       .         Resistivity - Deep            : 
TLFamily_NPOR_LIM  .         Thermal Neutron Porosity Limestone: 
TLFamily_PEF       .         Photoelectric Factor          : 
TLFamily_RHO       .         Bulk Density                  : 
~Curve Information
#_______________________________________________________________________________
#
#LOGNAME           .UNIT     LOG_ID                        : DESCRIPTION
#_______________________________________________________________________________
DEPT               .M                                      : 1 Depth Index - Measured Depth 
DT                 .US/M                                   : 3 DELTA-T COMPRESSIONAL 
GR                 .GAPI                                   : 51 GAMMA RAY (F14.5) **MERGED** 
ILD                .OHMM                                   : 28 ARRAY INDUCTION ONE FOOT RESISTIVITY A90 (F14.5) **MERGED** 
NPOR_LIM           .V/V                                    : 80 ENHANCED THERMAL NEUTRON POROSITY (MATRIX LIMESTONE) (F14.5) **MERGED** 
PEF                .B/E                                    : 85 HIGH RESOLUTION FORMATION PHOTOELECTRIC FACTOR (F14.5) **MERGED** 
RHO                .K/M3                                   : 87 STANDARD RESOLUTION FORMATION DENSITY (F14.5) **MERGED** 
~Ascii
# ...
335.89     430.9361   35.66388   0.97875    0.3517099916934967 1.613010048866272 2039.25891
336.0424   426.58606  39.49678   0.9938900000000001 0.3410399854183197 1.688269972801208 2060.18506
336.1948   423.6293   48.61135   1.12004    0.3563100099563599 1.689319968223572 2088.64136
336.3472   419.8735   61.09925   1.25142    0.3077299892902374 1.890450000762939 2119.62109
336.4996   417.00586  67.05871999999999 1.43945    0.3293200135231018 1.954779982566833 2146.17969
336.652    413.96545  65.89026   1.51084    0.3341600000858307 2.051899909973145 2165.5271 
336.8044   412.58365  66.95757   1.48453    0.3294599950313568 1.991039991378784 2171.22559
336.9568   412.38303  70.25299   1.42409    0.3465400040149689 1.955350041389465 2162.70728
337.1092   413.54279  68.73389   1.3455     0.3699100017547607 2.027080059051514 2141.83984
337.2616   413.13525  62.42367   1.1525     0.3592900037765503 1.724529981613159 2129.95923
337.414    412.14838  62.04976   1.12936    0.2961899936199188 1.612589955329895 2142.6438 
337.5664   411.49142  66.98521   1.40633    0.3094399869441986 2.043649911880493 2170.6062 
337.7188   411.45654  73.17874   1.56702    0.3373000025749207 1.95195996761322 2190.00024
337.8712   411.34503  72.12691   1.4775     0.3378500044345856 1.971590042114258 2191.34473
338.0236   413.07898  66.49027   1.38978    0.3441500067710876 1.932770013809204 2168.88062
338.176    418.56763  54.92139   1.24475    0.3681100010871887 1.915770053863525 2130.37134
338.3284   421.47485  45.22263   1.0188     0.3235400021076202 1.682010054588318 2084.70435
338.4808   422.19357  42.94053   0.92932    0.3341600000858307 1.633270025253296 2066.91895
338.6332   420.98325  49.60118   1.0111     0.3375700116157532 1.673230051994324 2084.77222
338.7856   420.04059  59.18317   1.19312    0.3155600130558014 1.672899961471558 2119.9043 
338.938    417.24445  61.11475   1.39658    0.3290199935436249 1.920930027961731 2138.67017
339.0904   417.1828   60.64738   1.24397    0.3735400140285492 1.681139945983887 2137.10693
339.2428   418.17337  56.32372   1.27934    0.3678100109100342 1.857990026473999 2131.64624
339.3952   418.57938  57.14175   1.25678    0.3675700128078461 1.753739953041077 2130.47412
339.5476   417.73074  53.75311   1.2248     0.3713900148868561 1.936030030250549 2128.27368
339.7      418.01117  49.14896   1.15206    0.357230007648468 1.772650003433228 2111.90405
339.8524   417.4924   42.95561   1.12064    0.3159900009632111 1.668339967727661 2099.34937
340.0048   416.70697  41.17153   1.06575    0.3056800067424774 1.601359963417053 2091.40723
340.1572   388.43939  37.8296    1.07838    0.3017300069332123 1.681820034980774 2094.21411
340.3096   378.98242  36.77789   1.10815    0.2962999939918518 1.544319987297058 2100.35083
340.462    371.67914  35.15744   1.26554    0.3183099925518036 1.715680003166199 2126.08398
340.6144   352.09543  34.57316   1.52651    0.3283500075340271 2.880840063095093 2177.01611
340.7668   341.42661  34.46408   2.24604    0.3116999864578247 4.099530220031738 2241.85254
340.9192   332.9834   34.9472    3.03465    0.26596999168396 4.185649871826172 2301.00439
341.0716   311.19565  35.53139   4.17285    0.2587099969387054 4.332900047302246 2354.7998 
341.224    298.52332  36.94663   4.88227    0.251910001039505 4.478310108184814 2391.54517
341.3764   290.17099  33.41344   4.81814    0.24269999563694 4.503409862518311 2407.40991
341.5288   286.68735  32.00434   4.66325    0.2432499974966049 4.531579971313477 2401.73145
341.6812   278.44168  28.79165   4.81007    0.2372699975967407 4.724999904632568 2407.70972
341.8336   279.11148  27.23002   4.65985    0.2295199930667877 4.638289928436279 2429.92163
341.986    269.85205  26.11853   4.93169    0.2150699943304062 4.614640235900879 2447.33276
342.1384   259.35458  25.18093   5.47516    0.1849499940872192 4.587709903717041 2456.07373
342.2908   254.95482  26.6921    5.98827    0.1826499998569489 4.551909923553467 2452.78711
342.4432   246.79095  26.75884   6.8148     0.1987800002098083 4.715240001678467 2446.11035
342.5956   233.2162   28.3693    7.81613    0.1796199977397919 4.434110164642334 2435.65308
342.748    228.00487  27.11691   7.95361    0.1398299932479858 4.607069969177246 2449.63428
342.9004   223.67351  28.13873   8.034520000000001 0.1291200071573257 4.730539798736572 2483.75732
343.0528   220.70827  27.26912   8.29978    0.1307400017976761 4.844079971313477 2512.92407
343.2052   218.32559  27.1122    9.41339    0.1339000016450882 4.877039909362793 2520.74463
343.3576   213.28639  26.34535   10.0485    0.1193400025367737 4.816949844360352 2527.0979 
343.51     215.4382   27.15271   10.97591   0.1077800020575523 4.939730167388916 2537.65991
343.6624   220.13213  28.64001   10.71514   0.1218700036406517 4.774630069732666 2543.31567
343.8148   228.46031  29.07053   9.297169999999999 0.1431799978017807 4.592520236968994 2542.37329
343.9672   227.57047  28.40699   9.763590000000001 0.1527899950742722 4.649199962615967 2547.92456
344.1196   228.65179  28.16914   10.03481   0.1359100043773651 4.786880016326904 2560.18579
344.272    224.79945  29.32801   12.92474   0.1333599984645844 4.899310111999512 2575.07202
344.4244   221.00316  30.17402   13.19887   0.1345899999141693 4.867650032043457 2574.56274
344.5768   213.77126  31.01455   14.08604   0.1412899941205978 4.968239784240723 2565.69019
344.7292   209.51518  29.20928   14.46228   0.1400099992752075 4.853330135345459 2548.37354
344.8816   210.2625   26.54906   14.34763   -36817.49998 4.747029781341553 2546.63574
345.034    212.69576  26.54906   13.18427   -9999      4.644949913024902 2551.9917 
345.1864   215.04181  26.54906   13.06283   -9999      4.897449970245361 2555.96631
345.3388   216.88199  26.54906   13.10629   -9999      4.698999881744385 2546.44775
345.4912   215.6373   26.54906   14.02544   -9999      4.713520050048828 2546.81616
345.6436   214.25613  26.54906   16.17581   -9999      4.734409809112549 2560.68652
345.796    210.01881  26.54906   20.4223    -9999      4.731579780578613 2588.57153
345.9484   207.77649  26.54906   20.95507   -9999      4.879340171813965 2618.27515
346.1008   203.37846  26.54906   21.35401   -9999      5.136929988861084 2654.95752
346.2532   198.7421   26.54906   22.09846   -9999      5.865890026092529 2680.59595
346.4056   196.3185   26.54906   23.28354   -9999      5.622399806976318 2687.77197
346.558    192.83339  26.54906   27.15872   -9999      5.311560153961182 2665.10913
346.7104   190.17509  26.54906   25.87897   -9999      5.172669887542725 2642.80151
346.8628   189.24193  26.54906   24.68111   -9999      4.976590156555176 2623.23218
347.0152   187.94695  26.54906   24.54725   -9999      5.104579925537109 2614.18506
347.1676   188.79457  26.54906   24.44071   -9999      4.975570201873779 2608.60278
347.32     190.47585  26.54906   23.63709   -9999      4.9581298828125 2600.56055
347.4724   192.03519  26.54906   22.90647   -9999      4.843140125274658 2601.42578
347.6248   191.80423  26.54906   22.05091   -9999      4.848690032958984 2601.04053
347.7772   192.78239  26.54906   21.11675   -9999      4.875120162963867 2602.90454
347.9296   190.47235  26.54906   20.92788   -9999      4.891660213470459 2603.34619
348.082    190.25905  26.54906   21.04412   -9999      4.822090148925781 2600.07007
348.2344   188.68968  26.54906   22.62379   -9999      4.861179828643799 2602.04004
348.3868   189.60092  26.54906   24.691     -9999      4.915390014648438 2602.46289
348.5392   192.45705  26.54906   23.04975   -9999      4.909619808197021 2608.99048
348.6916   197.59404  26.54906   22.15063   -9999      4.942830085754395 2614.67798
348.844    203.19016  26.54906   20.71718   -9999      4.938300132751465 2618.48291
348.9964   -9999      26.54906   16.92097   -9999      4.96088981628418 2619.07275
349.1488   -9999      26.54906   14.58721   -9999      -36524.90379 999999.99999
349.3012   -9999      26.54906   14.91659   -9999      -9999      -9999     
349.4536   -9999      26.54906   15.88069   -9999      -9999      -9999     
