~Version
 VERS              .         2.0                           : CWLS LOG ASCII STANDARD - VERSION 2.0
 WRAP              .         NO                            : ONE LINE PER DEPTH STEP
 DLM               .         SPACE                         : DELIMITING CHARACTER(SPACE TAB OR COMMA)
~Well Information
#_______________________________________________________________________________
#
#PARAMETER_NAME    .UNIT     VALUE                         : DESCRIPTION
#_______________________________________________________________________________
STRT               .M        -8.0768                       : First reference value
STOP               .M        356.464                       : Last reference value
STEP               .M        0.1524                        : Step increment
NULL               .         -9999                         : Missing value
COMP               .                                       : Company
WELL               .         C                             : Well name
FLD                .                                       : Field
LOC                .                                       : Location
CNTY               .                                       : County
STAT               .                                       : State
CTRY               .                                       : Country
SRVC               .                                       : Service Company
DATE               .                                       : Date
API                .                                       : API number
~Parameter Information Block
#_______________________________________________________________________________
#
#PARAMETER_NAME    .UNIT     VALUE                         : DESCRIPTION
#_______________________________________________________________________________
SET                .         Logs                          : 
TLFamily_DEPT      .         Measured Depth                : 
TLFamily_DT        .         Compressional Slowness        : 
TLFamily_GR        .         Gamma Ray                     : 
TLFamily_ILD       .         Resistivity - Deep            : 
TLFamily_NPOR_LIM  .         Thermal Neutron Porosity Limestone: 
TLFamily_PEF       .         Photoelectric Factor          : 
TLFamily_RHO       .         Bulk Density                  : 
~Curve Information
#_______________________________________________________________________________
#
#LOGNAME           .UNIT     LOG_ID                        : DESCRIPTION
#_______________________________________________________________________________
DEPT               .M                                      : 1 Depth Index - Measured Depth 
DT                 .US/M                                   : 3 DELTA-T COMPRESSIONAL 
GR                 .GAPI                                   : 51 GAMMA RAY (F14.5) **MERGED** 
ILD                .OHMM                                   : 28 ARRAY INDUCTION ONE FOOT RESISTIVITY A90 (F14.5) **MERGED** 
NPOR_LIM           .V/V                                    : 80 ENHANCED THERMAL NEUTRON POROSITY (MATRIX LIMESTONE) (F14.5) **MERGED** 
PEF                .B/E                                    : 85 HIGH RESOLUTION FORMATION PHOTOELECTRIC FACTOR (F14.5) **MERGED** 
RHO                .K/M3                                   : 87 STANDARD RESOLUTION FORMATION DENSITY (F14.5) **MERGED** 
~Ascii
# ...
217.4752   434.93024  64.23884   17.66646   0.3865100145339966 2.35647988319397 2102.62305
217.6276   432.86032  64.36345   18.31415   0.374210000038147 2.315129995346069 2097.73779
217.78     431.72964  61.79259   18.20613   0.3799799978733063 2.386480093002319 2093.73462
217.9324   431.30481  61.44201   18.15657   0.36353999376297 2.431619882583618 2094.53833
218.0848   432.13303  60.99779   18.5931    0.3833999931812286 2.445679903030396 2095.69629
218.2372   433.53094  61.68336   18.68731   0.3889600038528442 2.383409976959229 2093.4978 
218.3896   434.34824  63.08559   19.24633   0.394679993391037 2.441679954528809 2089.36792
218.542    434.34995  60.28115   19.02773   0.3945299983024597 2.423799991607666 2086.53003
218.6944   435.13321  59.15957   18.88526   0.3598400056362152 2.391760110855103 2085.66602
218.8468   435.88724  59.62701   18.83386   0.3855699896812439 2.371299982070923 2087.7085 
218.9992   434.82803  60.79554   18.87027   0.4028699994087219 2.392299890518188 2096.41577
219.1516   433.59399  63.21816   18.07608   0.4362600147724152 2.442630052566528 2106.38477
219.304    433.0004   62.16659   17.89347   0.4233900010585785 2.318510055541992 2111.95996
219.4564   432.38773  61.93278   18.08201   0.4370799958705902 2.229860067367554 2107.08276
219.6088   432.80948  62.04951   18.1938    0.4063099920749664 2.416620016098022 2097.93286
219.7612   432.65018  65.04079   18.46226   0.3974500000476837 2.333770036697388 2095.38208
219.9136   432.95328  65.97598000000001 18.32434   0.3939799964427948 2.3961501121521 2095.94092
220.066    434.06378  67.61221   18.08787   0.4056800007820129 2.326210021972656 2101.75757
220.2184   433.80896  66.98909   17.88543   0.424699991941452 2.413559913635254 2100.39014
220.3708   434.828    71.54618000000001 18.03866   0.429749995470047 2.497819900512695 2098.48633
220.5232   434.95209  72.23157999999999 17.75732   0.4040800034999847 2.446710109710693 2092.73315
220.6756   434.3681   73.95322   18.25547   0.4160099923610687 2.350840091705322 2093.50049
220.828    434.33301  71.39807   18.28929   0.4196400046348572 2.406670093536377 2095.73169
220.9804   433.74747  71.41370000000001 18.88396   0.4386999905109406 2.416290044784546 2102.52246
221.1328   432.78702  71.17986999999999 18.9702    0.3894599974155426 2.34168004989624 2101.08203
221.2852   432.07224  72.42606000000001 18.996     0.389820009469986 2.410020112991333 2101.36914
221.4376   431.617    69.15416   18.9888    0.4173600077629089 2.410739898681641 2102.53491
221.59     431.7623   70.20576   19.08782   0.3969799876213074 2.341880083084106 2112.19678
221.7424   432.14624  67.58842   17.9105    0.376690000295639 2.378959894180298 2116.32715
221.8948   430.08777  68.17278   16.4168    0.3825699985027313 2.429470062255859 2111.30493
222.0472   429.41647  67.87701   17.95476   0.3892999887466431 2.406980037689209 2105.07983
222.1996   428.64789  66.77847   19.34117   0.3731400072574615 2.382479906082153 2108.49951
222.352    428.33356  68.41428999999999 20.0234    0.3602499961853027 2.47859001159668 2119.66357
222.5044   428.74216  64.15289   21.31874   0.391979992389679 2.824100017547607 2129.21802
222.6568   430.73941  65.75011000000001 21.38847   0.3972199857234955 2.594690084457397 2123.87378
222.8092   435.48648  64.46464   20.61009   0.3701800107955933 2.523979902267456 2113.66895
222.9616   436.24628  66.35774000000001 19.24818   0.3870599865913391 2.436439990997314 2099.44312
223.114    437.70523  69.43488000000001 17.32283   0.4139100015163422 2.521539926528931 2093.37158
223.2664   437.8251   71.88905   14.98341   0.4375100135803223 2.431940078735352 2092.98804
223.4188   437.1109   71.88883   15.28232   0.4278900027275085 2.366669893264771 2097.66699
223.5712   435.87408  70.36972   16.5945    0.4087800085544586 2.400099992752075 2106.19043
223.7236   435.57486  69.084     17.75273   0.3604899942874908 2.576859951019287 2107.97266
223.876    435.52939  71.04719   19.27764   0.3637599945068359 2.397809982299805 2105.85913
224.0284   438.33136  68.86581   19.56324   0.3992199897766113 2.495049953460693 2103.28735
224.1808   441.42426  69.09976   19.45152   0.4179899990558624 2.380660057067871 2107.55737
224.3332   443.93793  69.62969   16.6165    0.4182299971580505 2.334110021591187 2111.69165
224.4856   445.41696  73.91444   11.38755   0.3973299860954285 2.473000049591064 2113.99048
224.638    444.22253  75.31679   11.4791    0.4468899965286255 2.540640115737915 2109.66553
224.7904   442.08405  75.83839999999999 14.85086   0.4212700128555298 2.563770055770874 2102.55542
224.9428   438.9649   74.2958    18.19674   0.3844200074672699 2.48550009727478 2094.97925
225.0952   435.91132  72.54275   18.78288   0.3809199929237366 2.466690063476563 2092.37036
225.2476   435.3082   65.76542999999999 19.05482   0.4501399993896484 2.464449882507324 2094.17773
225.4      435.48398  64.6437    19.73239   0.4254199862480164 2.37024998664856 2096.84888
225.5524   437.45667  63.47527   19.57326   0.3966400027275085 2.538290023803711 2099.18164
225.7048   437.32007  69.85551   19.68009   0.4120000004768372 2.429140090942383 2102.20801
225.8572   438.96671  70.88370999999999 19.7119    0.3820900022983551 2.315210103988647 2103.69141
226.0096   441.08124  74.15569000000001 19.02787   0.3813000023365021 2.467880010604858 2103.22461
226.162    443.49677  71.41355   19.23039   0.4392600059509277 2.502370119094849 2099.75537
226.3144   444.25375  71.76421000000001 19.74275   0.4343799948692322 2.558769941329956 2094.2959 
226.4668   444.71149  68.1417    19.91017   0.4651400148868561 2.417079925537109 2091.11035
226.6192   445.36203  68.12586   19.57815   0.4100399911403656 2.334199905395508 2087.11938
226.7716   443.8945   68.59336999999999 18.89551   0.4280399978160858 2.427489995956421 2083.33838
226.924    442.02103  69.29443000000001 17.81245   0.4254400134086609 2.502480030059814 2080.66699
227.0764   438.18488  68.18834   18.0809    0.4313899874687195 2.388350009918213 2084.25122
227.2288   435.24011  63.98163   19.41383   0.4206399917602539 2.382889986038208 2091.79492
227.3812   435.24768  62.57938   19.31906   0.3998300135135651 2.322779893875122 2090.62109
227.5336   435.46857  64.15298   20.40743   0.3979200124740601 2.400660037994385 2086.65625
227.686    436.46783  66.76260000000001 20.53542   0.3949300050735474 2.402909994125366 2088.40552
227.8384   437.48486  70.96942   19.36127   0.4429900050163269 2.681119918823242 2094.00024
227.9908   441.45038  72.60549   18.00975   0.4620800018310547 2.494159936904907 2100.14722
228.1432   450.3819   75.25416   16.44528   0.4241999983787537 2.599030017852783 2100.16772
228.2956   458.56165  73.96862   17.12184   0.4300299882888794 2.581650018692017 2093.28442
228.448    463.31137  77.79040999999999 14.08207   0.4368000030517578 2.535589933395386 2092.89624
228.6004   470.19531  81.17946999999999 8.649699999999999 0.4211600124835968 2.466180086135864 2093.02563
228.7528   477.19589  86.20425   7.67417    0.4294900000095367 2.474730014801025 2094.51025
228.9052   484.78986  86.47224   7.40864    0.4384500086307526 2.574019908905029 2102.76953
229.0576   488.10052  85.20043   5.43424    0.4817799925804138 2.877749919891357 2101.823  
229.21     488.78436  83.5643    4.33928    0.491349995136261 2.50078010559082 2098.80054
229.3624   492.87717  84.03185000000001 4.58189    0.5228099822998047 2.734620094299316 2078.45044
229.5148   492.5112   84.13493   4.78305    0.4556300044059753 2.307130098342896 2057.02393
229.6672   489.05603  86.30070000000001 4.9934     0.4499300122261047 2.614399909973145 2018.32678
229.8196   484.52609  85.59932999999999 5.29825    0.4746899902820587 2.442389965057373 1983.73584
229.972    484.10785  87.95972   4.83904    0.5230600237846375 1.980110049247742 1955.46729
230.1244   489.37335  91.05273   4.7262     0.5139399766921997 2.632999897003174 1970.88928
230.2768   490.46756  94.67569   4.30685    0.5370799899101257 2.123519897460938 2000.4082 
230.4292   492.20145  93.42928000000001 3.94632    0.5072500109672546 2.470360040664673 2038.6228 
