~Version
 VERS              .         2.0                           : CWLS LOG ASCII STANDARD - VERSION 2.0
 WRAP              .         NO                            : ONE LINE PER DEPTH STEP
 DLM               .         SPACE                         : DELIMITING CHARACTER(SPACE TAB OR COMMA)
~Well Information
#_______________________________________________________________________________
#
#PARAMETER_NAME    .UNIT     VALUE                         : DESCRIPTION
#_______________________________________________________________________________
STRT               .M        -8.0768                       : First reference value
STOP               .M        356.464                       : Last reference value
STEP               .M        0.1524                        : Step increment
NULL               .         -9999                         : Missing value
COMP               .                                       : Company
WELL               .         C                             : Well name
FLD                .                                       : Field
LOC                .                                       : Location
CNTY               .                                       : County
STAT               .                                       : State
CTRY               .                                       : Country
SRVC               .                                       : Service Company
DATE               .                                       : Date
API                .                                       : API number
~Parameter Information Block
#_______________________________________________________________________________
#
#PARAMETER_NAME    .UNIT     VALUE                         : DESCRIPTION
#_______________________________________________________________________________
SET                .         Logs                          : 
TLFamily_DEPT      .         Measured Depth                : 
TLFamily_DT        .         Compressional Slowness        : 
TLFamily_GR        .         Gamma Ray                     : 
TLFamily_ILD       .         Resistivity - Deep            : 
TLFamily_NPOR_LIM  .         Thermal Neutron Porosity Limestone: 
TLFamily_PEF       .         Photoelectric Factor          : 
TLFamily_RHO       .         Bulk Density                  : 
~Curve Information
#_______________________________________________________________________________
#
#LOGNAME           .UNIT     LOG_ID                        : DESCRIPTION
#_______________________________________________________________________________
DEPT               .M                                      : 1 Depth Index - Measured Depth 
DT                 .US/M                                   : 3 DELTA-T COMPRESSIONAL 
GR                 .GAPI                                   : 51 GAMMA RAY (F14.5) **MERGED** 
ILD                .OHMM                                   : 28 ARRAY INDUCTION ONE FOOT RESISTIVITY A90 (F14.5) **MERGED** 
NPOR_LIM           .V/V                                    : 80 ENHANCED THERMAL NEUTRON POROSITY (MATRIX LIMESTONE) (F14.5) **MERGED** 
PEF                .B/E                                    : 85 HIGH RESOLUTION FORMATION PHOTOELECTRIC FACTOR (F14.5) **MERGED** 
RHO                .K/M3                                   : 87 STANDARD RESOLUTION FORMATION DENSITY (F14.5) **MERGED** 
~Ascii
# ...
42.9772    -9999      46.61098   3.104729890823364 0.4336499869823456 9.553910255432129 2047.34314
43.1296    -9999      47.63827   3.104729890823364 0.5237600207328796 9.534119606018066 2054.45461
43.282     -9999      45.77047   3.104729890823364 0.5397599935531616 9.505399703979492 2059.79701
43.4344    -9999      44.60419   3.104729890823364 0.5521799921989441 9.350890159606934 2076.67028
43.5868    -9999      44.33099   3.104729890823364 0.4298900067806244 9.489130020141602 2088.21603
43.7392    -9999      41.67885   3.104729890823364 0.3559899926185608 9.356809616088867 2086.67823
43.8916    -9999      46.19425   3.104729890823364 0.418179988861084 9.382169723510742 2071.78262
44.044     -9999      41.13747   3.104729890823364 0.4340499937534332 9.443320274353027 2051.58424
44.1964    -9999      42.99086   3.104729890823364 0.3624899983406067 9.334810256958008 2040.1831 
44.3488    -9999      38.73627   3.104729890823364 0.3458200097084045 9.300230026245117 2042.2168 
44.5012    -9999      41.65096   3.104729890823364 0.3863799870014191 9.190309524536133 2059.04959
44.6536    -9999      48.32908   3.104729890823364 0.3704400062561035 9.03048038482666 2091.41789
44.806     -9999      55.25182   3.104729890823364 0.3248200118541718 8.863550186157227 2153.34119
44.9584    -9999      53.84191   3.104729890823364 0.2480099946260452 8.879650115966797 2215.8508 
45.1108    -9999      49.57072   3.104729890823364 0.213579997420311 8.82880973815918 2260.57611
45.2632    -9999      46.1193    3.104729890823364 0.2303099930286407 8.726240158081055 2267.02416
45.4156    -9999      50.75777   3.104729890823364 0.293830007314682 8.672140121459961 2257.77469
45.568     -9999      54.48958   3.104729890823364 0.3264699876308441 8.714960098266602 2234.33366
45.7204    -9999      55.41516   3.104729890823364 0.3184300065040588 8.798769950866699 2205.9105 
45.8728    -9999      52.74599   3.104729890823364 0.2996000051498413 8.765259742736816 2168.75074
46.0252    -9999      50.80598   3.104729890823364 0.3143799901008606 8.726369857788086 2135.82851
46.1776    -9999      47.48099   3.104729890823364 0.33024001121521 8.697360038757324 2104.76081
46.33      -9999      49.34718   3.104729890823364 0.3807100057601929 8.98600959777832 2089.21629
46.4824    -9999      49.82185   3.104729890823364 0.3707700073719025 8.801289558410645 2095.73188
46.6348    -9999      53.0158    3.104729890823364 0.3659600019454956 8.749460220336914 2107.03344
46.7872    -9999      51.98691   3.104729890823364 0.4044199883937836 8.805970191955566 2109.23014
46.9396    -9999      53.17969   3.104729890823364 0.3537600040435791 8.867910385131836 2099.16357
47.092     -9999      51.05608   3.104729890823364 0.3025299906730652 8.871640205383301 2093.41131
47.2444    -9999      53.85225   3.104729890823364 0.302949994802475 8.855230331420898 2093.96577
47.3968    -9999      53.58895   3.104729890823364 0.3621000051498413 9.106780052185059 2101.84311
47.5492    -9999      54.67262   3.104729890823364 0.3151299953460693 8.991259574890137 2106.51972
47.7016    -9999      48.89376   3.104729890823364 0.3589000105857849 8.726160049438477 2142.34158
47.854     -9999      41.9639    3.104729890823364 0.3520300090312958 8.854579925537109 2190.0281 
48.0064    -9999      40.57424   3.104729890823364 0.3149699866771698 9.611029624938965 2256.10869
48.1588    -9999      44.05288   3.104729890823364 0.3186599910259247 9.384989738464355 2262.71866
48.3112    -9999      50.05337   3.104729890823364 0.2925899922847748 9.106809616088867 2228.86749
48.4636    -9999      52.47836   3.104729890823364 0.3110199868679047 9.191920280456543 2175.1965 
48.616     -9999      50.33874   3.104729890823364 0.3413600027561188 9.325010299682617 2147.49401
48.7684    -9999      47.07374   3.104729890823364 0.3730300068855286 9.318269729614258 2131.06903
48.9208    -9999      46.55107   3.104729890823364 0.3972899913787842 9.336020469665527 2112.54844
49.0732    -9999      50.29722   3.104729890823364 0.4326499998569489 9.315079689025879 2100.33418
49.2256    -9999      56.63519   3.104729890823364 0.4217100143432617 9.471559524536133 2098.99768
49.378     -9999      60.63393   3.104729890823364 0.3676800131797791 9.351960182189941 2092.70607
49.5304    -9999      61.79811   3.104729890823364 0.3841699957847595 9.43673038482666 2082.01187
49.6828    -9999      61.27015   3.104729890823364 0.4341999888420105 9.351420402526855 2070.73562
49.8352    -9999      63.30357   3.104729890823364 0.4295499920845032 9.259289741516113 2063.69676
49.9876    -9999      64.00346999999999 3.104729890823364 0.4606100022792816 9.313449859619141 2064.25476
50.14      -9999      64.26204   3.104729890823364 0.4676699936389923 9.5731201171875 2066.34703
50.2924    -9999      61.23728   3.104729890823364 0.4546500146389008 9.638420104980469 2068.2413 
50.4448    -9999      63.37015   3.104729890823364 0.4394499957561493 9.569179534912109 2067.97342
50.5972    -9999      64.07132   3.104729890823364 0.4960800111293793 9.600709915161133 2058.30936
50.7496    -9999      64.79846999999999 3.104729890823364 0.5155900120735168 9.521080017089844 2047.73161
50.902     -9999      62.67359   3.104729890823364 0.440310001373291 9.398329734802246 2042.56496
51.0544    -9999      65.00586   3.104729890823364 0.5352799892425537 9.331769943237305 2047.23809
51.2068    -9999      65.55149   3.104729890823364 0.6262000203132629 9.308670043945313 2056.30225
51.3592    -9999      70.44414   3.104729890823364 0.7122300267219543 9.130510330200195 2054.72664
51.5116    -9999      69.55152   3.104729890823364 0.7478299736976624 9.155369758605957 2054.57646
51.664     -9999      71.93185   3.104729890823364 0.5198799967765808 9.025440216064453 2056.26581
51.8164    -9999      65.40906   3.104729890823364 0.5926899909973145 9.087610244750977 2057.06432
51.9688    -9999      67.00301   3.104729890823364 0.6455299854278564 9.021080017089844 2051.81293
52.1212    -9999      65.2089    3.104729890823364 0.6412400007247925 8.970000267028809 2050.41228
52.2736    -9999      66.82029   3.104729890823364 0.5908899903297424 8.917960166931152 2055.14429
52.426     -9999      59.0879    3.104729890823364 0.6400399804115295 8.892729759216309 2066.27861
52.5784    -9999      56.52744   3.104729890823364 0.5103700160980225 8.844599723815918 2066.56707
52.7308    -9999      57.87369   3.104729890823364 0.4935300052165985 8.823479652404785 2062.82589
52.8832    -9999      63.27248   3.104729890823364 0.5914499759674072 8.552419662475586 2060.40227
53.0356    -9999      64.97843   3.104729890823364 0.7153400182723999 8.587300300598145 2062.50649
53.188     -9999      67.91633   3.104729890823364 0.86353999376297 8.598819732666016 2062.82363
53.3404    -9999      70.72341   3.104729890823364 0.5049800276756287 8.663909912109375 2057.78018
53.4928    -9999      74.4439    3.104729890823364 0.4019699990749359 8.758489608764648 2058.85918
53.6452    -9999      70.96929   3.104729890823364 0.3589000105857849 8.730560302734375 2059.15887
53.7976    -9999      66.54805   3.104729890823364 0.4056299924850464 8.672710418701172 2060.69845
53.95      -9999      69.48602   3.104729890823364 0.497979998588562 8.657150268554688 2057.25457
54.1024    -9999      72.42148   3.104729890823364 0.5460000038146973 8.5660400390625 2058.05892
54.2548    -9999      74.50422   3.104729890823364 0.6183099746704102 8.678380012512207 2055.95661
54.4072    -9999      68.71294   3.104729890823364 0.5308200120925903 8.599349975585938 2056.26628
54.5596    -9999      69.77999   3.104729890823364 0.5178899765014648 8.882200241088867 2058.93254
54.712     -9999      70.31376   3.104729890823364 0.5347300171852112 8.772350311279297 2061.12388
54.8644    -9999      70.77256   3.104729890823364 0.4933899939060211 8.864789962768555 2059.02373
55.0168    -9999      67.8475    3.104729890823364 0.5609400272369385 8.884679794311523 2056.90616
55.1692    -9999      69.88205000000001 3.104729890823364 0.4453099966049194 8.914389610290527 2056.03259
