~Version
 VERS              .         2.0                           : CWLS LOG ASCII STANDARD - VERSION 2.0
 WRAP              .         NO                            : ONE LINE PER DEPTH STEP
 DLM               .         SPACE                         : DELIMITING CHARACTER(SPACE TAB OR COMMA)
~Well Information
#_______________________________________________________________________________
#
#PARAMETER_NAME    .UNIT     VALUE                         : DESCRIPTION
#_______________________________________________________________________________
STRT               .m        66                            : First reference value
STOP               .m        322.032                       : Last reference value
STEP               .m        0.1524                        : Step increment
NULL               .         -9999                         : Missing value
COMP               .                                       : Company
WELL               .         D                             : Well name
FLD                .                                       : Field
LOC                .                                       : Location
CNTY               .                                       : County
STAT               .                                       : State
CTRY               .                                       : Country
SRVC               .                                       : Service Company
DATE               .                                       : Date
API                .                                       : API number
~Parameter Information Block
#_______________________________________________________________________________
#
#PARAMETER_NAME    .UNIT     VALUE                         : DESCRIPTION
#_______________________________________________________________________________
SET                .         Inclination                   : 
TLFamily_AZI       .         Hole Azimuth                  : 
TLFamily_CAL2      .         Caliper 2                     : 
TLFamily_CAL4      .         Caliper                       : 
TLFamily_CAL6      .         Caliper                       : 
TLFamily_CAL8      .         Caliper                       : 
TLFamily_CALX      .         Caliper 1                     : 
TLFamily_CALY      .         Caliper 2                     : 
TLFamily_DEV       .         Hole Deviation                : 
TLFamily_DMAX      .         Caliper                       : 
TLFamily_DMIN      .         Caliper                       : 
TLFamily_GR        .         Gamma Ray                     : 
TLFamily_HAZI      .         Hole Azimuth                  : 
TLFamily_MD        .         Measured Depth                : 
TLFamily_ROT       .         Relative Bearing              : 
~Curve Information
#_______________________________________________________________________________
#
#LOGNAME           .UNIT     LOG_ID                        : DESCRIPTION
#_______________________________________________________________________________
MD                 .m                                      :  
AZI                .deg                                    : Pad 1 Azimuth 
CAL2               .in                                     : Caliper 
CAL4               .in                                     : Caliper 
CAL6               .in                                     : Caliper 
CAL8               .in                                     : Caliper 
CALX               .in                                     : Caliper 
CALY               .in                                     : Caliper 
DEV                .deg                                    : Deviation 
DMAX               .in                                     : Caliper 
DMIN               .in                                     : Caliper 
GR                 .gAPI                                   : Gamma Ray 
HAZI               .deg                                    : Hole Azimuth 
ROT                .deg                                    : Relative Bearing 
~Ascii
# ...
279.6648   168.705    8.091372   8.130989   7.873663   7.830364   7.977414   8.145373   0.1184228  8.145373   7.977414   79.82549   99.38681   69.31822  
279.8172   168.3294   8.146693   8.136335   7.931168   7.885931   8.005735   8.156749   0.1129092  8.156749   8.005735   77.85871   101.4101   66.91928  
279.9696   167.9458   8.155622   8.149231   7.891072   7.767614   8.014441   8.103471   0.1458504  8.103471   7.958422   73.91196   103.0877   64.85815  
280.122    167.5672   8.11613    8.102211   7.960051   7.824171   8.028747   8.102352   0.1280968  8.102352   7.963191   69.28593   104.9789   62.58828  
280.2744   167.1908   8.154142   8.097493   7.947922   7.818623   7.948001   8.112512   0.1326215  8.112512   7.948001   63.85456   106.3453   60.84554  
280.4268   166.8253   8.266374   8.101582   7.824623   7.768818   7.967834   7.954577   0.1314512  8.045498   7.9352     58.10619   107.5534   59.27185  
280.5792   166.4667   8.344044   8.193734   7.796393   7.813677   8.024046   8.124763   0.1529462  8.124763   8.003706   51.356     109.1856   57.28106  
280.7316   166.1067   8.236248   8.207888   7.86485    7.705251   7.992165   8.153977   0.1445957  8.153977   7.956569   44.94739   110.5972   55.50945  
280.884    165.7481   8.335772   8.218057   7.946962   7.769119   7.929355   8.330097   0.1168769  8.330097   7.929355   39.96952   111.2247   54.52342  
281.0364   165.3926   8.48043    8.127424   7.948184   8.2061     8.210138   8.403306   0.1776371  8.403306   8.166762   37.27197   111.9578   53.43478  
281.1888   165.0508   8.267469   8.269323   8.020338   8.078409   8.190682   8.318041   0.2373566  8.318041   8.143904   36.20907   112.5392   52.51149  
281.3412   164.7077   8.207328   8.300984   8.010025   8.022903   8.18496    8.26384    0.2718996  8.26384    8.108676   35.99777   113.1362   51.57141  
281.4936   164.3705   7.941139   8.304286   7.98191    8.02351    8.157207   8.23759    0.232357   8.23759    7.961524   35.52013   113.8823   50.48823  
281.646    164.0736   8.340702   8.351988   7.989284   8.003875   8.177931   8.244298   0.2113291  8.244298   8.164993   34.78563   114.7542   49.31936  
281.7984   163.8099   8.315506   8.302452   7.997943   8.014239   8.177563   8.31493    0.2309888  8.31493    8.156724   35.60849   116.4253   47.38453  
281.9508   163.5537   8.289269   8.290658   7.993788   7.989462   8.176009   8.285715   0.2492279  8.285715   8.14006    38.14014   118.1209   45.43274  
282.1032   163.2855   8.270153   8.286464   7.996289   7.987217   8.160968   8.255964   0.2453898  8.255964   8.133221   41.20721   119.0785   44.20701  
282.2556   163.0163   8.368965   8.279492   8.053005   8.011445   8.12263    8.368694   0.2598149  8.368694   8.12263    44.96579   120.3859   42.63051  
282.408    162.767    8.167069   8.195254   8.004985   8.011162   8.122548   8.256207   0.2693122  8.256207   8.086027   48.32436   121.8998   40.86724  
282.5604   162.5214   8.235701   8.266912   7.950845   7.92722    8.107835   8.191846   0.2458324  8.191846   8.093272   48.83558   123.073    39.44851  
282.7128   162.2735   8.359216   8.388734   7.985706   8.034037   8.163094   8.287757   0.253678   8.287757   8.163094   47.77875   123.8866   38.38691  
282.8652   162.0437   8.551197   8.454677   7.993272   8.14683    8.272509   8.453959   0.2885563  8.453959   8.271922   47.28808   124.7615   37.28229  
283.0176   161.8395   8.087757   8.040093   7.943646   8.015737   8.096023   8.208423   0.3543988  8.208423   8.015701   48.13943   125.5858   36.25371  
283.17     161.6281   8.268126   8.175859   8.019221   7.956208   8.259062   8.320131   0.3978171  8.320131   8.066034   48.51365   126.2796   35.34856  
283.3224   161.409    8.144064   8.395128   8.15274    8.11764    8.271324   8.478459   0.3443131  8.478459   8.148401   45.8177    126.1186   35.29048  
283.4748   161.1761   8.519483   8.645115   8.158896   8.25448    8.373341   8.600279   0.3301681  8.600279   8.33919    42.29568   126.5335   34.64265  
283.6272   160.9068   8.512636   8.395758   8.001791   8.142457   8.30725    8.405056   0.3436561  8.405056   8.257214   43.06588   127.3232   33.58371  
283.7796   160.6133   8.260513   8.324363   7.933044   7.941542   8.142371   8.32334    0.392295   8.32334    8.096779   46.20646   127.8663   32.74696  
283.932    160.3302   8.216091   8.300355   8.019029   7.99011    8.163625   8.307492   0.3569677  8.307492   8.117559   49.19644   128.1417   32.1885   
284.0844   160.0643   8.23948    8.300565   7.927241   7.96223    8.168407   8.305402   0.4247825  8.305402   8.083361   50.74295   128.2626   31.80171  
284.2368   159.8092   8.209738   8.252758   7.938716   7.905759   8.17605    8.249743   0.3801676  8.249743   8.074226   51.92123   128.032    31.77716  
284.3892   159.5565   8.007184   8.408967   8.159088   7.869373   8.176418   8.340014   0.3913805  8.340014   8.083137   55.15508   127.7624   31.79402  
284.5416   159.3107   8.269058   8.343443   7.95979    7.930575   8.144211   8.28416    0.3453442  8.28416    8.114424   58.02449   127.6512   31.65954  
284.694    159.0741   8.278259   8.269166   7.887625   7.963735   8.150342   8.234818   0.3396875  8.234818   8.082942   61.01      127.4628   31.61123  
284.8464   158.848    8.285161   8.296162   7.899929   7.946746   8.149687   8.285277   0.3440116  8.285277   8.092545   62.64316   127.0217   31.82625  
284.9988   158.6278   8.208971   8.272048   7.860399   7.961025   8.153202   8.278957   0.3447095  8.278957   8.034685   64.21873   126.6267   32.00111  
285.1512   158.4126   8.224691   8.258419   7.879902   7.950359   8.141186   8.264374   0.3601105  8.264374   8.052297   65.43301   126.4153   31.99726  
285.3036   158.2016   8.228142   8.311834   7.873227   7.918619   8.124592   8.260534   0.3267606  8.260534   8.050684   66.14574   126.265    31.9366   
285.456    157.9906   8.234441   8.247149   7.864283   7.960294   8.11887    8.24454    0.2909385  8.24454    8.049362   66.81843   125.598    32.3926   
285.6084   157.7706   8.169918   8.238081   7.892904   7.950316   8.141799   8.313423   0.2951845  8.313423   8.031411   67.04585   125.3133   32.45735  
285.7608   157.5414   8.223979   8.236718   7.962931   7.977584   8.126022   8.240117   0.3024549  8.240117   8.093455   68.08356   125.0778   32.46352  
285.9132   157.3053   8.199166   8.223823   7.938192   7.948854   8.106771   8.196319   0.3230459  8.196319   8.06868    68.34326   124.884    32.42123  
286.0656   157.0599   8.136724   8.208412   7.918078   7.857975   8.117071   8.089617   0.3196459  8.117071   8.027402   67.35067   124.6502   32.40969  
286.218    156.7926   8.069572   8.129992   7.920348   8.042539   8.13338    8.32402    0.3178011  8.32402    7.99496    65.51771   124.5      32.29256  
286.3704   156.5173   8.226335   8.259835   7.962582   7.941499   8.131132   8.304527   0.3065801  8.304527   8.094459   63.82311   124.3085   32.20884  
286.5228   156.2479   8.25783    8.252759   7.958262   7.964165   8.128801   8.317944   0.294001   8.317944   8.108046   63.39217   124.245    32.00288  
286.6752   155.9771   8.266483   8.252025   7.943734   7.94309    8.127576   8.31216    0.2933451  8.31216    8.097558   63.12265   123.9236   32.05348  
286.8276   155.7022   8.264237   8.262403   7.95294    7.935134   8.125696   8.312548   0.3062251  8.312548   8.098768   61.73713   123.3792   32.32309  
286.98     155.425    8.243479   8.276242   7.953071   7.943736   8.110695   8.298985   0.3124985  8.298985   8.098274   57.94931   123.2418   32.18319  
287.1324   155.1478   8.245889   8.245315   7.955732   7.94851    8.096758   8.30234    0.2749729  8.30234    8.096753   54.43011   123.0621   32.08571  
287.2848   154.8577   8.261115   8.233311   7.946177   7.96081    8.118952   8.30584    0.2536147  8.30584    8.09706    51.83904   122.6614   32.1963   
287.4372   154.5561   8.259198   8.258839   7.937887   7.94051    8.0997     8.303944   0.2469456  8.303944   8.098542   50.439     122.3055   32.25071  
