~Version
 VERS              .         2.0                           : CWLS LOG ASCII STANDARD - VERSION 2.0
 WRAP              .         NO                            : ONE LINE PER DEPTH STEP
 DLM               .         SPACE                         : DELIMITING CHARACTER(SPACE TAB OR COMMA)
~Well Information
#_______________________________________________________________________________
#
#PARAMETER_NAME    .UNIT     VALUE                         : DESCRIPTION
#_______________________________________________________________________________
STRT               .m        66                            : First reference value
STOP               .m        322.032                       : Last reference value
STEP               .m        0.1524                        : Step increment
NULL               .         -9999                         : Missing value
COMP               .                                       : Company
WELL               .         D                             : Well name
FLD                .                                       : Field
LOC                .                                       : Location
CNTY               .                                       : County
STAT               .                                       : State
CTRY               .                                       : Country
SRVC               .                                       : Service Company
DATE               .                                       : Date
API                .                                       : API number
~Parameter Information Block
#_______________________________________________________________________________
#
#PARAMETER_NAME    .UNIT     VALUE                         : DESCRIPTION
#_______________________________________________________________________________
SET                .         Inclination                   : 
TLFamily_AZI       .         Hole Azimuth                  : 
TLFamily_CAL2      .         Caliper 2                     : 
TLFamily_CAL4      .         Caliper                       : 
TLFamily_CAL6      .         Caliper                       : 
TLFamily_CAL8      .         Caliper                       : 
TLFamily_CALX      .         Caliper 1                     : 
TLFamily_CALY      .         Caliper 2                     : 
TLFamily_DEV       .         Hole Deviation                : 
TLFamily_DMAX      .         Caliper                       : 
TLFamily_DMIN      .         Caliper                       : 
TLFamily_GR        .         Gamma Ray                     : 
TLFamily_HAZI      .         Hole Azimuth                  : 
TLFamily_MD        .         Measured Depth                : 
TLFamily_ROT       .         Relative Bearing              : 
~Curve Information
#_______________________________________________________________________________
#
#LOGNAME           .UNIT     LOG_ID                        : DESCRIPTION
#_______________________________________________________________________________
MD                 .m                                      :  
AZI                .deg                                    : Pad 1 Azimuth 
CAL2               .in                                     : Caliper 
CAL4               .in                                     : Caliper 
CAL6               .in                                     : Caliper 
CAL8               .in                                     : Caliper 
CALX               .in                                     : Caliper 
CALY               .in                                     : Caliper 
DEV                .deg                                    : Deviation 
DMAX               .in                                     : Caliper 
DMIN               .in                                     : Caliper 
GR                 .gAPI                                   : Gamma Ray 
HAZI               .deg                                    : Hole Azimuth 
ROT                .deg                                    : Relative Bearing 
~Ascii
# ...
247.9656   270.0334   8.000283   8.024945   7.807563   7.740475   7.892301   8.069686   0.3722764  8.069686   7.88271    49.17871   55.1003    214.9332  
248.118    269.7882   8.001104   7.988993   7.808435   7.787398   7.870766   8.060547   0.4085229  8.060547   7.870766   51.32729   54.79213   214.9961  
248.2704   269.5405   8.029149   7.939653   7.800015   7.780259   7.84254    8.049852   0.3969807  8.049852   7.84254    54.9911    54.35057   215.1899  
248.4228   269.2724   8.045472   7.946166   7.787406   7.790925   7.915975   8.060547   0.3914579  8.060547   7.868546   63.73598   54.074     215.1983  
248.5752   268.981    8.010088   7.972859   7.80176    7.735787   7.899427   8.054081   0.3938494  8.054081   7.854323   79.38573   53.82573   215.1552  
248.7276   268.6793   8.037255   7.993137   7.811141   7.750711   7.899863   8.070658   0.4117444  8.070658   7.871925   100.1416   53.72324   214.956   
248.88     268.3624   7.9608     7.967284   7.83505    7.756862   7.903029   8.071241   0.4272987  8.071241   7.862073   117.4896   53.87635   214.4861  
249.0324   268.0285   8.003953   7.953912   7.805731   7.810451   7.848557   8.075665   0.3965245  8.075665   7.848557   123.262    54.24519   213.7833  
249.1848   267.6754   8.035229   7.96753    7.753374   7.798752   7.8233     8.107213   0.3902361  8.107213   7.8233     116.1978   54.69471   212.9806  
249.3372   267.313    7.954995   7.919178   7.793427   7.865459   7.932086   8.065991   0.3571504  8.065991   7.87421    99.72016   55.19424   212.1189  
249.4896   266.9525   7.980802   7.966642   7.808916   7.765808   7.937193   8.064047   0.3145191  8.064047   7.866225   86.5329    55.57717   211.3753  
249.642    266.5842   7.998092   7.963583   7.81738    7.762023   7.937867   8.055685   0.3065497  8.055685   7.862803   82.20766   56.25851   210.3257  
249.7944   266.2108   8.006692   7.960178   7.819736   7.734712   7.947526   8.068908   0.312979   8.068908   7.847445   82.51546   56.93459   209.2762  
249.9468   265.8437   8.011457   7.967086   7.816594   7.688391   7.929474   8.063706   0.3341094  8.063706   7.827739   83.11388   57.75484   208.0887  
250.0992   265.483    8.014251   7.97656    7.811926   7.750066   7.917162   8.052963   0.3438116  8.052963   7.863313   80.51629   58.76437   206.7185  
250.2516   265.1227   8.005322   7.95707    7.824448   7.764991   7.902475   8.043435   0.3729389  8.043435   7.861031   77.77366   59.69821   205.4244  
250.404    264.7667   7.994532   7.957909   7.82327    7.79772    7.912926   8.049852   0.3834879  8.049852   7.877815   78.17101   60.57841   204.1882  
250.5564   264.418    7.969093   7.960327   7.843034   7.804731   7.928286   8.0657     0.336998   8.0657     7.882528   82.05202   61.80844   202.6095  
250.7088   264.0824   8.016441   7.964817   7.816856   7.780172   7.929157   8.069637   0.2807793  8.069637   7.872495   85.18967   63.10638   200.976   
250.8612   263.758    7.999078   7.974734   7.820521   7.780001   7.931652   8.053206   0.3177927  8.053206   7.877367   82.7312    64.29741   199.4605  
251.0136   263.4388   7.974752   7.956034   7.826019   7.779441   7.925674   8.069005   0.2824296  8.069005   7.867738   74.55736   65.46754   197.9713  
251.166    263.1237   7.97885    7.96679    7.817816   7.79901    7.924803   8.053498   0.2547012  8.053498   7.8829     63.7953    66.65395   196.4698  
251.3184   262.8243   7.994149   7.954406   7.831167   7.792258   7.908612   8.055929   0.2385542  8.055929   7.873332   57.83943   67.81509   195.0091  
251.4708   262.5428   7.994477   7.949521   7.825102   7.77243    7.927059   8.059088   0.2522363  8.059088   7.860976   60.65368   68.8835    193.6593  
251.6232   262.2602   8.011074   7.984552   7.832781   7.763571   7.94808    8.062539   0.2640745  8.062539   7.874062   69.53484   70.12898   192.1312  
251.7756   261.9734   7.986997   7.965014   7.850975   7.769076   7.94044    8.055881   0.2721878  8.055881   7.867045   77.77803   71.57585   190.3975  
251.928    261.6783   7.991793   7.961363   7.839631   7.808043   7.946971   8.053984   0.2766365  8.053984   7.884703   79.87132   73.08      188.5982  
252.0804   261.3717   8.004501   7.949669   7.838453   7.784817   7.954019   8.065019   0.272818   8.065019   7.867243   77.06942   74.56385   186.8078  
252.2328   261.0629   8.055659   7.956281   7.817511   7.766883   7.95188    8.066671   0.2475854  8.066671   7.861582   74.21839   75.97105   185.0918  
252.3852   260.7495   8.057522   7.985045   7.81162    7.765808   7.950099   8.052428   0.2250839  8.052428   7.875426   73.55489   77.17467   183.5748  
252.5376   260.4333   8.046786   7.978681   7.834919   7.798236   7.968349   8.071727   0.2196491  8.071727   7.888458   74.76337   78.32007   182.1131  
252.69     260.1198   8.062999   7.979125   7.818471   7.79557    7.978642   8.093845   0.262681   8.093845   7.887347   76.62206   79.46516   180.6546  
252.8424   259.8077   7.977728   7.974635   7.819779   7.792172   7.956314   8.053789   0.2580985  8.053789   7.883404   76.3353    80.78117   179.0263  
252.9948   259.4882   8.016879   7.942169   7.826804   7.755786   7.938777   8.033421   0.274481   8.033421   7.848978   73.41533   81.97756   177.5105  
253.1472   259.1592   8.015018   7.965063   7.814064   7.741593   7.916846   8.041831   0.2536667  8.041831   7.853328   67.73563   83.09219   176.0669  
253.2996   258.8286   8.038679   7.977052   7.804684   7.787742   7.911937   8.044991   0.2918591  8.044991   7.882397   63.13884   84.38832   174.4401  
253.452    258.5173   8.053962   7.955442   7.799928   7.811913   7.947961   8.038671   0.2915813  8.038671   7.883677   63.51957   85.52711   172.99    
253.6044   258.2247   8.01803    7.979619   7.813453   7.785161   7.942934   8.054081   0.3041338  8.054081   7.88239    68.13213   86.45042   171.7741  
253.7568   257.9445   8.025314   7.969701   7.830862   7.780904   7.938025   8.070609   0.3196378  8.070609   7.875302   73.69879   87.13147   170.8129  
253.9092   257.6843   8.03594    8.098331   7.80957    7.792989   7.944478   8.08631    0.3243603  8.08631    7.922755   76.13786   87.50734   170.1768  
254.0616   257.4395   8.069955   8.11694    7.839544   7.815225   7.955285   8.061519   0.299346   8.061519   7.95475    76.7461    87.72162   169.7177  
254.214    257.2051   8.032599   8.090417   7.810835   7.824386   7.952118   8.033567   0.2764879  8.033567   7.921718   77.42505   87.96045   169.2444  
254.3664   256.9622   8.060479   8.066828   7.824404   7.814752   7.924922   8.008677   0.2820213  8.008677   7.924922   76.65889   88.25159   168.7105  
254.5188   256.7076   8.056504   8.058366   7.804945   7.822389   7.909618   8.005685   0.2675206  8.005685   7.909618   70.9155    88.69273   168.0147  
254.6712   256.4335   8.061082   8.037945   7.812929   7.822924   7.925516   7.977077   0.2689906  7.977077   7.925516   61.36108   88.86472   167.5687  
254.8236   256.1429   7.99979    8.025784   7.83806    7.83359    7.961619   8.025741   0.2878058  8.025741   7.918925   57.03325   88.87417   167.2687  
254.976    255.849    8.026027   8.062372   7.833741   7.830622   7.970526   8.040859   0.297849   8.040859   7.929884   63.53278   88.73228   167.1167  
255.1284   255.5758   8.035174   8.050263   7.812624   7.823354   7.963717   8.043532   0.2846142  8.043532   7.923899   72.53874   88.4173    167.1584  
255.2808   255.3326   8.014475   8.05713    7.794076   7.781934   7.96829    8.089785   0.2955717  8.089785   7.904276   74.39337   88.09371   167.2388  
255.4332   255.0928   8.050784   8.061428   7.734046   7.787871   7.973258   8.107991   0.308558   8.107991   7.892415   71.60031   87.73013   167.3626  
255.5856   254.8514   8.082607   8.105932   7.777719   7.81686    7.982125   8.107019   0.3021351  8.107019   7.930163   60.38462   87.13837   167.7129  
255.738    254.6102   8.082992   8.111384   7.82676    7.749335   7.999522   8.082179   0.326489   8.082179   7.93036    46.80695   86.69683   167.9133  
