~Version
 VERS              .         2.0                           : CWLS LOG ASCII STANDARD - VERSION 2.0
 WRAP              .         NO                            : ONE LINE PER DEPTH STEP
 DLM               .         SPACE                         : DELIMITING CHARACTER(SPACE TAB OR COMMA)
~Well Information
#_______________________________________________________________________________
#
#PARAMETER_NAME    .UNIT     VALUE                         : DESCRIPTION
#_______________________________________________________________________________
STRT               .m        66                            : First reference value
STOP               .m        322.032                       : Last reference value
STEP               .m        0.1524                        : Step increment
NULL               .         -9999                         : Missing value
COMP               .                                       : Company
WELL               .         D                             : Well name
FLD                .                                       : Field
LOC                .                                       : Location
CNTY               .                                       : County
STAT               .                                       : State
CTRY               .                                       : Country
SRVC               .                                       : Service Company
DATE               .                                       : Date
API                .                                       : API number
~Parameter Information Block
#_______________________________________________________________________________
#
#PARAMETER_NAME    .UNIT     VALUE                         : DESCRIPTION
#_______________________________________________________________________________
SET                .         Inclination                   : 
TLFamily_AZI       .         Hole Azimuth                  : 
TLFamily_CAL2      .         Caliper 2                     : 
TLFamily_CAL4      .         Caliper                       : 
TLFamily_CAL6      .         Caliper                       : 
TLFamily_CAL8      .         Caliper                       : 
TLFamily_CALX      .         Caliper 1                     : 
TLFamily_CALY      .         Caliper 2                     : 
TLFamily_DEV       .         Hole Deviation                : 
TLFamily_DMAX      .         Caliper                       : 
TLFamily_DMIN      .         Caliper                       : 
TLFamily_GR        .         Gamma Ray                     : 
TLFamily_HAZI      .         Hole Azimuth                  : 
TLFamily_MD        .         Measured Depth                : 
TLFamily_ROT       .         Relative Bearing              : 
~Curve Information
#_______________________________________________________________________________
#
#LOGNAME           .UNIT     LOG_ID                        : DESCRIPTION
#_______________________________________________________________________________
MD                 .m                                      :  
AZI                .deg                                    : Pad 1 Azimuth 
CAL2               .in                                     : Caliper 
CAL4               .in                                     : Caliper 
CAL6               .in                                     : Caliper 
CAL8               .in                                     : Caliper 
CALX               .in                                     : Caliper 
CALY               .in                                     : Caliper 
DEV                .deg                                    : Deviation 
DMAX               .in                                     : Caliper 
DMIN               .in                                     : Caliper 
GR                 .gAPI                                   : Gamma Ray 
HAZI               .deg                                    : Hole Azimuth 
ROT                .deg                                    : Relative Bearing 
~Ascii
# ...
81.5448    324.5448   8.09066    8.146768   7.813453   7.812945   7.99143    8.228305   0.1587445  8.228305   7.952056   100.173    92.38908   232.1557  
81.6972    324.5516   8.237398   8.20752    7.870522   7.982186   8.229634   8.271909   0.1415144  8.271909   8.05396    96.34921   92.69187   231.8596  
81.8496    324.5697   8.390929   8.383806   7.796306   8.167397   8.117848   8.335104   0.1343789  8.335104   8.093617   92.57191   92.62193   231.9478  
82.00200000000001 324.6029   8.205411   8.387109   7.855556   8.012579   8.079837   8.203951   0.1302708  8.203951   8.030483   89.41611   92.76856   231.8343  
82.15440000000001 324.6571   8.390436   8.46102    7.889239   8.503751   8.360017   8.437333   0.09234395 8.482385   8.139838   86.48523   92.97614   231.6809  
82.3068    324.7246   8.591183   8.358226   7.816725   7.929413   8.217945   8.318284   0.06551699 8.318284   8.14382    83.68188   92.62459   232.1     
82.4592    324.8059   8.106271   8.157355   7.878637   7.9135     8.053474   8.210124   0.07975505 8.210124   7.992454   81.18367   92.51267   232.2932  
82.6116    324.8999   8.19473    8.346693   7.738016   7.961154   8.2318     8.180811   0.09134326 8.2318     7.966373   77.64273   92.33064   232.5691  
82.764     324.9801   8.46942    8.229327   7.748444   7.947176   8.081881   8.094332   0.1297243  8.108932   8.081881   73.94068   92.1998    232.7802  
82.9164    325.0498   8.057302   8.044183   7.780905   7.800344   7.996294   8.075421   0.1181272  8.075421   7.919104   71.68009   91.87914   233.1707  
83.0688    325.1384   8.027341   8.068715   7.798967   7.746196   8.004714   8.072262   0.09070992 8.072262   7.907455   70.81214   91.82928   233.3091  
83.2212    325.2164   7.995956   8.087376   7.799491   7.704391   8.035082   8.060886   0.1034094  8.060886   7.895884   68.52634   92.02029   233.1961  
83.3736    325.2687   7.949969   8.197981   7.857476   7.648178   7.969497   8.07824    0.1118754  8.07824    7.903723   62.90589   92.12062   233.1481  
83.526     325.3483   8.078336   8.095658   7.795128   7.79471    7.972703   8.060304   0.1053425  8.060304   7.936732   55.33617   92.23111   233.1172  
83.6784    325.3706   8.105558   8.143413   7.788147   7.818967   8.009373   8.024039   0.104504   8.024039   7.946853   49.24459   91.89544   233.4752  
83.8308    325.4016   8.092467   8.122811   7.802022   7.778022   8.016444   8.027054   0.1148641  8.027054   7.947245   47.37271   91.62224   233.7792  
83.9832    325.3411   8.081512   8.073747   7.792946   7.760561   7.988737   8.043144   0.1262832  8.043144   7.917154   47.59693   91.36437   233.9766  
84.1356    325.2073   8.076638   8.067562   7.79347    7.770582   7.971278   8.007949   0.1504048  8.007949   7.919072   48.9863    91.28548   233.9218  
84.288     325.052    8.074775   8.07836    7.748226   7.693209   7.970526   7.931493   0.1631111  7.970526   7.885784   50.98236   91.38689   233.6651  
84.4404    324.876    8.127357   8.110755   7.744081   7.74968    7.983708   8.084463   0.1252267  8.084463   7.930217   52.85638   91.38152   233.4944  
84.5928    324.7026   8.018633   8.060591   7.772048   7.787871   7.973376   8.111199   0.1403313  8.111199   7.89534    54.79837   91.64177   233.0608  
84.7452    324.5203   8.047991   8.046018   7.802851   7.782495   7.967755   8.072456   0.1469528  8.072456   7.914257   55.98051   90.8653    233.6551  
84.8976    324.2993   8.060425   8.046751   7.796175   7.792387   7.959877   7.99774    0.1385415  7.99774    7.919569   57.54127   89.62994   234.6695  
85.05      324.0182   8.053962   8.06342    7.776149   7.776861   7.977058   8.026276   0.1190393  8.026276   7.915055   60.07091   89.75846   234.2597  
85.2024    323.7229   8.08091    8.04586    7.783741   7.812687   8.017589   8.136186   0.1500734  8.136186   7.929274   61.40733   89.58133   234.1417  
85.3548    323.3647   8.035393   8.103469   7.794648   7.739486   7.982363   8.115575   0.1587255  8.115575   7.915021   62.41442   89.54305   233.8216  
85.5072    322.9622   8.077568   8.085437   7.777632   7.769119   7.921398   8.134873   0.1635113  8.134873   7.921398   63.27686   89.72665   233.2356  
85.6596    322.5462   8.119362   8.048743   7.760398   7.773377   7.955562   8.156019   0.1763793  8.156019   7.91106    66.03508   90.20593   232.3403  
85.812     322.1191   8.124072   8.069186   7.757169   7.768044   7.990122   8.139297   0.1819825  8.139297   7.918615   71.11877   90.58158   231.5376  
85.9644    321.6893   8.115582   8.090154   7.77183    7.755744   7.985767   8.132686   0.1767445  8.132686   7.922948   76.60963   90.64077   231.0486  
86.1168    321.2335   8.112679   8.072489   7.792118   7.778839   7.984263   8.14236    0.1888409  8.14236    7.925664   81.0979    90.63018   230.6032  
86.2692    320.7388   8.07023    8.057969   7.80573    7.781248   7.989892   8.167395   0.2042096  8.167395   7.919608   85.25311   90.27859   230.4602  
86.4216    320.2256   7.982656   8.020961   7.798182   7.791011   7.97682    8.157526   0.2208198  8.157526   7.890419   88.14388   90.12113   230.1044  
86.574     319.6874   8.06656    8.066303   7.80909    7.822666   7.954691   8.152422   0.2154146  8.152422   7.937825   86.93419   89.67856   230.0089  
86.7264    319.1188   8.096083   8.1594     7.805643   7.863051   7.992207   8.165061   0.1968527  8.165061   7.950862   83.60506   88.6656    230.4531  
86.8788    318.5266   8.197633   8.283686   8.079055   7.969842   8.209116   8.402479   0.2027213  8.402479   8.126764   81.57869   88.02064   230.5058  
87.0312    317.8988   8.584883   8.643909   7.977522   8.918728   8.615387   8.874205   0.2033413  8.874205   8.281202   83.1524    87.48656   230.4122  
87.1836    317.2157   8.132123   8.324573   7.755075   7.767571   7.924011   8.047032   0.2176842  8.047032   7.924011   86.10281   87.58774   229.6279  
87.336     316.4902   8.268948   8.351726   7.98034    8.127761   8.684134   8.017282   0.1913058  8.684134   8.017282   87.87872   87.77817   228.7121  
87.4884    315.7478   7.933285   9.408442   8.053928   7.903866   8.045054   8.581272   0.1631731  8.656155   7.993607   87.51254   88.02179   227.7261  
87.6408    314.9884   8.083813   7.903734   7.783741   7.9215     8.002588   8.1462     0.1793907  8.1462     7.912617   88.31403   88.92384   226.0646  
87.7932    314.2036   8.151841   8.088215   7.747222   7.769592   7.979948   8.143429   0.1977041  8.143429   7.928904   89.90484   90.18197   224.0217  
87.9456    313.3881   8.101067   8.087271   7.789544   7.779011   7.977494   8.13463    0.1961687  8.13463    7.933141   89.8796    91.95265   221.4354  
88.098     312.5283   8.069572   8.085437   7.80909    7.766539   7.98458    8.141242   0.2221536  8.141242   7.925988   88.12225   93.53281   218.9954  
88.2504    311.6237   8.041747   8.075215   7.802632   7.765549   7.949584   8.169291   0.218885   8.169291   7.920382   84.34383   94.04347   217.5802  
88.4028    310.6939   8.039172   7.983318   7.804203   7.771657   7.924684   8.113047   0.1686966  8.113047   7.877488   81.62939   93.87782   216.8161  
88.5552    309.7529   8.043774   8.043186   7.821568   7.822451   7.972229   8.113387   0.1550061  8.113387   7.932498   81.60309   94.25473   215.4982  
88.7076    308.7985   8.094877   8.093666   7.796699   7.797333   7.986519   8.116158   0.1085984  8.116158   7.9455     83.88983   93.99261   214.8058  
88.86      307.8355   8.108187   8.091989   7.796874   7.802022   7.989528   8.128117   0.09612458 8.128117   7.947005   86.69931   94.04394   213.7915  
89.0124    306.8625   8.104189   8.095711   7.798357   7.80314    7.989409   8.138811   0.09174123 8.138811   7.949425   88.57074   93.63355   213.2289  
89.1648    305.8652   8.103642   8.096654   7.797877   7.804301   7.992656   8.139735   0.1047706  8.139735   7.950478   86.91826   92.83392   213.0311  
89.3172    304.8683   8.105996   8.106614   7.792859   7.790237   7.999073   8.141825   0.1098166  8.141825   7.948426   83.85716   92.01374   212.8543  
