~Version
 VERS              .         2.0                           : CWLS LOG ASCII STANDARD - VERSION 2.0
 WRAP              .         NO                            : ONE LINE PER DEPTH STEP
 DLM               .         SPACE                         : DELIMITING CHARACTER(SPACE TAB OR COMMA)
~Well Information
#_______________________________________________________________________________
#
#PARAMETER_NAME    .UNIT     VALUE                         : DESCRIPTION
#_______________________________________________________________________________
STRT               .m        66                            : First reference value
STOP               .m        322.032                       : Last reference value
STEP               .m        0.1524                        : Step increment
NULL               .         -9999                         : Missing value
COMP               .                                       : Company
WELL               .         D                             : Well name
FLD                .                                       : Field
LOC                .                                       : Location
CNTY               .                                       : County
STAT               .                                       : State
CTRY               .                                       : Country
SRVC               .                                       : Service Company
DATE               .                                       : Date
API                .                                       : API number
~Parameter Information Block
#_______________________________________________________________________________
#
#PARAMETER_NAME    .UNIT     VALUE                         : DESCRIPTION
#_______________________________________________________________________________
SET                .         Inclination                   : 
TLFamily_AZI       .         Hole Azimuth                  : 
TLFamily_CAL2      .         Caliper 2                     : 
TLFamily_CAL4      .         Caliper                       : 
TLFamily_CAL6      .         Caliper                       : 
TLFamily_CAL8      .         Caliper                       : 
TLFamily_CALX      .         Caliper 1                     : 
TLFamily_CALY      .         Caliper 2                     : 
TLFamily_DEV       .         Hole Deviation                : 
TLFamily_DMAX      .         Caliper                       : 
TLFamily_DMIN      .         Caliper                       : 
TLFamily_GR        .         Gamma Ray                     : 
TLFamily_HAZI      .         Hole Azimuth                  : 
TLFamily_MD        .         Measured Depth                : 
TLFamily_ROT       .         Relative Bearing              : 
~Curve Information
#_______________________________________________________________________________
#
#LOGNAME           .UNIT     LOG_ID                        : DESCRIPTION
#_______________________________________________________________________________
MD                 .m                                      :  
AZI                .deg                                    : Pad 1 Azimuth 
CAL2               .in                                     : Caliper 
CAL4               .in                                     : Caliper 
CAL6               .in                                     : Caliper 
CAL8               .in                                     : Caliper 
CALX               .in                                     : Caliper 
CALY               .in                                     : Caliper 
DEV                .deg                                    : Deviation 
DMAX               .in                                     : Caliper 
DMIN               .in                                     : Caliper 
GR                 .gAPI                                   : Gamma Ray 
HAZI               .deg                                    : Hole Azimuth 
ROT                .deg                                    : Relative Bearing 
~Ascii
# ...
311.364    125.0609   8.154745   8.144146   7.832869   7.833633   7.996866   8.206867   0.3471649  8.206867   7.98889    -9999      176.5165   308.5445  
311.5164   124.9028   8.157373   8.140948   7.83217    7.83531    7.999686   8.230201   0.3593835  8.230201   7.988129   -9999      177.2556   307.6472  
311.6688   124.7363   8.167945   8.097283   7.83169    7.834708   8.006307   8.206916   0.2579618  8.206916   7.965845   -9999      177.9021   306.8343  
311.8212   124.5275   8.079431   8.089533   7.809779   7.854526   8.041546   8.167554   0.3284657  8.167554   7.944605   -9999      178.0991   306.4285  
311.9736   124.4161   8.003241   8.090469   7.952329   7.892039   8.03688    8.168512   0.3415492  8.168512   7.977785   -9999      177.8917   306.5246  
312.126    124.2717   8.141599   8.134973   7.853375   7.863524   8.033038   8.184992   0.3553691  8.184992   7.997487   -9999      177.7458   306.5261  
312.2784   124.1056   8.132325   8.145868   7.854778   7.85655    8.02968    8.189506   0.3419692  8.189506   7.993551   -9999      177.7695   306.3363  
312.4308   123.9449   8.143407   8.153687   7.867555   7.855998   8.034387   8.206721   0.3303557  8.206721   8.004842   -9999      177.5939   306.3511  
312.5832   123.7844   8.162907   8.157775   7.873096   7.870405   8.065041   8.227332   0.3131267  8.227332   8.01409    -9999      177.4011   306.3835  
312.7356   123.6216   8.052976   8.116836   7.936447   7.874406   8.005163   8.191312   0.315246   8.191312   7.994711   -9999      177.2349   306.3869  
312.888    123.4562   8.142969   8.12213    7.850975   7.834708   7.961817   8.183534   0.3474578  8.183534   7.961817   -9999      176.7578   306.6986  
313.0404   123.2868   8.149542   8.079409   7.852633   7.860686   7.949624   8.182319   0.3191758  8.182319   7.949624   -9999      176.19     307.097   
313.1928   123.1163   8.155128   8.062949   7.859396   7.869803   8.0041     8.165158   0.274319   8.165158   7.966376   -9999      175.4851   307.6314  
313.3452   122.948    8.149924   8.089578   7.848925   7.857803   8.029768   8.139443   0.3096981  8.139443   7.973691   -9999      174.9144   308.0338  
313.4976   122.7826   8.160387   8.127057   7.834832   7.884555   8.054373   8.139541   0.3312101  8.139541   7.997609   -9999      174.4362   308.3465  
313.65     122.6211   8.163782   8.159085   7.83505    7.838579   8.047752   8.12836    0.3221316  8.12836    7.998832   -9999      174.0934   308.5278  
313.8024   122.4627   8.153594   8.120191   7.836402   7.84688    8.028992   8.181492   0.3194111  8.181492   7.983535   -9999      173.7814   308.6815  
313.9548   122.3056   8.138477   8.084965   7.83649    7.873589   8.043501   8.155338   0.3078876  8.155338   7.979277   -9999      173.5382   308.7676  
314.1072   122.1438   8.140942   8.108815   7.848227   7.889028   8.043583   8.1672     0.3469932  8.1672     7.994585   -9999      173.0734   309.0704  
314.2596   122.0038   8.158853   8.115683   7.838104   7.869975   8.03124    8.186936   0.3394291  8.186936   7.992829   -9999      172.6452   309.3586  
314.412    121.8899   8.155567   8.10588    7.834177   7.858148   8.036308   8.161901   0.3210302  8.161901   7.982014   -9999      172.1496   309.7405  
314.5644   121.7907   8.159237   8.102787   7.834832   7.875782   8.051227   8.15495    0.3503025  8.15495    7.989284   -9999      171.3899   310.4009  
314.7168   121.6942   8.174683   8.121606   7.832781   7.873116   8.060218   8.161026   0.3899154  8.161026   7.997361   -9999      170.8515   310.8428  
314.8692   121.5969   8.167397   8.120819   7.848881   7.885674   8.061526   8.168075   0.3631098  8.168075   8.003246   -9999      170.1914   311.4057  
315.0216   121.5026   8.159894   8.117045   7.841769   7.872341   8.048896   8.172547   0.316946   8.172547   7.994693   -9999      169.5436   311.9591  
315.174    121.4153   8.178572   8.08334    7.84094    7.859869   8.058378   8.209784   0.3675915  8.209784   7.971604   -9999      168.592    312.8232  
315.3264   121.3383   8.038625   8.009115   7.85368    7.904038   8.021552   8.103664   0.3854636  8.103664   7.946153   -9999      167.3444   313.994   
315.4788   121.2738   8.107038   8.027723   7.837886   7.878104   8.023024   8.082908   0.2919478  8.082908   7.952913   -9999      166.204    315.0699  
315.6312   121.2151   8.099205   8.063892   7.798444   7.884125   8.030136   8.065408   0.3713437  8.065408   7.948824   -9999      164.8125   316.4027  
315.7836   121.165    8.132671   8.085122   7.826237   7.872126   8.04436    8.096763   0.4055456  8.096763   7.978624   -9999      163.3336   317.8315  
315.936    121.1235   8.114213   8.085437   7.836141   7.86976    8.049183   8.104783   0.3602823  8.104783   7.975177   -9999      162.2196   318.904   
316.0884   121.0912   8.102436   8.078046   7.83745    7.874879   8.048283   8.102449   0.338706   8.102449   7.969943   -9999      161.547    319.5443  
316.2408   121.0744   8.110871   8.075582   7.836185   7.872211   8.043706   8.10488    0.3928852  8.10488    7.973528   -9999      160.9196   320.1551  
316.3932   121.0789   8.108023   8.070969   7.836577   7.87561    8.044604   8.097394   0.4066024  8.097394   7.9723     -9999      160.3992   320.6799  
316.5456   121.079    8.106818   8.073905   7.840373   7.876341   8.050408   8.105803   0.4768233  8.105803   7.973596   -9999      160.2913   320.7878  
316.698    121.0669   8.082443   8.074429   7.836577   7.87019    8.052452   8.09579    0.461009   8.09579    7.95951    -9999      161.3796   319.6874  
316.8504   121.0586   8.07713    8.076001   7.839457   7.879007   8.048365   8.103179   0.3761423  8.103179   7.958293   -9999      162.7528   318.3059  
317.0028   121.0464   8.09537    8.069186   7.841027   7.875566   8.043543   8.091513   0.3445495  8.091513   7.968199   -9999      163.764    317.2825  
317.1552   121.0243   8.105339   8.068976   7.846176   7.881889   8.04391    8.105414   0.3325464  8.105414   7.975432   -9999      164.5531   316.4714  
317.3076   120.9795   8.081896   8.057602   7.839151   7.8809     8.03079    8.103422   0.3344977  8.103422   7.960524   -9999      165.1728   315.8069  
317.46     120.9165   8.066285   8.051888   7.84443    7.877717   8.019958   8.102595   0.3515925  8.102595   7.955358   -9999      165.8474   315.0693  
317.6124   120.8492   8.065135   8.045178   7.866857   7.873847   8.045423   8.100991   0.3491999  8.100991   7.959513   -9999      166.1685   314.6808  
317.7648   120.7781   8.101176   8.0478     7.836054   7.887094   8.044114   8.079213   0.3640208  8.079213   7.967447   -9999      166.7216   314.0566  
317.9172   120.6969   8.100136   8.049845   7.832956   7.880728   8.043624   8.07056    0.3071411  8.07056    7.965286   -9999      167.6538   313.0432  
318.0696   120.6096   8.091919   8.050211   7.830425   7.894233   8.049796   8.06988    0.3349681  8.06988    7.961173   -9999      168.4621   312.1477  
318.222    120.5174   8.112021   8.042453   7.829814   7.890405   8.059196   8.066866   0.3582931  8.066866   7.966429   -9999      169.3824   311.1351  
318.3744   120.4147   8.060369   8.01682    7.838933   7.89019    8.036716   8.03945    0.3438993  8.03945    7.949652   -9999      170.5893   309.8255  
318.5268   120.2991   8.10775    7.97276    7.805949   7.896641   8.034019   8.007803   0.3353468  8.034019   7.9347     -9999      171.8824   308.4168  
318.6792   120.1736   8.082006   7.924704   7.751672   7.885458   7.965499   7.927194   0.3645805  7.965499   7.905081   -9999      172.7586   307.4151  
318.8316   120.0325   7.988119   7.850448   7.665022   7.864384   7.696462   7.699607   0.3159155  7.857416   7.696245   -9999      173.0715   306.9611  
318.984    119.8853   7.956165   7.481535   7.189537   7.974057   5.929993   6.619696   0.2329908  7.727796   5.929993   -9999      173.6583   306.2271  
319.1364   119.7553   4.283962   5.444995   5.400732   4.618368   5.788626   5.825396   0.2080655  5.825396   4.842347   -9999      174.2195   305.5359  
