~Version
 VERS              .         2.0                           : CWLS LOG ASCII STANDARD - VERSION 2.0
 WRAP              .         NO                            : ONE LINE PER DEPTH STEP
 DLM               .         SPACE                         : DELIMITING CHARACTER(SPACE TAB OR COMMA)
~Well Information
#_______________________________________________________________________________
#
#PARAMETER_NAME    .UNIT     VALUE                         : DESCRIPTION
#_______________________________________________________________________________
STRT               .m        66                            : First reference value
STOP               .m        322.032                       : Last reference value
STEP               .m        0.1524                        : Step increment
NULL               .         -9999                         : Missing value
COMP               .                                       : Company
WELL               .         D                             : Well name
FLD                .                                       : Field
LOC                .                                       : Location
CNTY               .                                       : County
STAT               .                                       : State
CTRY               .                                       : Country
SRVC               .                                       : Service Company
DATE               .                                       : Date
API                .                                       : API number
~Parameter Information Block
#_______________________________________________________________________________
#
#PARAMETER_NAME    .UNIT     VALUE                         : DESCRIPTION
#_______________________________________________________________________________
SET                .         Inclination                   : 
TLFamily_AZI       .         Hole Azimuth                  : 
TLFamily_CAL2      .         Caliper 2                     : 
TLFamily_CAL4      .         Caliper                       : 
TLFamily_CAL6      .         Caliper                       : 
TLFamily_CAL8      .         Caliper                       : 
TLFamily_CALX      .         Caliper 1                     : 
TLFamily_CALY      .         Caliper 2                     : 
TLFamily_DEV       .         Hole Deviation                : 
TLFamily_DMAX      .         Caliper                       : 
TLFamily_DMIN      .         Caliper                       : 
TLFamily_GR        .         Gamma Ray                     : 
TLFamily_HAZI      .         Hole Azimuth                  : 
TLFamily_MD        .         Measured Depth                : 
TLFamily_ROT       .         Relative Bearing              : 
~Curve Information
#_______________________________________________________________________________
#
#LOGNAME           .UNIT     LOG_ID                        : DESCRIPTION
#_______________________________________________________________________________
MD                 .m                                      :  
AZI                .deg                                    : Pad 1 Azimuth 
CAL2               .in                                     : Caliper 
CAL4               .in                                     : Caliper 
CAL6               .in                                     : Caliper 
CAL8               .in                                     : Caliper 
CALX               .in                                     : Caliper 
CALY               .in                                     : Caliper 
DEV                .deg                                    : Deviation 
DMAX               .in                                     : Caliper 
DMIN               .in                                     : Caliper 
GR                 .gAPI                                   : Gamma Ray 
HAZI               .deg                                    : Hole Azimuth 
ROT                .deg                                    : Relative Bearing 
~Ascii
# ...
160.7928   105.1891   8.097397   8.096969   7.78409    7.747486   7.937629   8.130937   0.2339758  8.130937   7.922227   59.78857   136.0504   329.1389  
160.9452   104.8684   8.076638   8.084912   7.792946   7.753636   7.92991    8.13886    0.2177766  8.13886    7.919274   60.27216   137.2189   327.6496  
161.0976   104.6171   8.081129   8.094925   7.784002   7.756001   7.929316   8.108575   0.2129888  8.108575   7.925463   59.80687   138.5057   326.1116  
161.25     104.531    8.06656    8.086485   7.787493   7.777076   7.931334   8.081206   0.1856167  8.081206   7.927027   58.89214   139.0327   325.4985  
161.4024   104.5681   8.101943   8.078884   7.755032   7.76512    7.923853   8.079408   0.1423181  8.079408   7.922002   58.29677   138.1834   326.3849  
161.5548   104.5984   8.095151   8.083654   7.777719   7.756948   7.93276    8.09613    0.1751789  8.09613    7.920301   58.28436   137.5534   327.0452  
161.7072   104.5288   8.052263   8.069396   7.788322   7.734755   7.929316   8.090054   0.239207   8.090054   7.902076   57.85715   137.1348   327.3943  
161.8596   104.3822   8.058069   8.080457   7.782039   7.784388   7.936283   8.073283   0.2467156  8.073283   7.920054   57.1625    136.5389   327.8435  
162.012    104.1533   8.069572   8.091989   7.756297   7.739873   7.947566   8.068324   0.2465591  8.068324   7.912935   57.41925   136.3657   327.7877  
162.1644   103.8483   8.06875    8.111594   7.74792    7.715616   7.953464   8.113533   0.2059621  8.113533   7.908335   57.76288   136.5129   327.3355  
162.3168   103.504    8.057138   8.087533   7.779639   7.729078   7.91835    8.105609   0.2181735  8.105609   7.908306   58.19721   136.5766   326.9275  
162.4692   103.136    8.083485   8.085384   7.769168   7.739615   7.913877   8.097491   0.2146182  8.097491   7.912499   57.65078   136.8804   326.2557  
162.6216   102.757    8.098219   8.107243   7.76354    7.753464   7.929593   8.102693   0.1838914  8.102693   7.929593   56.06013   137.0481   325.709   
162.774    102.374    8.063272   8.111384   7.769168   7.755786   7.945586   8.102352   0.1412358  8.102352   7.91622    55.56918   136.9619   325.4123  
162.9264   101.9844   8.060754   8.10436    7.766026   7.761937   7.962767   8.101186   0.1876248  8.101186   7.91339    55.30839   136.8637   325.1209  
163.0788   101.6006   8.05314    8.110073   7.775146   7.741938   7.92025    8.120922   0.1733643  8.120922   7.914143   56.20929   136.9261   324.6747  
163.2312   101.2212   8.078665   8.081977   7.758217   7.761292   7.907503   8.139199   0.116287   8.139199   7.907503   56.37959   137.3243   323.897   
163.3836   100.8392   8.070339   8.088477   7.760137   7.748002   7.904019   8.143138   0.1654994  8.143138   7.904019   54.92031   137.4945   323.3449  
163.536    100.4552   8.116951   8.13209    7.739935   7.704821   7.904019   8.143429   0.2104148  8.143429   7.904019   53.82597   137.7732   322.6822  
163.6884   100.0645   8.112952   8.135654   7.757082   7.733293   7.932007   8.135554   0.2231368  8.135554   7.932007   53.90747   138.395    321.6696  
163.8408   99.66341   8.069955   8.135758   7.784482   7.737465   7.94812    8.07479    0.2211868  8.07479    7.927219   56.4458    139.0593   320.6042  
163.9932   99.23569   8.05555    8.096549   7.791507   7.759786   7.924921   8.062443   0.2042266  8.062443   7.923528   60.81195   138.9399   320.2958  
164.1456   98.77344   8.05177    8.097912   7.782301   7.73583    7.896379   8.078582   0.1964283  8.078582   7.896379   65.03619   138.3081   320.4654  
164.298    98.27157   8.043828   8.06578    7.775712   7.81944    7.865026   8.073186   0.1780131  8.073186   7.865026   66.51231   137.8646   320.407   
164.4504   97.7373    8.07609    8.062896   7.780555   7.794882   7.910234   8.04295    0.2032441  8.04295    7.910234   65.40621   137.6342   320.1032  
164.6028   97.17229   8.0435     8.092356   7.805294   7.763658   7.953266   8.080283   0.211022   8.080283   7.924397   63.34061   137.3464   319.826   
164.7552   96.59501   8.050566   8.107662   7.796437   7.767528   7.957185   8.130013   0.2087588  8.130013   7.923501   61.12373   137.3623   319.2328  
164.9076   96.02588   8.087592   8.10263    7.79347    7.765549   7.971476   8.139053   0.218041   8.139053   7.93409    59.13354   137.6129   318.4131  
165.06     95.46735   8.091208   8.103521   7.833523   7.765463   7.981017   8.145373   0.2160354  8.145373   7.934492   57.79054   137.7069   317.7605  
165.2124   94.9173    8.063437   8.089368   7.800669   7.747744   7.946853   8.114699   0.2111498  8.114699   7.918556   57.65612   137.3715   317.5459  
165.3648   94.37122   8.081896   8.080771   7.78601    7.740819   7.925832   8.117179   0.1679067  8.117179   7.910795   57.62946   136.8289   317.5424  
165.5172   93.8078    8.083375   8.09461    7.78566    7.741679   7.91348    8.126075   0.1786329  8.126075   7.91348    57.51871   136.6834   317.1245  
165.6696   93.23619   8.065025   8.094925   7.791681   7.742411   7.904217   8.128165   0.2026327  8.128165   7.904217   57.58675   136.8504   316.3859  
165.822    92.67594   8.059987   8.084126   7.78662    7.747615   7.916489   8.12204    0.1911795  8.12204    7.915871   57.26091   136.7845   315.8916  
165.9744   92.11254   8.048265   8.106194   7.787929   7.741808   7.899427   8.119367   0.189192   8.119367   7.899427   57.45047   136.7919   315.3207  
166.1268   91.52089   8.039282   8.123651   7.786533   7.779313   7.899387   8.113728   0.185087   8.113728   7.899387   57.73849   137.1145   314.4065  
166.2792   90.91257   8.037365   8.133085   7.789107   7.814924   7.989291   8.114797   0.1963766  8.114797   7.913237   57.56227   137.5289   313.3838  
166.4316   90.28706   8.035776   8.13209    7.782912   7.808473   7.968349   8.112901   0.1749176  8.112901   7.909344   57.49504   137.8419   312.4452  
166.584    89.65541   8.032052   8.113481   7.757388   7.810193   7.896696   8.08072    0.153619   8.08072    7.89472    56.47918   138.1595   311.4959  
166.7364   89.03255   8.085018   8.084493   7.687405   7.79415    7.847963   7.952115   0.1813198  7.952115   7.847963   54.74033   138.3229   310.7097  
166.8888   88.41673   8.088469   8.115263   7.63819    7.502808   7.953306   7.801085   0.2174895  7.953306   7.801085   53.61002   138.5441   309.8727  
167.0412   87.79556   8.130919   8.169989   7.738758   7.636953   7.928089   8.145082   0.2603284  8.145082   7.903471   52.99716   138.7654   309.0303  
167.1936   87.14635   8.134698   8.076211   7.779072   7.781807   7.978285   8.141484   0.2759172  8.141484   7.929009   52.72613   138.8266   308.3199  
167.346    86.49767   8.055604   8.106142   7.800364   7.775786   7.961223   8.140998   0.2380591  8.140998   7.927984   53.34034   138.8593   307.6385  
167.4984   85.88248   8.02882    8.129207   7.781516   7.768775   7.956512   8.088595   0.2706759  8.088595   7.905168   55.19628   138.8482   307.0344  
167.6508   85.30286   8.054564   8.135653   7.750319   7.760733   7.967874   8.072165   0.2931927  8.072165   7.902442   57.36407   138.9765   306.3265  
167.8032   84.73399   8.058233   8.129679   7.767816   7.759657   7.975751   8.105658   0.2878698  8.105658   7.913024   59.10371   139.247    305.4871  
167.9556   84.15678   8.067217   8.110598   7.772179   7.758195   7.975989   8.11713    0.305599   8.11713    7.919698   60.03511   139.559    304.5979  
168.108    83.5825    8.076693   8.102211   7.778549   7.746755   7.986955   8.123498   0.2984537  8.123498   7.924483   59.95478   139.5374   304.0453  
168.2604   83.0295    8.094001   8.094925   7.785791   7.772388   7.987391   8.10629    0.2957982  8.10629    7.933656   60.08051   139.3219   303.7078  
168.4128   82.48574   8.085182   8.073905   7.785093   7.78099    7.982441   8.106047   0.3285486  8.106047   7.927447   59.6018    139.5965   302.8895  
168.5652   81.9511    8.07138    8.075844   7.806211   7.751099   7.957462   8.116838   0.3148391  8.116838   7.913471   58.39301   139.9309   302.0204  
