~Version
 VERS              .         2.0                           : CWLS LOG ASCII STANDARD - VERSION 2.0
 WRAP              .         NO                            : ONE LINE PER DEPTH STEP
 DLM               .         SPACE                         : DELIMITING CHARACTER(SPACE TAB OR COMMA)
~Well Information
#_______________________________________________________________________________
#
#PARAMETER_NAME    .UNIT     VALUE                         : DESCRIPTION
#_______________________________________________________________________________
STRT               .m        66                            : First reference value
STOP               .m        322.032                       : Last reference value
STEP               .m        0.1524                        : Step increment
NULL               .         -9999                         : Missing value
COMP               .                                       : Company
WELL               .         D                             : Well name
FLD                .                                       : Field
LOC                .                                       : Location
CNTY               .                                       : County
STAT               .                                       : State
CTRY               .                                       : Country
SRVC               .                                       : Service Company
DATE               .                                       : Date
API                .                                       : API number
~Parameter Information Block
#_______________________________________________________________________________
#
#PARAMETER_NAME    .UNIT     VALUE                         : DESCRIPTION
#_______________________________________________________________________________
SET                .         Inclination                   : 
TLFamily_AZI       .         Hole Azimuth                  : 
TLFamily_CAL2      .         Caliper 2                     : 
TLFamily_CAL4      .         Caliper                       : 
TLFamily_CAL6      .         Caliper                       : 
TLFamily_CAL8      .         Caliper                       : 
TLFamily_CALX      .         Caliper 1                     : 
TLFamily_CALY      .         Caliper 2                     : 
TLFamily_DEV       .         Hole Deviation                : 
TLFamily_DMAX      .         Caliper                       : 
TLFamily_DMIN      .         Caliper                       : 
TLFamily_GR        .         Gamma Ray                     : 
TLFamily_HAZI      .         Hole Azimuth                  : 
TLFamily_MD        .         Measured Depth                : 
TLFamily_ROT       .         Relative Bearing              : 
~Curve Information
#_______________________________________________________________________________
#
#LOGNAME           .UNIT     LOG_ID                        : DESCRIPTION
#_______________________________________________________________________________
MD                 .m                                      :  
AZI                .deg                                    : Pad 1 Azimuth 
CAL2               .in                                     : Caliper 
CAL4               .in                                     : Caliper 
CAL6               .in                                     : Caliper 
CAL8               .in                                     : Caliper 
CALX               .in                                     : Caliper 
CALY               .in                                     : Caliper 
DEV                .deg                                    : Deviation 
DMAX               .in                                     : Caliper 
DMIN               .in                                     : Caliper 
GR                 .gAPI                                   : Gamma Ray 
HAZI               .deg                                    : Hole Azimuth 
ROT                .deg                                    : Relative Bearing 
~Ascii
66.0000    253.2805   4.014327   4.039113   4.338723   4.22776    8.419281   8.58166    0.05284727 8.58166    4.133437   90.86809   194.9203   58.86492  
66.1524    249.484    8.447456   8.416987   8.126998   8.248125   8.437675   8.400292   0.09145887 8.437675   8.278481   93.09449   116.7273   132.4948  
66.3048    244.6873   8.435679   8.384645   7.993865   7.981326   8.383396   8.358486   0.09586696 8.383396   8.182985   94.68028   78.60822   166.1147  
66.4572    246.8431   8.329638   8.486285   8.058546   8.050716   8.327319   8.442389   0.05322705 8.442389   8.194092   94.18791   78.6502    157.1242  
66.6096    324.1739   8.499381   8.575502   8.181482   8.155656   8.370112   8.576071   0.06328911 8.576071   8.340431   91.69351   194.8445   125.6207  
66.762     10.80077   8.48284    8.756926   8.114454   8.13687    8.373096   8.631245   0.06361016 8.631245   8.298647   88.79282   217.5887   153.3186  
66.9144    11.42417   8.49018    8.565962   7.968603   8.114036   8.28755    8.511904   0.07137793 8.511904   8.229391   87.54203   232.1277   139.299   
67.0668    9.752812   8.588663   8.534249   8.040961   8.072214   8.302346   8.477633   0.0937034  8.477633   8.302346   87.11471   220.6662   149.0982  
67.2192    7.405707   8.454247   8.582003   8.048041   8.186222   8.207358   8.592648   0.07268466 8.592648   8.207358   87.93453   222.4428   146.1214  
67.3716    339.2802   8.454247   8.524394   8.094215   8.200797   8.368804   8.664349   0.04915831 8.664349   8.274232   89.24339   224.226    143.5908  
67.524     323.9658   8.461752   8.458399   8.087904   8.14274    8.339989   8.49173    0.07055319 8.49173    8.274828   91.27894   255.4189   111.4964  
67.6764    327.9702   8.482018   8.539333   8.089867   8.057033   8.150055   8.525709   0.06546819 8.525709   8.150055   94.16584   242.6121   122.7959  
67.8288    331.7306   9.399861   8.890018   8.507696   7.930016   8.734939   8.730168   0.05001361 8.953779   8.410017   95.35124   245.9012   113.8873  
67.9812    335.0949   8.422644   8.555793   8.374179   8.082984   8.424759   8.69687    0.06684992 8.69687    8.319388   94.77431   251.1677   105.9246  
68.1336    338.242    8.651433   8.621998   8.109721   8.117194   8.457784   8.593473   0.06363726 8.593473   8.369596   92.28221   271.6226   85.10191  
68.286     341.1046   8.520086   8.621945   8.061932   7.985455   8.286651   8.660897   0.08311483 8.660897   8.286651   89.38646   284.2193   72.28074  
68.4384    344.0233   8.906405   8.769506   8.344397   8.009907   8.276146   8.768669   0.05386356 8.768669   8.276146   88.25115   253.0975   103.806   
68.5908    347.1071   9.473697   8.621579   8.323965   8.579539   9.310381   9.894698   0.06485499 9.894698   8.600559   89.55811   99.54135   258.0573  
68.7432    350.3403   8.69098    9.857984   8.613741   8.281039   8.519256   8.755204   0.07127052 9.069511   8.519256   91.22836   344.9493   12.72366  
68.8956    353.6882   8.766129   8.448911   8.080286   8.577191   8.376325   8.736877   0.07677079 8.736877   8.376325   92.31059   338.271    16.51209  
69.048     356.0849   8.482566   8.566644   8.053467   7.979648   8.258654   8.568536   0.09172104 8.568536   8.258654   93.41512   21.23551   330.724   
69.2004    356.0895   8.455672   8.664248   8.031688   7.976595   8.335411   8.575196   0.09047706 8.575196   8.24368    92.89986   2.359689   348.4641  
69.3528    355.4807   8.63763    8.671796   7.997443   8.130271   8.31563    8.581369   0.07859448 8.581369   8.31563    92.24458   30.58143   319.4228  
69.5052    354.9233   8.447072   8.692869   8.093753   8.085899   8.335371   8.522598   0.07539122 8.522598   8.270412   91.61077   12.69678   336.6852  
69.6576    354.412    8.680463   8.163646   8.020876   8.124724   8.206909   8.612918   0.0531299  8.612918   8.144185   90.72864   11.82794   336.6727  
69.81      353.9184   8.50201    7.924111   8.122919   8.182416   8.252522   8.660654   0.09181359 8.660654   8.053264   90.30728   13.1852    334.1407  
69.9624    353.4329   8.58543    9.29637    8.321387   8.441767   8.533071   9.063449   0.0936491  9.063449   8.453408   88.68555   18.28684   328.3704  
70.1148    352.9621   10.05498   11.56981   7.980732   9.35909    9.259617   9.926346   0.1637091  10.46445   9.017857   86.24371   36.63069   311.4818  
70.2672    352.5854   7.463874   8.979287   8.640868   7.949413   8.514964   8.731287   0.2151068  8.731287   8.052371   83.33464   14.05127   336.4079  
70.4196    352.3538   8.261116   8.318702   7.74347    7.924253   8.042357   8.261312   0.1606626  8.261312   8.002293   79.89319   21.29967   330.6384  
70.572     352.1287   8.841607   9.02898    7.628678   9.140913   8.45525    9.086734   0.1175217  9.086734   8.235143   77.75377   31.95141   321.0533  
70.7244    351.8975   7.713605   9.105197   8.468333   10.59202   8.409513   10.40979   0.1267786  10.40979   8.090969   77.65355   16.6475    336.0501  
70.8768    351.6447   9.19446    8.580378   7.90656    9.25407    8.326992   9.278651   0.1396436  9.278651   8.326992   79.03723   7.047839   350.3331  
71.0292    351.3464   8.590908   8.415992   8.003215   9.340992   8.43048    8.319937   0.1111227  8.878492   8.297062   81.81863   7.401278   3.090574  
71.1816    351.0114   8.433105   8.442935   8.03546    7.903996   8.344894   8.58657    0.1321533  8.58657    8.173465   85.61259   7.305925   350.3152  
71.334     350.6963   8.668797   8.369024   8.261247   8.16015    8.406816   8.720203   0.1412291  8.720203   8.264587   89.09016   8.835117   342.797   
71.4864    350.4586   8.550157   8.121606   8.487149   8.032579   8.647472   9.065636   0.139401   9.065636   8.077093   90.21622   9.695275   340.7634  
71.6388    350.2622   8.447839   8.917484   7.944824   7.538677   8.215206   8.538202   0.1666589  8.538202   8.196331   90.4834    10.99094   339.2714  
71.7912    350.0833   8.213079   8.455254   8.016951   8.110474   8.20184    8.455611   0.1438889  8.455611   8.115015   90.5423    12.33204   337.7661  
71.9436    349.9091   8.293159   8.813538   8.015258   8.136708   8.182631   8.588369   0.1355949  8.588369   8.154208   90.06657   7.166571   343.9243  
72.096     349.7307   8.302908   8.352512   8.024993   8.037073   8.175069   8.427806   0.1331999  8.427806   8.16395    87.62402   1.91465    350.4756  
72.2484    349.5569   8.008389   8.257791   7.95115    7.95109    8.139061   8.202589   0.117162   8.202589   7.97977    84.67959   4.632163   347.5682  
72.4008    349.393    8.51543    8.338516   7.574052   7.80529    8.035204   8.286929   0.1212672  8.286929   8.035204   80.82541   5.374417   346.1947  
72.5532    349.202    8.146584   8.050211   7.716593   7.810365   8.018242   8.126609   0.1809388  8.126609   7.930288   72.62355   8.91959    342.2533  
72.7056    348.9354   8.060369   8.060695   7.75573    7.768173   8.006676   8.11679    0.2143299  8.11679    7.90805    62.68466   9.026995   341.6854  
72.858     348.6048   8.031231   8.083864   7.75586    7.746755   8.007901   8.116449   0.1660123  8.116449   7.893546   54.22361   13.62195   336.9493  
73.0104    348.2185   7.975825   8.110545   7.780555   7.715272   8.000094   8.117811   0.2001773  8.117811   7.878191   52.69028   11.29503   338.4646  
73.1628    347.7961   7.980655   8.094768   7.793907   7.729766   7.985332   8.098901   0.1991742  8.098901   7.887281   56.49771   8.058535   341.0112  
73.3152    347.3765   8.505625   8.036897   7.455509   7.755657   8.002833   8.130984   0.1509992  8.130984   7.896277   58.43143   6.162043   342.3912  
73.4676    346.9045   8.264128   8.046123   7.645607   7.788861   8.008391   8.126756   0.1003446  8.126756   7.917491   54.02818   357.5166   350.1899  
73.62      346.4067   8.092303   8.044812   7.767205   7.780732   7.990122   8.11013    0.140552   8.11013    7.912772   44.63501   359.6659   347.1901  
73.7724    345.9084   8.027342   8.078674   7.808653   7.746798   7.972308   8.075616   0.1113506  8.075616   7.912736   35.88763   4.151051   341.9782  
