~Version
 VERS              .         2.0                           : CWLS LOG ASCII STANDARD - VERSION 2.0
 WRAP              .         NO                            : ONE LINE PER DEPTH STEP
 DLM               .         SPACE                         : DELIMITING CHARACTER(SPACE TAB OR COMMA)
~Well Information
#_______________________________________________________________________________
#
#PARAMETER_NAME    .UNIT     VALUE                         : DESCRIPTION
#_______________________________________________________________________________
STRT               .m        66                            : First reference value
STOP               .m        322.032                       : Last reference value
STEP               .m        0.1524                        : Step increment
NULL               .         -9999                         : Missing value
COMP               .                                       : Company
WELL               .         D                             : Well name
FLD                .                                       : Field
LOC                .                                       : Location
CNTY               .                                       : County
STAT               .                                       : State
CTRY               .                                       : Country
SRVC               .                                       : Service Company
DATE               .                                       : Date
API                .                                       : API number
~Parameter Information Block
#_______________________________________________________________________________
#
#PARAMETER_NAME    .UNIT     VALUE                         : DESCRIPTION
#_______________________________________________________________________________
SET                .         Inclination                   : 
TLFamily_AZI       .         Hole Azimuth                  : 
TLFamily_CAL2      .         Caliper 2                     : 
TLFamily_CAL4      .         Caliper                       : 
TLFamily_CAL6      .         Caliper                       : 
TLFamily_CAL8      .         Caliper                       : 
TLFamily_CALX      .         Caliper 1                     : 
TLFamily_CALY      .         Caliper 2                     : 
TLFamily_DEV       .         Hole Deviation                : 
TLFamily_DMAX      .         Caliper                       : 
TLFamily_DMIN      .         Caliper                       : 
TLFamily_GR        .         Gamma Ray                     : 
TLFamily_HAZI      .         Hole Azimuth                  : 
TLFamily_MD        .         Measured Depth                : 
TLFamily_ROT       .         Relative Bearing              : 
~Curve Information
#_______________________________________________________________________________
#
#LOGNAME           .UNIT     LOG_ID                        : DESCRIPTION
#_______________________________________________________________________________
MD                 .m                                      :  
AZI                .deg                                    : Pad 1 Azimuth 
CAL2               .in                                     : Caliper 
CAL4               .in                                     : Caliper 
CAL6               .in                                     : Caliper 
CAL8               .in                                     : Caliper 
CALX               .in                                     : Caliper 
CALY               .in                                     : Caliper 
DEV                .deg                                    : Deviation 
DMAX               .in                                     : Caliper 
DMIN               .in                                     : Caliper 
GR                 .gAPI                                   : Gamma Ray 
HAZI               .deg                                    : Hole Azimuth 
ROT                .deg                                    : Relative Bearing 
~Ascii
# ...
113.244    212.5818   7.995901   8.106142   8.126959   7.885674   8.21492    8.194714   0.2102696  8.21492    7.995908   113.031    165.1778   47.40385  
113.3964   212.165    8.8616     8.558676   8.095984   7.418854   9.149426   8.710773   0.265838   9.149426   7.988765   111.0248   164.9194   47.24547  
113.5488   211.7332   8.933463   8.86061    8.745027   8.143348   8.699053   8.254312   0.272279   8.839246   8.254312   107.5244   164.7117   47.02134  
113.7012   211.4694   8.658171   8.502221   10.40215   7.915737   8.77765    8.332917   0.2823218  9.530162   8.208979   104.4253   164.5993   46.86998  
113.8536   211.2508   8.154691   8.571152   9.185943   8.47954    8.552526   8.98815    0.269764   8.98815    8.525347   101.9924   164.8649   46.38575  
114.006    211.0373   10.21181   9.380713   7.77244    9.104071   8.561109   9.460798   0.2170262  9.460798   8.561109   100.7065   164.9976   46.03951  
114.1584   210.8467   9.17151    10.16058   9.512273   8.090878   8.79306    9.298242   0.2768443  9.34189    8.79306    98.72118   164.9664   45.88019  
114.3108   210.6519   11.79507   8.937876   10.0739    11.1507    10.15395   12.03113   0.3212138  12.03113   10.04429   97.47258   164.9448   45.707    
114.4632   210.4575   11.53638   10.76242   10.27125   8.954193   10.08626   11.25621   0.3589559  11.25621   9.858306   98.53827   164.5632   45.89415  
114.6156   210.2777   11.53967   11.04366   9.501114   9.14735    10.1734    11.24922   0.4203257  11.24922   10.0955    99.71139   164.0022   46.27537  
114.768    210.1099   8.433543   8.954545   7.956997   7.498593   8.229225   8.475202   0.3602692  8.475202   8.195271   103.9024   163.581    46.52884  
114.9204   209.9586   8.247586   8.291444   8.00483    7.966745   8.228734   8.294416   0.3270983  8.294416   8.126208   106.382    163.299    46.65951  
115.0728   209.83     8.2661     8.278863   7.95787    7.928037   8.227427   8.246777   0.270975   8.246777   8.10345    104.6345   162.6919   47.13805  
115.2252   209.6852   8.156662   8.220049   7.852153   7.908941   8.095123   8.310895   0.2540349  8.310895   8.004408   101.3358   162.0338   47.65131  
115.3776   209.5155   8.231264   8.293541   7.951936   7.893115   8.216064   8.359701   0.2494931  8.359701   8.0916     98.13428   161.1713   48.34407  
115.53     209.3283   8.202672   8.293541   7.98034    7.901802   8.238626   8.328152   0.2725089  8.328152   8.091506   97.59046   160.7053   48.62292  
115.6824   209.0874   8.229566   8.263348   7.956299   7.905372   8.236623   8.328979   0.2553011  8.328979   8.08436    98.689     160.8281   48.2592   
115.8348   208.7138   8.744658   8.596103   8.461792   8.358852   8.485822   9.417729   0.2619762  9.417729   8.475195   99.1059    160.8635   47.85012  
115.9872   208.2805   9.278702   10.54024   8.70147    9.638319   8.82776    9.006185   0.261005   10.08928   8.82776    99.87057   160.8019   47.47858  
116.1396   207.7824   7.999187   9.517893   9.046      9.39006    10.25543   8.967441   0.1913418  10.25543   8.522593   102.1863   160.2049   47.57743  
116.292    207.1908   8.093399   8.471765   8.081941   8.363589   9.188295   8.337146   0.2189026  9.188295   8.087669   104.522    158.9499   48.24086  
116.4444   206.5954   7.711606   8.495511   8.413195   7.891953   8.245043   8.346966   0.2745391  8.346966   8.0624     106.6999   158.0515   48.5438   
116.5968   205.9506   8.333307   8.370387   8.401113   7.963864   8.224443   8.658759   0.2562952  8.658759   8.167126   108.2497   157.9574   47.99318  
116.7492   205.3985   8.138696   8.225185   8.01545    7.982401   8.179811   8.33175    0.2440137  8.33175    8.077074   110.545    157.6639   47.73449  
116.9016   205.0236   8.252188   8.262718   7.956779   7.916124   8.156554   8.310701   0.2517262  8.310701   8.089421   113.4274   157.2019   47.82165  
117.054    204.6709   8.244026   8.263137   7.950453   7.908038   8.149933   8.312111   0.270395   8.312111   8.085588   114.0125   156.2265   48.44436  
117.2064   204.3248   8.245067   8.266807   7.950409   7.898361   8.149198   8.325235   0.252962   8.325235   8.082584   111.8639   155.4827   48.84201  
117.3588   204.0457   8.217735   8.22183    7.932477   7.898103   8.05703    8.195735   0.2305366  8.195735   8.05703    105.5531   154.8539   49.19172  
117.5112   203.8091   8.153869   8.105042   7.76991    7.775614   8.019141   8.120679   0.2370646  8.120679   7.940328   98.49526   154.4718   49.33722  
117.6636   203.6075   8.107475   8.092828   7.772658   7.695617   8.028543   8.163166   0.2399078  8.163166   7.894222   93.89295   154.1096   49.49774  
117.816    203.418    8.214996   8.11951    7.690633   7.779011   7.981017   8.175269   0.2227083  8.175269   7.949261   92.32603   153.796    49.62182  
117.9684   203.2288   8.100465   8.120505   7.778025   7.779957   7.968112   8.177603   0.227927   8.177603   7.939245   94.16066   153.5104   49.71827  
118.1208   203.0306   8.080033   8.123231   7.766551   7.775614   7.968349   8.174638   0.2074365  8.174638   7.923292   96.91207   153.1558   49.87469  
118.2732   202.8261   8.077787   8.135549   7.768819   7.773764   7.968943   8.150477   0.2408691  8.150477   7.923303   98.38427   152.7968   50.02917  
118.4256   202.673    8.075597   8.131093   7.822572   7.777334   7.967953   8.137645   0.2668443  8.137645   7.949084   98.12527   152.2761   50.39679  
118.578    202.4924   8.080526   8.129731   7.82087    7.763313   7.948753   8.135652   0.2162361  8.135652   7.946522   96.20439   151.7334   50.75891  
118.7304   202.1555   8.074392   8.108082   7.815417   7.761937   7.946179   8.126513   0.1823253  8.126513   7.935009   93.73015   151.0123   51.14303  
118.8828   201.7917   8.087647   8.099694   7.800582   7.755141   7.946853   8.122672   0.2160281  8.122672   7.927418   92.68347   150.013    51.77851  
119.0352   201.4245   8.068312   8.078046   7.805861   7.758497   7.945547   8.112706   0.2184822  8.112706   7.918271   91.79929   149.0919   52.33242  
119.1876   201.0763   8.070887   8.075163   7.796262   7.77699    7.941034   8.112706   0.2018892  8.112706   7.926076   91.76865   148.3672   52.70895  
119.34     200.759    8.067928   8.084912   7.789674   7.776001   7.934304   8.110859   0.2201299  8.110859   7.928802   94.09848   147.6829   53.07597  
119.4924   200.449    8.080526   8.092566   7.792598   7.787011   7.926782   8.115186   0.2264354  8.115186   7.926782   97.74231   147.2547   53.19421  
119.6448   200.1439   8.14757    8.153687   7.798619   7.808903   8.032711   8.111686   0.2283517  8.111686   7.973094   100.8861   146.9145   53.22918  
119.7972   199.8466   8.134095   8.143936   7.811097   7.77342    7.994781   8.111394   0.2441129  8.111394   7.958678   101.9462   146.2864   53.55996  
119.9496   199.5576   8.10764    8.112065   7.806472   7.787398   8.001117   8.104589   0.226047   8.104589   7.949732   100.2335   145.4768   54.08059  
120.102    199.2782   8.468872   8.464689   7.840285   7.8689     8.009332   8.184992   0.2090226  8.184992   8.009332   95.99866   145.306    53.97207  
120.2544   199.0122   8.08195    7.986871   7.803593   7.847095   7.943013   8.116887   0.2303791  8.116887   7.916983   90.54852   145.1907   53.8214   
120.4068   198.7594   8.071435   8.113167   7.828418   7.80744    7.951405   8.148437   0.247903   8.148437   7.949926   88.04902   145.5636   53.19574  
120.5592   198.5052   8.243752   8.191689   7.894824   7.897286   8.052493   8.240652   0.2070412  8.240652   8.044488   89.96464   145.832    52.67305  
120.7116   198.218    8.14757    8.187863   7.852895   7.866836   8.06643    8.204144   0.2023054  8.204144   8.000232   92.95653   145.9636   52.25435  
120.864    197.8877   8.162414   8.120558   7.825233   7.81901    8.037534   8.230686   0.2076388  8.230686   7.969784   92.93452   146.1911   51.69652  
121.0164   197.5153   8.032216   8.046961   7.886708   7.912124   8.105055   8.194568   0.2307401  8.194568   7.959462   87.09951   146.5488   50.96642  
