~Version
 VERS              .         2.0                           : CWLS LOG ASCII STANDARD - VERSION 2.0
 WRAP              .         NO                            : ONE LINE PER DEPTH STEP
 DLM               .         SPACE                         : DELIMITING CHARACTER(SPACE TAB OR COMMA)
~Well Information
#_______________________________________________________________________________
#
#PARAMETER_NAME    .UNIT     VALUE                         : DESCRIPTION
#_______________________________________________________________________________
STRT               .m        66                            : First reference value
STOP               .m        322.032                       : Last reference value
STEP               .m        0.1524                        : Step increment
NULL               .         -9999                         : Missing value
COMP               .                                       : Company
WELL               .         D                             : Well name
FLD                .                                       : Field
LOC                .                                       : Location
CNTY               .                                       : County
STAT               .                                       : State
CTRY               .                                       : Country
SRVC               .                                       : Service Company
DATE               .                                       : Date
API                .                                       : API number
~Parameter Information Block
#_______________________________________________________________________________
#
#PARAMETER_NAME    .UNIT     VALUE                         : DESCRIPTION
#_______________________________________________________________________________
SET                .         Inclination                   : 
TLFamily_AZI       .         Hole Azimuth                  : 
TLFamily_CAL2      .         Caliper 2                     : 
TLFamily_CAL4      .         Caliper                       : 
TLFamily_CAL6      .         Caliper                       : 
TLFamily_CAL8      .         Caliper                       : 
TLFamily_CALX      .         Caliper 1                     : 
TLFamily_CALY      .         Caliper 2                     : 
TLFamily_DEV       .         Hole Deviation                : 
TLFamily_DMAX      .         Caliper                       : 
TLFamily_DMIN      .         Caliper                       : 
TLFamily_GR        .         Gamma Ray                     : 
TLFamily_HAZI      .         Hole Azimuth                  : 
TLFamily_MD        .         Measured Depth                : 
TLFamily_ROT       .         Relative Bearing              : 
~Curve Information
#_______________________________________________________________________________
#
#LOGNAME           .UNIT     LOG_ID                        : DESCRIPTION
#_______________________________________________________________________________
MD                 .m                                      :  
AZI                .deg                                    : Pad 1 Azimuth 
CAL2               .in                                     : Caliper 
CAL4               .in                                     : Caliper 
CAL6               .in                                     : Caliper 
CAL8               .in                                     : Caliper 
CALX               .in                                     : Caliper 
CALY               .in                                     : Caliper 
DEV                .deg                                    : Deviation 
DMAX               .in                                     : Caliper 
DMIN               .in                                     : Caliper 
GR                 .gAPI                                   : Gamma Ray 
HAZI               .deg                                    : Hole Azimuth 
ROT                .deg                                    : Relative Bearing 
~Ascii
# ...
97.3944    263.9704   8.115746   8.077207   7.780774   7.769162   7.977969   8.136088   0.03797727 8.136088   7.923184   63.54623   17.26561   247.7178  
97.5468    263.3916   8.116787   8.081924   7.775058   7.76899    7.982283   8.149457   0.05217247 8.149457   7.925457   63.64717   337.7141   286.7027  
97.6992    262.827    8.076529   8.076001   7.779247   7.768861   7.964786   8.140269   0.03449026 8.140269   7.922431   64.23206   340.185    283.622   
97.8516    262.2645   8.056316   8.072699   7.796524   7.768947   7.947407   8.122769   0.03186645 8.122769   7.920823   66.47864   354.9964   268.1955  
98.004     261.6934   8.049306   8.074953   7.797091   7.769764   7.937273   8.122283   0.03219922 8.122283   7.922359   66.26459   12.41237   249.841   
98.1564    261.1068   8.096027   8.052518   7.766463   7.770582   7.972031   8.135603   0.02485658 8.135603   7.91155    61.93302   12.38101   249.0235  
98.30880000000001 260.4944   8.050455   8.182936   7.805599   7.745551   7.983867   8.135117   0.0289977  8.135117   7.928027   57.58413   3.700576   257.5636  
98.46120000000001 259.8669   8.049909   8.121606   7.7871     7.733121   7.994823   8.134436   0.03671102 8.134436   7.918504   53.09842   119.2038   141.4719  
98.61359999999999 259.222    8.083375   8.081977   7.795521   7.785978   7.996253   8.145617   0.05442329 8.145617   7.933978   50.75171   77.60209   182.2099  
98.76599999999999 258.5416   8.081622   8.074953   7.796437   7.796645   8.00361    8.122283   0.04169668 8.122283   7.935799   49.09329   50.03877   209.2841  
98.91839999999999 257.8335   8.07954    8.062634   7.799666   7.801979   7.982164   8.054665   0.05292394 8.054665   7.932307   48.65751   35.07661   223.2561  
99.07079999999999 257.1159   8.073297   8.037106   7.796306   7.802022   7.978839   8.023893   0.07367342 8.023893   7.919563   50.76556   33.83907   223.273   
99.22319999999999 256.3875   8.080198   8.062005   7.798313   7.79514    7.97112    8.110422   0.0711821  8.110422   7.928573   53.44881   46.73753   209.6065  
99.37559999999999 255.6419   8.109995   8.076997   7.784482   7.791011   7.968388   8.143186   0.05608659 8.143186   7.934004   55.5047    12.60595   243.5421  
99.52799999999999 254.8852   8.105175   8.098804   7.786402   7.789334   7.992983   8.165304   0.02832274 8.165304   7.944069   55.60624   348.0965   267.9597  
99.68039999999999 254.1326   8.081568   8.101372   7.791987   7.78056    7.964034   8.18086    0.01859485 8.18086    7.936777   57.64198   59.90126   195.5855  
99.83279999999999 253.3921   8.078336   8.032074   7.782388   7.794452   7.955166   8.149894   0.02523007 8.149894   7.913263   63.40621   134.8235   120.6936  
99.98519999999999 252.6494   8.109282   8.076997   7.777458   7.785763   7.97979    8.148631   0.05596992 8.148631   7.93138    68.84222   305.6299   307.8158  
100.1376   251.9058   8.108243   8.083864   7.774578   7.770797   7.984303   8.159957   0.03672748 8.159957   7.92733    73.21182   315.2477   297.9272  
100.29     251.1575   8.083539   8.088844   7.775495   7.768689   8.012193   8.139541   0.01695234 8.139541   7.928767   74.01664   313.5246   299.1962  
100.4424   250.4034   8.106215   8.102211   7.781297   7.772172   8.00267    8.138811   0.01184826 8.138811   7.937191   75.3258    302.9159   309.1041  
100.5948   249.6704   8.108406   8.093928   7.774273   7.780431   8.00361    8.142699   0.02909351 8.142699   7.93718    75.41686   1.675508   250.4328  
100.7472   248.9516   8.095426   8.106614   7.780599   7.777807   8.006471   8.1812     0.03010659 8.1812     7.938012   71.14124   13.92511   237.0082  
100.8996   248.2227   8.093509   8.0868     7.793514   7.771313   8.005245   8.191749   0.05477071 8.191749   7.929056   66.64801   149.5415   98.87518  
101.052    247.488    8.101889   8.095658   7.773749   7.762023   8.000749   8.179401   0.0877582  8.179401   7.928841   63.26538   97.11159   150.8959  
101.2044   246.758    8.13048    8.093771   7.758304   7.766409   8.003814   8.182319   0.05343029 8.182319   7.93009    61.91766   118.3385   128.7386  
101.3568   246.0176   8.129932   8.103154   7.762929   7.796602   8.033323   8.222423   0.05278537 8.222423   7.946431   60.11181   90.31211   155.514   
101.5092   245.2865   8.213846   8.108396   7.714543   7.812687   8.040681   8.203804   0.05139087 8.203804   7.960542   57.42622   84.30473   160.5807  
101.6616   244.5668   8.145543   8.122811   7.754901   7.793161   7.965895   8.142845   0.0567277  8.142845   7.950222   54.60068   97.84064   145.8128  
101.814    243.8462   8.052319   8.126585   7.809308   7.803957   7.969536   8.137839   0.08090915 8.137839   7.930813   54.32131   115.0527   127.3127  
101.9664   243.1154   8.064314   8.072123   7.821393   7.798322   7.978127   8.136867   0.1002842  8.136867   7.935223   54.91671   110.6013   130.9398  
102.1188   242.3831   8.069188   8.03286    7.819561   7.797376   7.974405   8.101283   0.09081752 8.101283   7.915118   54.22948   102.9286   138.1959  
102.2712   241.6529   8.069298   8.05409    7.819169   7.785204   7.983154   8.095304   0.0912671  8.095304   7.919647   53.48593   105.0216   135.8007  
102.4236   240.9167   8.067655   8.085332   7.815023   7.780344   7.988578   8.089664   0.09799799 8.089664   7.932838   54.29504   102.8058   137.6131  
102.576    240.1687   8.066285   8.088058   7.806472   7.780302   7.978642   8.102839   0.1202023  8.102839   7.934179   57.8663    107.6912   132.2857  
102.7284   239.4236   8.069353   8.087639   7.806079   7.778839   7.968943   8.107456   0.09919014 8.107456   7.933239   60.09365   97.74737   141.3939  
102.8808   238.6948   8.043938   8.07511    7.800625   7.798752   7.958373   8.124471   0.06155959 8.124471   7.922281   59.63705   75.11928   163.1388  
103.0332   237.9816   8.006746   8.079251   7.79731    7.792989   7.953108   8.067352   0.08440766 8.067352   7.902028   58.07452   82.61594   155.11    
103.1856   237.2887   8.006363   8.093561   7.817336   7.854793   7.973535   8.08106    0.1133851  8.08106    7.911849   59.65024   81.2328    156.2814  
103.338    236.6297   8.043281   8.107452   7.807781   7.755356   7.973099   8.108429   0.1044291  8.108429   7.925531   66.37316   92.8353    143.8445  
103.4904   235.9883   8.050565   8.095606   7.802414   7.771227   7.973574   8.144402   0.08963003 8.144402   7.92649    73.16697   94.62962   141.3585  
103.6428   235.3637   8.080417   8.103573   7.795652   7.832042   7.97302    8.190534   0.1221013  8.190534   7.938034   77.7805    93.98328   141.3803  
103.7952   234.7652   8.062889   8.072856   7.799928   7.809935   7.980463   8.134145   0.1303146  8.134145   7.931408   80.01639   93.50103   141.2641  
103.9476   234.1828   8.070174   8.076472   7.808174   7.77699    7.972703   8.079797   0.1426571  8.079797   7.926731   80.41172   93.40545   140.7774  
104.1      233.6214   8.076966   8.067351   7.820652   7.781807   7.978839   8.052283   0.1339916  8.052283   7.924579   80.24267   93.18715   140.4342  
104.2524   233.1077   8.09318    8.066566   7.823314   7.785419   7.977256   8.06074    0.1416555  8.06074    7.925993   78.52097   92.64445   140.4632  
104.4048   232.6303   8.073242   8.076106   7.811751   7.768474   7.977454   8.0447     0.1543574  8.0447     7.92229    76.13951   92.07199   140.5582  
104.5572   232.1522   8.063931   8.072437   7.797091   7.760388   7.990899   8.048247   0.1702559  8.048247   7.916413   74.87943   91.71858   140.4334  
104.7096   231.6672   8.059877   8.072018   7.788235   7.746282   7.973732   8.057873   0.1637431  8.057873   7.90915    76.92837   91.43963   140.2274  
104.862    231.1696   8.054783   8.075739   7.802327   7.784817   7.967755   8.094574   0.1903698  8.094574   7.928555   81.71113   91.03789   140.1315  
105.0144   230.6701   8.044267   8.086432   7.803418   7.763012   7.965815   8.104297   0.1475751  8.104297   7.923842   84.62623   90.6968    139.9733  
105.1668   230.185    8.043774   8.08271    7.814806   7.764904   7.939569   8.084171   0.1518368  8.084171   7.923808   84.61623   90.56817   139.6167  
