~Version
 VERS              .         2.0                           : CWLS LOG ASCII STANDARD - VERSION 2.0
 WRAP              .         NO                            : ONE LINE PER DEPTH STEP
 DLM               .         SPACE                         : DELIMITING CHARACTER(SPACE TAB OR COMMA)
~Well Information
#_______________________________________________________________________________
#
#PARAMETER_NAME    .UNIT     VALUE                         : DESCRIPTION
#_______________________________________________________________________________
STRT               .m        66                            : First reference value
STOP               .m        322.032                       : Last reference value
STEP               .m        0.1524                        : Step increment
NULL               .         -9999                         : Missing value
COMP               .                                       : Company
WELL               .         D                             : Well name
FLD                .                                       : Field
LOC                .                                       : Location
CNTY               .                                       : County
STAT               .                                       : State
CTRY               .                                       : Country
SRVC               .                                       : Service Company
DATE               .                                       : Date
API                .                                       : API number
~Parameter Information Block
#_______________________________________________________________________________
#
#PARAMETER_NAME    .UNIT     VALUE                         : DESCRIPTION
#_______________________________________________________________________________
SET                .         Inclination                   : 
TLFamily_AZI       .         Hole Azimuth                  : 
TLFamily_CAL2      .         Caliper 2                     : 
TLFamily_CAL4      .         Caliper                       : 
TLFamily_CAL6      .         Caliper                       : 
TLFamily_CAL8      .         Caliper                       : 
TLFamily_CALX      .         Caliper 1                     : 
TLFamily_CALY      .         Caliper 2                     : 
TLFamily_DEV       .         Hole Deviation                : 
TLFamily_DMAX      .         Caliper                       : 
TLFamily_DMIN      .         Caliper                       : 
TLFamily_GR        .         Gamma Ray                     : 
TLFamily_HAZI      .         Hole Azimuth                  : 
TLFamily_MD        .         Measured Depth                : 
TLFamily_ROT       .         Relative Bearing              : 
~Curve Information
#_______________________________________________________________________________
#
#LOGNAME           .UNIT     LOG_ID                        : DESCRIPTION
#_______________________________________________________________________________
MD                 .m                                      :  
AZI                .deg                                    : Pad 1 Azimuth 
CAL2               .in                                     : Caliper 
CAL4               .in                                     : Caliper 
CAL6               .in                                     : Caliper 
CAL8               .in                                     : Caliper 
CALX               .in                                     : Caliper 
CALY               .in                                     : Caliper 
DEV                .deg                                    : Deviation 
DMAX               .in                                     : Caliper 
DMIN               .in                                     : Caliper 
GR                 .gAPI                                   : Gamma Ray 
HAZI               .deg                                    : Hole Azimuth 
ROT                .deg                                    : Relative Bearing 
~Ascii
# ...
232.116    295.7849   8.458739   8.286464   7.806036   7.958359   8.124592   8.394506   0.3755337  8.394506   8.122412   89.2229    81.12344   214.6615  
232.2684   295.6657   8.301155   8.112695   7.94478    7.791226   8.065818   8.371951   0.3603053  8.371951   7.95196    90.12054   81.1068    214.559   
232.4208   295.5504   8.240356   8.284786   7.966771   7.808215   8.095245   8.322562   0.3340771  8.322562   8.0465     87.48034   81.38355   214.1669  
232.5732   295.4146   8.28056    7.953912   8.150661   7.933929   8.07624    8.319111   0.3359385  8.319111   7.943921   81.30145   81.63311   213.7816  
232.7256   295.2684   8.123414   7.861055   7.754377   8.033591   7.990489   8.144936   0.3047041  8.144936   7.938896   75.96898   81.61599   213.6524  
232.878    295.1392   8.080526   8.123441   7.76546    7.72267    7.953108   8.085339   0.2474871  8.085339   7.922993   72.22944   81.22129   213.9179  
233.0304   295.0164   8.094987   8.095501   7.7508     7.661984   7.962015   8.048928   0.2400789  8.048928   7.878742   70.60619   80.85875   214.1576  
233.1828   294.8893   8.093563   8.128682   7.745913   7.634974   7.96253    8.082179   0.2371572  8.082179   7.881828   68.93508   80.73677   214.1525  
233.3352   294.7635   8.042788   8.145719   7.748967   7.672694   7.916093   8.130548   0.2250642  8.130548   7.895877   67.03569   80.32642   214.437   
233.4876   294.6275   8.104682   8.196565   7.728243   7.657296   7.967319   8.130596   0.2705337  8.130596   7.916462   68.16685   80.01408   214.6134  
233.64     294.4886   8.066011   8.096969   7.745389   7.722239   7.961619   8.10138    0.297633   8.10138    7.905701   71.14834   79.6143    214.8743  
233.7924   294.3593   8.062287   8.095344   7.831603   7.744648   7.930187   8.069832   0.325092   8.069832   7.919995   74.7229    79.34368   215.0156  
233.9448   294.2087   8.063547   8.076473   7.832607   7.751744   7.901565   8.089713   0.3149122  8.089713   7.901565   76.84837   78.89294   215.3157  
234.0972   294.0213   8.03857    8.029662   7.840722   7.755486   7.837156   8.104734   0.3009602  8.104734   7.837156   77.69541   78.50803   215.5133  
234.2496   293.8289   8.065025   8.085542   7.831123   7.719272   7.939806   8.106436   0.2573979  8.106436   7.902407   79.93618   77.73138   216.0975  
234.402    293.6544   8.104627   8.04455    7.822397   7.770625   7.988737   8.124714   0.2918279  8.124714   7.907587   81.25562   77.46172   216.1927  
234.5544   293.4589   8.084579   8.040933   7.825713   7.764303   8.013542   8.145811   0.3063665  8.145811   7.902617   82.25415   77.33221   216.1267  
234.7068   293.2173   8.116897   8.042768   7.841071   7.803312   7.952316   8.169534   0.28826    8.169534   7.923039   84.61681   77.46225   215.755   
234.8592   292.9963   8.118211   8.05907    8.0779     8.354803   8.14135    8.227867   0.3052671  8.227867   8.098055   87.05123   77.72175   215.2746  
235.0116   292.9038   8.147953   7.992546   7.709351   7.803914   7.922863   8.06113    0.2623103  8.06113    7.89823    88.3184    77.52624   215.3776  
235.164    292.8408   8.118868   8.04324    7.715066   7.737938   7.90877    8.044747   0.2396878  8.044747   7.890589   86.5849    77.55024   215.2906  
235.3164   292.7628   8.123797   8.028666   7.654813   7.732519   7.853229   8.044262   0.2209734  8.044262   7.853229   83.8946    77.83347   214.9293  
235.4688   292.6842   8.176162   7.980359   7.674141   7.730885   7.985609   8.030116   0.2255455  8.030116   7.855622   82.50967   78.41948   214.2647  
235.6212   292.6067   8.043882   8.174549   7.792554   7.648522   7.9938     8.131665   0.2019629  8.131665   7.911535   80.65813   78.82568   213.7811  
235.7736   292.5194   8.006473   8.148916   7.821437   7.694499   7.972901   8.183485   0.2299536  8.183485   7.913955   78.24792   78.69782   213.8217  
235.926    292.4237   8.025479   8.159348   7.833523   7.746325   8.010149   8.191312   0.2658212  8.191312   7.929501   77.02574   78.7154    213.7083  
236.0784   292.363    8.13048    8.172086   7.790853   7.819053   7.9938     8.193596   0.2800625  8.193596   7.960666   78.95382   78.50186   213.8611  
236.2308   292.317    8.283737   8.34921    8.105181   8.210473   7.97591    8.374139   0.2699649  8.374139   7.97591    83.54253   78.09119   214.2258  
236.3832   292.2646   8.00943    8.02007    7.877023   7.893028   8.02609    8.156943   0.2308667  8.156943   7.943226   87.83701   77.51657   214.7481  
236.5356   292.2212   8.264348   8.263453   8.248164   7.919651   8.117929   8.498632   0.1840771  8.498632   8.091552   92.22771   77.10721   215.114   
236.688    292.1998   8.463669   8.598619   8.176019   8.599013   8.647554   8.71753    0.2253506  8.71753    8.319843   96.62515   77.17523   215.0246  
236.8404   292.1783   8.838869   8.902231   8.442554   8.811846   9.012994   9.205734   0.2333794  9.205734   8.640711   101.8777   77.58117   214.5972  
236.9928   292.1555   8.942993   9.047065   8.51416    8.522697   8.851915   8.952469   0.226052   8.952469   8.728577   106.5691   77.97971   214.1758  
237.1452   292.1376   8.668359   9.040512   8.229887   8.176627   8.725333   8.938031   0.2359714  8.938031   8.449123   109.705    78.5641    213.5734  
237.2976   292.0997   8.382165   8.441676   7.80477    8.327881   8.124674   8.388479   0.2506031  8.389696   8.093468   111.4057   79.20073   212.8989  
237.45     292.0416   8.176655   8.385798   7.921657   8.709538   8.333858   8.476418   0.210995   8.547668   8.049156   110.9129   79.09926   212.9424  
237.6024   291.9817   7.922845   8.735276   8.218382   8.212538   8.29131    8.459111   0.1649839  8.473907   8.070613   109.6002   78.9466    213.0351  
237.7548   291.9004   8.149706   8.524971   8.145852   8.203914   8.270424   8.474084   0.1911336  8.474084   8.147779   109.3999   79.07607   212.8243  
237.9072   291.7795   8.132781   8.380504   8.139888   8.201485   8.099496   8.313812   0.1936115  8.313812   8.099496   109.5656   79.75528   212.0242  
238.0596   291.6472   8.550594   8.523556   8.149699   7.70409    8.137344   8.382889   0.2192744  8.382889   8.113823   107.5818   80.40611   211.2411  
238.212    291.5211   8.262376   8.26969    8.160242   7.887825   8.112739   8.393291   0.2433953  8.393291   8.078757   101.9491   80.82111   210.6999  
238.3644   291.3639   8.094001   7.968566   8.149968   8.133995   8.11699    8.297625   0.2134085  8.297625   8.051281   95.50533   81.31742   210.0464  
238.5168   291.1689   8.580173   8.026308   7.404548   7.649769   8.000994   8.108137   0.2123612  8.108137   7.838038   91.38231   81.61212   209.5567  
238.6692   290.9508   8.015565   8.05582    7.811446   7.758883   8.003324   8.081158   0.2069866  8.081158   7.907352   91.52406   82.02425   208.9265  
238.8216   290.7161   7.993546   8.029348   7.820914   7.771528   8.052984   8.117519   0.2285359  8.117519   7.900438   94.83244   82.19247   208.5237  
238.974    290.4992   7.872254   8.22225    8.089443   7.910619   8.000135   8.203707   0.2370546  8.203707   7.980849   96.12644   82.48904   208.0101  
239.1264   290.278    8.004336   7.968023   7.958088   7.816473   7.873419   8.205359   0.2707718  8.205359   7.873419   94.08654   82.79984   207.4781  
239.2788   290.0228   8.26621    7.737805   7.571522   8.071931   7.97397    8.135165   0.2616404  8.135165   7.904868   89.05849   83.13541   206.8873  
239.4312   289.7342   8.052866   8.071388   7.770695   7.762109   7.97116    8.086262   0.2363845  8.086262   7.91178    85.89547   82.90171   206.8325  
239.5836   289.4491   8.058617   8.053042   7.803679   7.763829   7.992084   8.094428   0.2049849  8.094428   7.908436   86.42941   82.70695   206.7421  
239.736    289.1936   8.038077   8.139166   7.91293    7.65278    7.97686    8.079262   0.1959261  8.079262   7.895973   88.57331   82.42625   206.7673  
239.8884   288.884    8.151623   8.370544   7.973708   7.82073    7.991342   8.163408   0.2256156  8.163408   7.991342   88.96687   82.2338    206.6502  
