~Version
 VERS              .         2.0                           : CWLS LOG ASCII STANDARD - VERSION 2.0
 WRAP              .         NO                            : ONE LINE PER DEPTH STEP
 DLM               .         SPACE                         : DELIMITING CHARACTER(SPACE TAB OR COMMA)
~Well Information
#_______________________________________________________________________________
#
#PARAMETER_NAME    .UNIT     VALUE                         : DESCRIPTION
#_______________________________________________________________________________
STRT               .m        66                            : First reference value
STOP               .m        322.032                       : Last reference value
STEP               .m        0.1524                        : Step increment
NULL               .         -9999                         : Missing value
COMP               .                                       : Company
WELL               .         D                             : Well name
FLD                .                                       : Field
LOC                .                                       : Location
CNTY               .                                       : County
STAT               .                                       : State
CTRY               .                                       : Country
SRVC               .                                       : Service Company
DATE               .                                       : Date
API                .                                       : API number
~Parameter Information Block
#_______________________________________________________________________________
#
#PARAMETER_NAME    .UNIT     VALUE                         : DESCRIPTION
#_______________________________________________________________________________
SET                .         Inclination                   : 
TLFamily_AZI       .         Hole Azimuth                  : 
TLFamily_CAL2      .         Caliper 2                     : 
TLFamily_CAL4      .         Caliper                       : 
TLFamily_CAL6      .         Caliper                       : 
TLFamily_CAL8      .         Caliper                       : 
TLFamily_CALX      .         Caliper 1                     : 
TLFamily_CALY      .         Caliper 2                     : 
TLFamily_DEV       .         Hole Deviation                : 
TLFamily_DMAX      .         Caliper                       : 
TLFamily_DMIN      .         Caliper                       : 
TLFamily_GR        .         Gamma Ray                     : 
TLFamily_HAZI      .         Hole Azimuth                  : 
TLFamily_MD        .         Measured Depth                : 
TLFamily_ROT       .         Relative Bearing              : 
~Curve Information
#_______________________________________________________________________________
#
#LOGNAME           .UNIT     LOG_ID                        : DESCRIPTION
#_______________________________________________________________________________
MD                 .m                                      :  
AZI                .deg                                    : Pad 1 Azimuth 
CAL2               .in                                     : Caliper 
CAL4               .in                                     : Caliper 
CAL6               .in                                     : Caliper 
CAL8               .in                                     : Caliper 
CALX               .in                                     : Caliper 
CALY               .in                                     : Caliper 
DEV                .deg                                    : Deviation 
DMAX               .in                                     : Caliper 
DMIN               .in                                     : Caliper 
GR                 .gAPI                                   : Gamma Ray 
HAZI               .deg                                    : Hole Azimuth 
ROT                .deg                                    : Relative Bearing 
~Ascii
# ...
129.0936   180.6278   8.136889   8.104727   7.748051   7.789764   8.0453     8.185186   0.2709818  8.185186   7.94247    56.72943   165.9709   14.65682  
129.246    180.1721   7.950067   8.061062   7.794256   7.806322   8.040804   8.127873   0.261313   8.127873   7.872161   54.06464   165.3086   14.86347  
129.3984   179.6709   7.984509   8.075215   7.864326   7.790366   7.977138   8.088741   0.2301824  8.088741   7.924417   51.34666   164.9606   14.71039  
129.5508   179.1351   8.046677   8.059227   7.798619   7.796473   7.979948   8.089568   0.250347   8.089568   7.922647   50.22321   164.2445   14.89065  
129.7032   178.5836   8.030354   8.036006   7.812581   7.799355   7.96918    8.135895   0.2675199  8.135895   7.91768    49.45084   163.5783   15.00538  
129.8556   178.0246   7.970654   7.878916   7.818994   7.803914   7.954176   8.058408   0.2860733  8.058408   7.841415   48.82376   162.7535   15.27106  
130.008    177.4474   8.052592   8.034328   7.865374   7.938575   8.068801   8.189123   0.3035762  8.189123   7.958983   48.56031   161.8961   15.55129  
130.1604   176.8416   8.08825    8.096864   7.789762   7.76942    7.975435   8.128068   0.3077437  8.128068   7.933142   49.70547   161.4184   15.42321  
130.3128   176.2241   8.084744   8.072594   7.782039   7.776818   7.966527   8.069977   0.3005714  8.069977   7.924706   51.60243   161.2051   15.01895  
130.4652   175.5897   8.059822   8.069606   7.787798   7.766926   7.980226   8.046693   0.3006869  8.046693   7.918266   53.88422   161.0966   14.4931   
130.6176   174.936    8.079431   8.065885   7.768426   7.78185    7.999686   8.053789   0.32679    8.053789   7.923785   55.16833   161.239    13.69707  
130.77     174.2991   8.086278   8.03721    7.771131   7.803097   8.012806   8.059088   0.3184367  8.059088   7.920154   57.30835   161.3046   12.99447  
130.9224   173.6821   8.097616   8.037997   7.771655   7.791312   8.023555   8.062928   0.2954541  8.062928   7.914654   59.59622   161.4101   12.27197  
131.0748   173.0636   8.104627   8.05734    7.766638   7.793979   8.022656   8.065651   0.2974407  8.065651   7.925659   59.98162   161.5415   11.52212  
131.2272   172.4227   8.105503   8.055557   7.765154   7.786237   8.023147   8.073282   0.2682703  8.073282   7.920897   57.85204   162.1209   10.30177  
131.3796   171.7769   8.134588   8.077207   7.747571   7.765292   7.98264    8.062102   0.2616389  8.062102   7.921249   53.83894   162.6593   9.117624  
131.532    171.1324   8.062451   8.051103   7.805599   7.777936   7.973891   8.04888    0.2585517  8.04888    7.914519   50.15799   163.1541   7.978396  
131.6844   170.4766   8.059439   8.074062   7.804814   7.749808   7.967795   8.029192   0.2698198  8.029192   7.911935   48.84547   163.5464   6.930318  
131.8368   169.7724   8.05911    8.067615   7.811359   7.739701   7.936916   8.055345   0.2768966  8.055345   7.903658   50.12881   164.3907   5.381715  
131.9892   169.0672   8.058343   8.036634   7.803069   7.759055   7.917677   8.073136   0.2866844  8.073136   7.897845   51.13951   165.2566   3.810668  
132.1416   168.4627   8.060315   8.087219   7.786926   7.804645   7.979908   8.071144   0.2797811  8.071144   7.92362    50.6832    166.0624   2.400342  
132.294    167.8929   8.04821    8.094348   7.79142    7.792129   7.983986   8.082422   0.2909778  8.082422   7.919815   49.82764   167.0205   0.8724207 
132.4464   167.3229   8.04947    8.145928   7.815591   7.765506   7.9769     8.06706    0.2429504  8.06706    7.93253    49.40998   168.1394   359.1837  
132.5988   166.7591   8.062451   8.117831   7.785791   7.758453   7.966409   8.046206   0.2885442  8.046206   7.924121   50.81441   169.3137   357.4455  
132.7512   166.2005   8.078773   8.078779   7.785529   7.767872   7.976821   8.067693   0.2655487  8.067693   7.923326   52.51761   170.6946   355.506   
132.9036   165.6479   8.062835   8.129312   7.779901   7.72783    7.975514   8.038428   0.2403651  8.038428   7.921368   53.62137   172.7559   352.8921  
133.056    165.129    8.092303   8.147816   7.79142    7.768259   7.95964    8.134679   0.2122576  8.134679   7.941861   54.85157   174.4513   350.6779  
133.2084   164.6569   8.074501   8.051103   7.802197   7.79815    7.951762   8.133755   0.1915437  8.133755   7.924626   54.39067   176.2303   348.4268  
133.3608   164.2059   8.101669   8.108082   7.766856   7.798322   7.984184   8.132006   0.1923117  8.132006   7.934262   54.10089   177.777    346.429   
133.5132   163.7617   8.089838   8.100691   7.76703    7.800473   8.032139   8.132006   0.226166   8.132006   7.928434   53.59923   178.7413   345.0205  
133.6656   163.3551   8.056043   8.171194   7.766943   7.736045   7.980106   8.166714   0.2297856  8.166714   7.911493   52.9       179.6186   343.7367  
133.818    162.9884   8.076145   8.121344   7.787275   7.743959   7.968349   8.193742   0.2403948  8.193742   7.93171    52.61608   180.7041   342.2845  
133.9704   162.65     8.100957   8.122602   7.760529   7.819053   7.968112   8.206429   0.2337788  8.206429   7.930743   52.50361   181.8567   340.7936  
134.1228   162.3342   8.091098   8.112641   7.762187   7.941499   7.951287   8.245756   0.2106108  8.245756   7.926643   52.17757   182.9507   339.3837  
134.2752   162.0555   8.045636   8.036216   7.758827   7.746109   7.964667   8.295826   0.2000027  8.295826   7.891163   51.45549   183.6685   338.3873  
134.4276   161.8114   8.074775   8.049791   7.812624   7.772216   7.958333   8.215374   0.2085911  8.215374   7.911004   51.57369   184.2478   337.5637  
134.58     161.5824   8.150089   8.120558   7.774621   7.834278   7.929157   8.192284   0.2204657  8.192284   7.929157   51.75949   184.932    336.6507  
134.7324   161.3593   8.116623   8.056396   7.762405   7.827569   7.953424   8.13745    0.2157813  8.13745    7.939514   52.6667    185.348    336.0115  
134.8848   161.1413   8.11109    8.100376   7.798226   7.777248   7.988578   8.132005   0.2094334  8.132005   7.938812   51.60817   185.6951   335.4464  
135.0372   160.9256   8.122703   8.124227   7.764674   7.738153   8.014277   7.981711   0.2162824  8.014277   7.93119    48.54947   185.8808   335.0451  
135.1896   160.7223   8.120073   8.153529   7.652456   7.328536   7.908928   7.913126   0.2080231  7.913257   7.741033   44.94392   185.8474   334.8752  
135.342    160.5247   8.182954   8.277814   7.787929   7.640307   8.000954   8.176485   0.2436648  8.176485   7.959061   42.08598   185.7956   334.7294  
135.4944   160.3399   7.984509   8.078412   7.842249   7.815699   7.963955   8.143915   0.2217714  8.143915   7.913379   41.83107   185.4371   334.903   
135.6468   160.1783   8.017427   8.033227   7.777632   7.751357   7.91736    8.134533   0.2091695  8.134533   7.892292   41.94119   184.8554   335.3233  
135.7992   160.0354   7.963727   7.858144   7.827371   7.959692   7.956552   8.160831   0.1947778  8.160831   7.895549   42.77958   184.3927   335.6431  
135.9516   159.8963   8.055276   8.00513    7.827284   7.821074   7.984184   8.219894   0.2021579  8.219894   7.913102   44.35427   183.8666   336.0302  
136.104    159.7719   8.120785   8.103783   7.783348   7.81858    8.001158   8.172596   0.1968681  8.172596   7.952066   45.8644    183.3379   336.4344  
136.2564   159.6546   8.110542   8.13859    7.784526   7.796215   7.970328   8.171527   0.2020213  8.171527   7.947534   48.27798   182.5705   337.0845  
136.4088   159.5219   8.114815   8.057759   7.805949   7.821935   7.933235   8.195978   0.1727925  8.195978   7.933235   49.57712   181.7305   337.7917  
136.5612   159.367    8.124674   7.98243    7.793295   7.93479    7.916885   8.210901   0.1617469  8.210901   7.916885   50.62847   180.7879   338.5795  
136.7136   159.2288   8.0762     8.05582    7.787056   7.87376    7.946813   8.196027   0.1771439  8.196027   7.931628   51.81361   179.8127   339.4164  
136.866    159.1472   8.060808   8.068925   7.796437   7.81901    7.952118   8.129818   0.1881074  8.129818   7.928622   53.30085   178.2967   340.8506  
