~Version
 VERS              .         2.0                           : CWLS LOG ASCII STANDARD - VERSION 2.0
 WRAP              .         NO                            : ONE LINE PER DEPTH STEP
 DLM               .         SPACE                         : DELIMITING CHARACTER(SPACE TAB OR COMMA)
~Well Information
#_______________________________________________________________________________
#
#PARAMETER_NAME    .UNIT     VALUE                         : DESCRIPTION
#_______________________________________________________________________________
STRT               .m        66                            : First reference value
STOP               .m        322.032                       : Last reference value
STEP               .m        0.1524                        : Step increment
NULL               .         -9999                         : Missing value
COMP               .                                       : Company
WELL               .         D                             : Well name
FLD                .                                       : Field
LOC                .                                       : Location
CNTY               .                                       : County
STAT               .                                       : State
CTRY               .                                       : Country
SRVC               .                                       : Service Company
DATE               .                                       : Date
API                .                                       : API number
~Parameter Information Block
#_______________________________________________________________________________
#
#PARAMETER_NAME    .UNIT     VALUE                         : DESCRIPTION
#_______________________________________________________________________________
SET                .         Inclination                   : 
TLFamily_AZI       .         Hole Azimuth                  : 
TLFamily_CAL2      .         Caliper 2                     : 
TLFamily_CAL4      .         Caliper                       : 
TLFamily_CAL6      .         Caliper                       : 
TLFamily_CAL8      .         Caliper                       : 
TLFamily_CALX      .         Caliper 1                     : 
TLFamily_CALY      .         Caliper 2                     : 
TLFamily_DEV       .         Hole Deviation                : 
TLFamily_DMAX      .         Caliper                       : 
TLFamily_DMIN      .         Caliper                       : 
TLFamily_GR        .         Gamma Ray                     : 
TLFamily_HAZI      .         Hole Azimuth                  : 
TLFamily_MD        .         Measured Depth                : 
TLFamily_ROT       .         Relative Bearing              : 
~Curve Information
#_______________________________________________________________________________
#
#LOGNAME           .UNIT     LOG_ID                        : DESCRIPTION
#_______________________________________________________________________________
MD                 .m                                      :  
AZI                .deg                                    : Pad 1 Azimuth 
CAL2               .in                                     : Caliper 
CAL4               .in                                     : Caliper 
CAL6               .in                                     : Caliper 
CAL8               .in                                     : Caliper 
CALX               .in                                     : Caliper 
CALY               .in                                     : Caliper 
DEV                .deg                                    : Deviation 
DMAX               .in                                     : Caliper 
DMIN               .in                                     : Caliper 
GR                 .gAPI                                   : Gamma Ray 
HAZI               .deg                                    : Hole Azimuth 
ROT                .deg                                    : Relative Bearing 
~Ascii
# ...
144.9432   143.507    8.122046   8.100271   7.77292    7.742927   7.997479   8.132102   0.1093269  8.132102   7.921599   53.46232   155.8162   347.691   
145.0956   143.1236   8.118979   8.092198   7.774229   7.753464   8.004264   8.200062   0.1223447  8.200062   7.922831   54.04169   157.0758   346.0479  
145.248    142.7557   8.148993   8.085175   7.767859   7.739658   7.986559   8.241867   0.1237791  8.241867   7.912416   54.09239   157.991    344.7648  
145.4004   142.4117   8.1221     8.074533   7.812755   7.746367   7.97112    8.246534   0.1131719  8.246534   7.91045    54.77542   158.7775   343.6343  
145.5528   142.0925   8.080855   8.074796   7.82663    7.768904   7.970447   8.197631   0.1213531  8.197631   7.92185    56.83175   159.8658   342.2269  
145.7052   141.7558   8.115144   8.131041   7.781516   7.700435   7.966686   8.184846   0.1304116  8.184846   7.915738   57.59826   161.5137   340.2421  
145.8576   141.397    8.092467   8.164694   7.789238   7.802022   8.009006   8.270937   0.1410671  8.270937   7.940853   56.92215   163.2053   338.1918  
146.01     140.9974   8.135848   8.246101   7.780294   7.789549   7.985569   8.291937   0.1402901  8.291937   7.958071   55.59594   164.6397   336.3579  
146.1624   140.557    8.153923   8.246677   7.758522   7.774281   7.988301   8.310361   0.1489395  8.310361   7.956223   54.79868   165.7479   334.8092  
146.3148   140.1003   8.191827   8.24673    7.88793    7.79428    7.96249    8.322854   0.121137   8.322854   7.96249    56.05592   166.3909   333.7094  
146.4672   139.6315   8.139189   8.127529   7.918646   7.849546   8.00643    8.240068   0.1289114  8.240068   7.988538   56.73401   166.6532   332.9784  
146.6196   139.1566   8.071489   8.113481   7.859745   7.765808   8.018937   8.125443   0.1417267  8.125443   7.939644   56.58211   166.3959   332.7608  
146.772    138.6775   8.087099   8.13471    7.810617   7.726755   7.999727   8.067839   0.1230333  8.067839   7.930733   56.92147   165.853    332.8246  
146.9244   138.1966   8.086552   8.165848   7.797877   7.737895   7.978444   8.082228   0.1120653  8.082228   7.942214   56.84611   165.7379   332.4589  
147.0768   137.7078   8.087045   8.150594   7.795041   7.768044   7.981887   8.101964   0.09187746 8.101964   7.941043   56.34209   165.9974   331.7105  
147.2292   137.2132   8.108407   8.191743   7.789456   7.752561   7.984065   8.170116   0.07949289 8.170116   7.948932   55.85057   166.4126   330.8007  
147.3816   136.7172   8.075049   8.171037   7.804814   7.767442   7.965776   8.183534   0.07147352 8.183534   7.939932   53.85745   166.2093   330.5081  
147.534    136.2196   8.074228   8.168521   7.799055   7.769549   7.94717    8.172839   0.08928338 8.172839   7.936642   52.38206   165.8371   330.3827  
147.6864   135.731    8.075651   8.106562   7.804465   7.813031   7.944755   8.180714   0.1266352  8.180714   7.940058   51.59416   165.5321   330.199   
147.8388   135.2365   8.074173   8.121029   7.810137   7.822752   7.95964    8.161415   0.1236512  8.161415   7.942155   52.32164   164.8609   330.3758  
147.9912   134.7315   8.078993   8.146243   7.787798   7.87432    7.965301   8.172401   0.1164565  8.172401   7.933395   54.59862   164.5278   330.2039  
148.1436   134.2231   8.058617   8.134815   7.782213   7.873546   7.94998    8.209346   0.1023458  8.209346   7.920415   57.21616   164.3811   329.8422  
148.296    133.7094   8.065738   8.106929   7.805163   7.901802   7.936085   8.226068   0.06345172 8.226068   7.935451   59.73285   164.6426   329.0669  
148.4484   133.1909   8.070941   8.140791   7.80669    7.84546    7.955681   8.144061   0.07596206 8.144061   7.938816   61.21283   165.0999   328.0912  
148.6008   132.6915   8.084196   8.093456   7.811446   7.79815    7.951088   8.11538    0.07930497 8.11538    7.945804   61.89903   165.5488   327.1429  
148.7532   132.2221   8.110488   8.124541   7.800233   7.783957   7.987272   8.102547   0.06913862 8.102547   7.954249   60.85917   165.8337   326.3885  
148.9056   131.7676   8.097836   8.123336   7.779945   7.783355   7.974327   8.101283   0.1059608  8.101283   7.93889    58.19684   165.9397   325.8279  
149.058    131.3092   8.089564   8.114267   7.78313    7.768904   7.965182   8.124228   0.1314926  8.124228   7.936347   56.41314   165.9932   325.3161  
149.2104   130.8497   8.09548    8.111384   7.780337   7.79987    7.964865   8.106971   0.1112498  8.106971   7.937909   56.74104   166.2063   324.6435  
149.3628   130.4143   8.09433    8.121501   7.79299    7.795183   7.967399   8.081206   0.09370325 8.081206   7.94366    59.4292    165.9479   324.4664  
149.5152   129.9921   8.080526   8.119615   7.781995   7.762238   7.964192   8.048102   0.1006323  8.048102   7.931261   62.28668   165.8597   324.1325  
149.6676   129.5742   8.134315   8.126848   7.777065   7.750411   7.965617   8.114456   0.1027233  8.114456   7.938629   63.74852   166.434    323.1403  
149.82     129.162    8.078336   8.165638   7.7984     7.77084    7.963796   8.156797   0.1278346  8.156797   7.938368   64.42564   166.6765   322.4857  
149.9724   128.75     8.114213   8.114948   7.810661   7.784904   7.961461   8.164575   0.1214821  8.164575   7.949926   63.93021   166.5103   322.2399  
150.1248   128.334    8.149542   8.048901   7.793383   7.81643    7.939688   8.175465   0.1119948  8.175465   7.932665   62.35601   165.9411   322.393   
150.2772   127.9197   8.090167   8.089997   7.806079   7.80486    7.964509   8.214304   0.1158456  8.214304   7.947429   59.7608    166.0294   321.8904  
150.4296   127.4956   8.095041   8.125957   7.786446   7.773592   7.963915   8.158012   0.1266468  8.158012   7.940743   58.79092   165.9618   321.5339  
150.582    127.0542   8.109009   8.163803   7.772876   7.782452   7.973495   8.164089   0.156679   8.164089   7.940943   58.56518   165.8493   321.205   
150.7344   126.6037   8.114267   8.200602   7.774491   7.796215   7.991593   8.192673   0.1672893  8.192673   7.944379   57.93377   165.403    321.2009  
150.8868   126.1525   8.116568   8.113218   7.783261   7.79901    8.004019   8.1602     0.1585146  8.1602     7.949914   58.02388   165.2621   320.8905  
151.0392   125.7285   8.116294   8.157985   7.778025   7.781033   8.010476   8.145811   0.1756282  8.145811   7.947159   58.46932   164.9185   320.8101  
151.1916   125.3172   8.080636   8.133086   7.775495   7.810064   7.980978   8.13079    0.1535741  8.13079    7.928065   58.46577   164.6349   320.6824  
151.344    124.9008   8.115308   8.082554   7.77484    7.792344   8.012193   8.120825   0.1586412  8.120825   7.937449   57.49783   164.7699   320.131   
151.4964   124.4612   8.115582   8.079932   7.770172   7.804731   8.003855   8.105414   0.1641124  8.105414   7.942331   56.31991   164.8804   319.581   
151.6488   123.9995   8.10375    8.095973   7.767903   7.753464   7.998133   8.088693   0.1717908  8.088693   7.924718   55.36986   165.2179   318.7817  
151.8012   123.5599   8.10512    8.075215   7.769735   7.802022   8.003651   8.082227   0.1509112  8.082227   7.937428   54.77089   165.5924   317.9677  
151.9536   123.1463   8.095809   8.061639   7.771786   7.799956   8.004714   8.090102   0.1644259  8.090102   7.930798   53.58467   165.8805   317.2659  
152.106    122.7315   8.078336   8.09461    7.771131   7.760303   7.97785    8.090686   0.1649889  8.090686   7.924733   52.7053    166.0041   316.7275  
152.2584   122.2631   8.066888   8.171299   7.79299    7.783312   7.979275   8.090589   0.1468097  8.090589   7.929939   53.6355    165.6092   316.6541  
152.4108   121.7817   8.090112   8.167211   7.773051   7.760001   7.972229   8.07474    0.1644468  8.07474    7.931581   55.42326   165.0381   316.7438  
152.5632   121.3843   8.096575   8.161392   7.77484    7.740303   7.958848   8.149262   0.2045142  8.149262   7.935708   57.18662   163.9947   317.3897  
152.7156   121.0307   8.088195   8.113795   7.77724    7.773377   7.954019   8.155047   0.2138758  8.155047   7.932717   61.15072   162.9522   318.0786  
