~Version
 VERS              .         2.0                           : CWLS LOG ASCII STANDARD - VERSION 2.0
 WRAP              .         NO                            : ONE LINE PER DEPTH STEP
 DLM               .         SPACE                         : DELIMITING CHARACTER(SPACE TAB OR COMMA)
~Well Information
#_______________________________________________________________________________
#
#PARAMETER_NAME    .UNIT     VALUE                         : DESCRIPTION
#_______________________________________________________________________________
STRT               .m        66                            : First reference value
STOP               .m        322.032                       : Last reference value
STEP               .m        0.1524                        : Step increment
NULL               .         -9999                         : Missing value
COMP               .                                       : Company
WELL               .         D                             : Well name
FLD                .                                       : Field
LOC                .                                       : Location
CNTY               .                                       : County
STAT               .                                       : State
CTRY               .                                       : Country
SRVC               .                                       : Service Company
DATE               .                                       : Date
API                .                                       : API number
~Parameter Information Block
#_______________________________________________________________________________
#
#PARAMETER_NAME    .UNIT     VALUE                         : DESCRIPTION
#_______________________________________________________________________________
SET                .         Inclination                   : 
TLFamily_AZI       .         Hole Azimuth                  : 
TLFamily_CAL2      .         Caliper 2                     : 
TLFamily_CAL4      .         Caliper                       : 
TLFamily_CAL6      .         Caliper                       : 
TLFamily_CAL8      .         Caliper                       : 
TLFamily_CALX      .         Caliper 1                     : 
TLFamily_CALY      .         Caliper 2                     : 
TLFamily_DEV       .         Hole Deviation                : 
TLFamily_DMAX      .         Caliper                       : 
TLFamily_DMIN      .         Caliper                       : 
TLFamily_GR        .         Gamma Ray                     : 
TLFamily_HAZI      .         Hole Azimuth                  : 
TLFamily_MD        .         Measured Depth                : 
TLFamily_ROT       .         Relative Bearing              : 
~Curve Information
#_______________________________________________________________________________
#
#LOGNAME           .UNIT     LOG_ID                        : DESCRIPTION
#_______________________________________________________________________________
MD                 .m                                      :  
AZI                .deg                                    : Pad 1 Azimuth 
CAL2               .in                                     : Caliper 
CAL4               .in                                     : Caliper 
CAL6               .in                                     : Caliper 
CAL8               .in                                     : Caliper 
CALX               .in                                     : Caliper 
CALY               .in                                     : Caliper 
DEV                .deg                                    : Deviation 
DMAX               .in                                     : Caliper 
DMIN               .in                                     : Caliper 
GR                 .gAPI                                   : Gamma Ray 
HAZI               .deg                                    : Hole Azimuth 
ROT                .deg                                    : Relative Bearing 
~Ascii
# ...
176.6424   68.77818   7.986704   8.11217    7.796088   7.788173   7.932205   8.111929   0.2424068  8.111929   7.891397   57.11684   132.4055   296.3727  
176.7948   68.56393   7.984802   8.111384   7.782563   7.745336   7.926743   8.111297   0.2496323  8.111297   7.883682   57.91624   132.432    296.132   
176.9472   68.3484    7.9936     8.108868   7.782781   7.716348   7.922586   8.136867   0.2448647  8.136867   7.888191   58.49628   132.2277   296.1208  
177.0996   68.12365   8.022411   8.115892   7.788017   7.728303   7.945784   8.134922   0.2269651  8.134922   7.905214   58.953     132.1291   295.9947  
177.252    67.87835   8.014524   8.120033   7.796437   7.747615   7.946576   8.1252     0.2461284  8.1252     7.90548    59.4901    131.8069   296.0716  
177.4044   67.61763   8.019126   8.113008   7.799011   7.746282   7.939014   8.096617   0.2592292  8.096617   7.909069   60.68997   131.4321   296.1857  
177.5568   67.35594   8.012169   8.12669    7.791245   7.676779   7.930068   8.089324   0.2261219  8.089324   7.90133    61.76851   131.3177   296.0384  
177.7092   67.10386   8.017318   8.128211   7.786838   7.705122   7.908928   8.148679   0.229806   8.148679   7.902078   62.74369   131.444    295.66    
177.8616   66.8543    8.034297   8.118198   7.774186   7.73725    7.913679   8.147367   0.2424079  8.147367   7.904242   62.77191   131.8581   294.9964  
178.014    66.60095   8.041911   8.122654   7.772222   7.7274     7.931731   8.142457   0.1999984  8.142457   7.907066   62.17925   132.201    294.4001  
178.1664   66.33955   8.036762   8.113167   7.768907   7.738067   7.938658   8.130402   0.1854304  8.130402   7.902835   62.23579   132.374    293.9658  
178.3188   66.07347   8.009212   8.121553   7.798095   7.719444   7.938737   8.12029    0.1735626  8.12029    7.903653   62.11536   132.6711   293.4025  
178.4712   65.80535   8.014744   8.109917   7.796524   7.735572   7.93751    8.121602   0.1818519  8.121602   7.905634   61.87007   132.6002   293.2053  
178.6236   65.52267   7.990949   8.096865   7.776585   7.746454   7.923536   8.135603   0.2160969  8.135603   7.883767   61.92169   132.4892   293.0336  
178.776    65.23159   8.029313   8.098017   7.77724    7.737938   7.927772   8.152422   0.2113953  8.152422   7.903276   61.1291    132.7231   292.5085  
178.9284   64.94545   8.036269   8.097964   7.775407   7.753464   7.928128   8.151693   0.1864559  8.151693   7.905838   59.78401   132.9062   292.0394  
179.0808   64.66853   8.046731   8.10567    7.776193   7.737379   7.9347     8.140998   0.2076259  8.140998   7.911462   58.20068   133.0219   291.6467  
179.2332   64.39436   8.033969   8.106247   7.774534   7.736691   7.922586   8.126756   0.2030922  8.126756   7.904252   58.29892   133.4464   290.9481  
179.3856   64.12106   8.004228   8.112013   7.783828   7.733723   7.926584   8.118151   0.206998   8.118151   7.894027   59.57402   133.6252   290.4959  
179.538    63.83852   8.003296   8.104569   7.784657   7.767399   7.926584   8.111832   0.2014992  8.111832   7.893976   61.34374   133.7642   290.0744  
179.6904   63.53627   7.997873   8.103835   7.786009   7.758712   7.926386   8.113047   0.1940193  8.113047   7.891941   62.07881   133.8928   289.6436  
179.8428   63.21757   8.009047   8.108187   7.782694   7.758583   7.929078   8.111783   0.2117163  8.111783   7.89587    61.51817   134.0298   289.1879  
179.9952   62.88408   8.016989   8.110598   7.790983   7.75097    7.936244   8.11013    0.1974068  8.11013    7.903986   61.79895   134.1463   288.7378  
180.1476   62.53615   8.01803    8.110389   7.781864   7.742669   7.939014   8.107068   0.225748   8.107068   7.899947   61.47125   134.1579   288.3783  
180.3      62.1783    8.014251   8.115578   7.78073    7.725035   7.927969   8.104783   0.2106569  8.104783   7.897491   60.83937   133.7869   288.3916  
180.4524   61.80588   8.016387   8.10934    7.77593    7.731401   7.930068   8.104248   0.2270279  8.104248   7.896159   60.65333   133.4736   288.3324  
180.6048   61.41534   8.003515   8.107452   7.779203   7.726196   7.927851   8.103762   0.2294931  8.103762   7.891359   60.36129   133.1845   288.2308  
180.7572   61.013     8.011566   8.116626   7.778941   7.725293   7.919181   8.118248   0.2627268  8.118248   7.895254   59.6445    132.9057   288.1074  
180.9096   60.61084   8.027944   8.119299   7.787188   7.728003   7.912412   8.140123   0.248816   8.140123   7.907565   58.6472    132.4613   288.1497  
181.062    60.20215   8.033969   8.136545   7.776367   7.72267    7.938262   8.15145    0.2703907  8.15145    7.905168   57.84577   132.072    288.1303  
181.2144   59.78088   8.045197   8.162912   7.756646   7.708391   7.958214   8.140804   0.2744749  8.140804   7.900922   58.30109   131.6379   288.1431  
181.3668   59.34614   8.054016   8.161182   7.759657   7.71153    7.947011   8.123158   0.230673   8.123158   7.906837   59.80598   131.3966   287.9497  
181.5192   58.8901    8.011567   8.108449   7.818688   7.741206   7.946615   8.121311   0.2323767  8.121311   7.915128   60.81944   130.9824   287.9078  
181.6716   58.42285   8.012497   8.10871    7.784918   7.746583   7.945388   8.12238    0.26523    8.12238    7.898708   60.71139   130.6425   287.7805  
181.824    57.95776   8.018633   8.109812   7.779858   7.7474     7.940242   8.121068   0.2744206  8.121068   7.899245   60.55958   130.4862   287.4716  
181.9764   57.50621   8.020494   8.089315   7.785442   7.749077   7.935689   8.120533   0.2397464  8.120533   7.902968   60.75946   130.3874   287.1189  
182.1288   57.07348   8.026191   8.084126   7.790023   7.747873   7.939371   8.121311   0.2096077  8.121311   7.908107   61.42478   130.1816   286.892   
182.2812   56.65921   8.017756   8.100533   7.796175   7.74869    7.939212   8.109741   0.2576469  8.109741   7.906965   61.85233   130.2373   286.422   
182.4336   56.24652   8.021426   8.101529   7.786577   7.732347   7.917677   8.099436   0.2334862  8.099436   7.904002   62.13342   129.8752   286.3715  
182.586    55.82078   8.056974   8.104307   7.793819   7.730842   7.919458   8.094817   0.2350553  8.094817   7.917574   63.37563   129.4157   286.4052  
182.7384   55.376     8.021426   8.115315   7.80669    7.731057   7.940954   8.092436   0.2540675  8.092436   7.914058   64.69556   129.0496   286.3266  
182.8908   54.93154   8.036708   8.121081   7.803985   7.734411   7.947526   8.08981    0.2777575  8.08981    7.920346   65.19133   128.4717   286.46    
183.0432   54.50558   8.033038   8.120558   7.803287   7.724648   7.952593   8.118443   0.2663942  8.118443   7.918162   65.04556   127.9295   286.5762  
183.1956   54.09491   8.031613   8.119719   7.806603   7.73239    7.947446   8.118734   0.257628   8.118734   7.919108   65.02454   127.437    286.6581  
183.348    53.685     8.019454   8.120033   7.798182   7.732777   7.937867   8.130304   0.2759453  8.130304   7.908818   66.5154    126.7908   286.8944  
183.5004   53.27901   8.013922   8.140266   7.791158   7.716606   7.941192   8.13536    0.2663529  8.13536    7.90254    68.0593    126.2737   287.0055  
183.6528   52.89685   8.031668   8.139218   7.792205   7.716563   7.954691   8.126464   0.2785773  8.126464   7.911937   67.51936   125.6715   287.2256  
183.8052   52.53791   8.019782   8.137175   7.821001   7.716734   7.946655   8.122478   0.2768918  8.122478   7.920392   65.91948   124.9477   287.5904  
183.9576   52.16476   8.029149   8.120138   7.796044   7.722325   7.932997   8.132491   0.2740404  8.132491   7.912597   64.57156   124.305    287.8599  
184.11     51.78056   8.015894   8.117675   7.794474   7.725465   7.936283   8.130304   0.2555047  8.130304   7.905184   65.14832   123.6702   288.1106  
184.2624   51.39967   8.032435   8.117727   7.800364   7.720132   7.935016   8.121068   0.2746372  8.121068   7.9164     65.97384   122.9711   288.4287  
184.4148   51.02633   8.008937   8.112485   7.801236   7.71424    7.934779   8.126414   0.2761092  8.126414   7.905087   66.37965   122.2153   288.8111  
