~Version
 VERS              .         2.0                           : CWLS LOG ASCII STANDARD - VERSION 2.0
 WRAP              .         NO                            : ONE LINE PER DEPTH STEP
 DLM               .         SPACE                         : DELIMITING CHARACTER(SPACE TAB OR COMMA)
~Well Information
#_______________________________________________________________________________
#
#PARAMETER_NAME    .UNIT     VALUE                         : DESCRIPTION
#_______________________________________________________________________________
STRT               .m        66                            : First reference value
STOP               .m        322.032                       : Last reference value
STEP               .m        0.1524                        : Step increment
NULL               .         -9999                         : Missing value
COMP               .                                       : Company
WELL               .         D                             : Well name
FLD                .                                       : Field
LOC                .                                       : Location
CNTY               .                                       : County
STAT               .                                       : State
CTRY               .                                       : Country
SRVC               .                                       : Service Company
DATE               .                                       : Date
API                .                                       : API number
~Parameter Information Block
#_______________________________________________________________________________
#
#PARAMETER_NAME    .UNIT     VALUE                         : DESCRIPTION
#_______________________________________________________________________________
SET                .         Inclination                   : 
TLFamily_AZI       .         Hole Azimuth                  : 
TLFamily_CAL2      .         Caliper 2                     : 
TLFamily_CAL4      .         Caliper                       : 
TLFamily_CAL6      .         Caliper                       : 
TLFamily_CAL8      .         Caliper                       : 
TLFamily_CALX      .         Caliper 1                     : 
TLFamily_CALY      .         Caliper 2                     : 
TLFamily_DEV       .         Hole Deviation                : 
TLFamily_DMAX      .         Caliper                       : 
TLFamily_DMIN      .         Caliper                       : 
TLFamily_GR        .         Gamma Ray                     : 
TLFamily_HAZI      .         Hole Azimuth                  : 
TLFamily_MD        .         Measured Depth                : 
TLFamily_ROT       .         Relative Bearing              : 
~Curve Information
#_______________________________________________________________________________
#
#LOGNAME           .UNIT     LOG_ID                        : DESCRIPTION
#_______________________________________________________________________________
MD                 .m                                      :  
AZI                .deg                                    : Pad 1 Azimuth 
CAL2               .in                                     : Caliper 
CAL4               .in                                     : Caliper 
CAL6               .in                                     : Caliper 
CAL8               .in                                     : Caliper 
CALX               .in                                     : Caliper 
CALY               .in                                     : Caliper 
DEV                .deg                                    : Deviation 
DMAX               .in                                     : Caliper 
DMIN               .in                                     : Caliper 
GR                 .gAPI                                   : Gamma Ray 
HAZI               .deg                                    : Hole Azimuth 
ROT                .deg                                    : Relative Bearing 
~Ascii
# ...
295.5144   136.8853   8.22376    8.238133   7.954336   7.925156   8.106362   8.318576   0.2644967  8.318576   8.081645   47.88227   122.0979   14.78752  
295.6668   136.7063   8.23466    8.234569   7.937844   7.913888   8.106036   8.30409    0.2590981  8.30409    8.074228   49.08054   122.5668   14.13943  
295.8192   136.5564   8.236303   8.149702   7.932695   7.910705   8.102317   8.311235   0.2639778  8.311235   8.030204   50.76119   123.523    13.03339  
295.9716   136.4032   8.222062   7.986872   7.924754   7.905845   8.106117   8.008387   0.2780691  8.106117   7.946358   51.87209   124.3039   12.09935  
296.124    136.2426   8.378496   8.109287   7.851848   7.818795   8.098638   7.868877   0.2805004  8.115171   7.868877   51.09241   124.7838   11.4589   
296.2764   136.0953   8.41481    8.380241   7.84827    7.833074   8.118665   8.314638   0.2304172  8.314638   8.106658   48.72997   125.5136   10.58168  
296.4288   135.9608   8.263251   8.106875   7.975322   7.935521   8.103256   8.310458   0.2478545  8.310458   8.021198   45.15533   126.1578   9.80305   
296.5812   135.8159   8.259308   8.25302    7.967163   7.929973   8.092425   8.312742   0.2074154  8.312742   8.090807   41.07196   126.8896   8.92627   
296.7336   135.66     8.242164   8.248879   7.980296   7.930532   8.108325   8.324896   0.2074697  8.324896   8.089705   38.58468   127.9932   7.666863  
296.886    135.5108   8.207602   8.19473    7.972922   7.934489   8.107835   8.321347   0.22753    8.321347   8.06461    39.06765   128.9501   6.560761  
297.0384   135.3697   8.22469    7.997324   7.939501   7.931393   8.097166   8.271471   0.2263302  8.271471   7.964358   42.57662   129.5073   5.862366  
297.1908   135.2296   8.167507   8.043344   7.950889   7.932382   8.109264   8.126172   0.2336951  8.126172   7.987863   45.90452   130.0488   5.180707  
297.3432   135.0888   8.109557   8.190956   7.91136    7.880168   8.108733   8.078144   0.2863498  8.108733   8.010459   46.2503    130.558    4.530739  
297.4956   134.943    8.245012   8.266283   7.895086   7.853933   8.093774   8.229666   0.2750685  8.229666   8.060108   44.94469   131.1078   3.835104  
297.648    134.7984   8.137218   8.318177   7.909876   7.910189   8.100681   8.317215   0.2343635  8.317215   8.023547   45.21685   131.6588   3.13962   
297.8004   134.6673   8.098765   8.292544   7.929597   7.920124   8.071294   8.273124   0.2497883  8.273124   8.014181   48.33366   132.1101   2.557163  
297.9528   134.5434   8.061192   8.30198    7.894606   7.870491   8.008514   8.094283   0.2412973  8.094283   7.977899   52.88055   132.6482   1.895178  
298.1052   134.4198   8.287846   8.387685   7.896787   7.851912   7.987193   8.045428   0.2363618  8.119799   7.987193   55.6575    132.8602   1.559574  
298.2576   134.2812   8.414647   8.268904   7.851935   7.904125   7.957383   8.274729   0.228563   8.274729   7.957383   53.40384   133.3814   0.8997592 
298.41     134.1489   8.364528   8.201283   7.893733   7.977928   7.946576   8.276868   0.2142453  8.276868   7.946576   49.32896   133.9626   0.1862972 
298.5624   134.0132   8.355928   8.194782   7.890286   8.003875   8.125981   8.338507   0.2484937  8.338507   8.099329   46.09946   134.2436   359.7697  
298.7148   133.8669   8.24419    8.240598   7.973534   7.967606   8.143802   8.230978   0.2437279  8.230978   8.104101   43.64549   134.7814   359.0855  
298.8672   133.7192   8.241507   8.366088   7.96568    7.92021    8.176908   8.167735   0.2473524  8.176908   8.103593   44.4347    134.9693   358.75    
299.0196   133.5755   8.392079   8.363992   7.949406   7.914532   8.170328   8.350174   0.236396   8.350174   8.139262   47.432     135.2637   358.3119  
299.172    133.4175   8.225677   8.193944   7.949799   7.892125   7.998296   8.275652   0.2473452  8.275652   7.998296   49.49989   135.9838   357.4337  
299.3244   133.2424   8.274645   8.241016   7.933393   7.942875   8.136649   8.324799   0.266473   8.324799   8.091947   47.51905   136.4351   356.8074  
299.4768   133.0646   8.163782   8.328713   8.075976   7.979046   8.156799   8.357612   0.2835481  8.357612   8.11988    40.26869   136.5603   356.5043  
299.6292   132.8996   8.296335   8.30675    8.047579   8.034563   8.14793    8.401216   0.2419783  8.401216   8.14793    32.40971   136.631    356.2688  
299.7816   132.7541   8.363816   8.350205   8.031458   8.014401   8.183531   8.400341   0.242424   8.400341   8.182303   27.4152    136.7106   356.0437  
299.934    132.6142   8.356038   8.375315   8.036729   8.013794   8.172004   8.411521   0.2682571  8.411521   8.172004   26.03156   136.78     355.8344  
300.0864   132.4703   8.368582   8.391355   8.038115   8.028004   8.191419   8.405688   0.2805746  8.405688   8.191419   26.06406   137.3549   355.1155  
300.2388   132.3392   8.351876   8.380451   8.036691   8.002012   8.164933   8.41298    0.2790439  8.41298    8.164933   26.941     137.5816   354.7577  
300.3912   132.2233   8.300443   8.306802   8.038845   7.984293   8.162685   8.400827   0.283377   8.400827   8.145548   28.52489   137.3611   354.8622  
300.5436   132.1076   8.295568   8.388157   8.057277   7.990069   8.211732   8.372146   0.3170674  8.372146   8.176422   29.47512   137.4927   354.615   
300.696    131.9638   8.492425   8.378721   8.033843   8.050231   8.282359   8.445063   0.3035365  8.445063   8.214476   30.01002   137.2696   354.6944  
300.8484   131.7964   8.355874   8.369653   8.092215   8.077761   8.27537    8.452354   0.3068304  8.452354   8.223706   29.84355   136.9234   354.8731  
301.0008   131.6441   8.308276   8.367975   8.048849   7.963563   8.206214   8.465577   0.3130521  8.465577   8.16577    30.09454   136.8979   354.7464  
301.1532   131.5056   8.138586   8.186763   8.045772   7.982831   8.134523   8.333451   0.2976491  8.333451   8.084797   30.94735   136.9781   354.5276  
301.3056   131.349    8.39449    8.422386   8.031381   8.004158   8.208994   8.386972   0.2846371  8.386972   8.208994   31.50223   136.9017   354.4473  
301.458    131.1846   8.386712   8.406766   8.043077   8.020271   8.210015   8.451868   0.296804   8.451868   8.210015   32.10223   136.708    354.4767  
301.6104   131.0262   8.412839   8.306383   8.234388   8.059705   8.319716   8.457848   0.3189103  8.457848   8.183044   33.50719   136.3373   354.6891  
301.7628   130.8611   8.196099   8.283895   8.041924   7.949972   8.146786   8.236033   0.263422   8.236033   8.116934   38.29314   136.0493   354.8119  
301.9152   130.716    8.304661   8.341452   7.962931   7.895608   8.165137   8.20327    0.2771334  8.20327    8.11853    47.94205   135.8411   354.875   
302.0676   130.5869   8.049744   8.135497   7.902153   7.82159    7.983115   8.134873   0.2601308  8.134873   7.975948   62.93035   135.7454   354.8416  
302.22     130.4614   8.092851   8.081767   7.824797   7.840729   7.980621   8.006831   0.2793265  8.006831   7.958824   75.1329    135.6208   354.8407  
302.3724   130.3364   8.067983   8.103259   7.830599   7.793334   7.973852   8.070317   0.2698002  8.070317   7.948296   75.90324   135.272    355.0644  
302.5248   130.214    8.090002   8.151065   7.87506    7.804129   7.888897   8.174054   0.2755994  8.174054   7.888897   65.93761   134.9243   355.2897  
302.6772   130.0936   8.130535   7.957416   7.79491    8.067356   7.791947   8.292811   0.29377    8.292811   7.791947   54.96588   134.458    355.6358  
302.8296   129.9737   8.152554   7.968764   7.768165   7.920038   8.041662   8.123498   0.3194129  8.123498   7.944401   52.79831   133.915    356.0588  
302.982    129.854    8.01206    8.08465    7.9354     7.832773   8.050204   8.065408   0.3241294  8.065408   7.958712   57.88125   133.6231   356.2311  
303.1344   129.741    7.980899   8.141001   7.904946   7.802495   8.046035   8.033616   0.2766283  8.046035   7.942923   62.04947   133.6178   356.1233  
303.2868   129.6415   8.055823   8.167053   7.889937   7.867739   8.047343   8.054178   0.2898532  8.054178   7.97288    62.13573   133.3157   356.3259  
