~Version
 VERS              .         2.0                           : CWLS LOG ASCII STANDARD - VERSION 2.0
 WRAP              .         NO                            : ONE LINE PER DEPTH STEP
 DLM               .         SPACE                         : DELIMITING CHARACTER(SPACE TAB OR COMMA)
~Well Information
#_______________________________________________________________________________
#
#PARAMETER_NAME    .UNIT     VALUE                         : DESCRIPTION
#_______________________________________________________________________________
STRT               .m        66                            : First reference value
STOP               .m        322.032                       : Last reference value
STEP               .m        0.1524                        : Step increment
NULL               .         -9999                         : Missing value
COMP               .                                       : Company
WELL               .         D                             : Well name
FLD                .                                       : Field
LOC                .                                       : Location
CNTY               .                                       : County
STAT               .                                       : State
CTRY               .                                       : Country
SRVC               .                                       : Service Company
DATE               .                                       : Date
API                .                                       : API number
~Parameter Information Block
#_______________________________________________________________________________
#
#PARAMETER_NAME    .UNIT     VALUE                         : DESCRIPTION
#_______________________________________________________________________________
SET                .         Inclination                   : 
TLFamily_AZI       .         Hole Azimuth                  : 
TLFamily_CAL2      .         Caliper 2                     : 
TLFamily_CAL4      .         Caliper                       : 
TLFamily_CAL6      .         Caliper                       : 
TLFamily_CAL8      .         Caliper                       : 
TLFamily_CALX      .         Caliper 1                     : 
TLFamily_CALY      .         Caliper 2                     : 
TLFamily_DEV       .         Hole Deviation                : 
TLFamily_DMAX      .         Caliper                       : 
TLFamily_DMIN      .         Caliper                       : 
TLFamily_GR        .         Gamma Ray                     : 
TLFamily_HAZI      .         Hole Azimuth                  : 
TLFamily_MD        .         Measured Depth                : 
TLFamily_ROT       .         Relative Bearing              : 
~Curve Information
#_______________________________________________________________________________
#
#LOGNAME           .UNIT     LOG_ID                        : DESCRIPTION
#_______________________________________________________________________________
MD                 .m                                      :  
AZI                .deg                                    : Pad 1 Azimuth 
CAL2               .in                                     : Caliper 
CAL4               .in                                     : Caliper 
CAL6               .in                                     : Caliper 
CAL8               .in                                     : Caliper 
CALX               .in                                     : Caliper 
CALY               .in                                     : Caliper 
DEV                .deg                                    : Deviation 
DMAX               .in                                     : Caliper 
DMIN               .in                                     : Caliper 
GR                 .gAPI                                   : Gamma Ray 
HAZI               .deg                                    : Hole Azimuth 
ROT                .deg                                    : Relative Bearing 
~Ascii
# ...
200.4168   8.78031    8.035229   8.098017   7.765983   7.750196   7.954058   8.111346   0.3818134  8.111346   7.900606   84.76747   71.30843   297.472   
200.5692   8.430869   8.033586   8.074691   7.766856   7.750066   7.957185   8.116255   0.353798   8.116255   7.90022    84.05487   69.7546    298.6765  
200.7216   8.08318    8.001268   8.069606   7.754552   7.757077   7.948951   8.127873   0.3481872  8.127873   7.87791    83.97343   68.33836   299.745   
200.874    7.749619   7.955189   8.068925   7.764587   7.757292   7.9539     8.124228   0.3207538  8.124228   7.859888   84.94746   67.14192   300.6078  
201.0264   7.429676   8.041857   8.107557   7.752283   7.741508   7.953741   8.123984   0.2840812  8.123984   7.897069   85.82052   65.54131   301.8885  
201.1788   7.111808   8.052044   8.089211   7.751367   7.755356   7.95386    8.132929   0.288621   8.132929   7.901705   86.36293   64.64543   302.4665  
201.3312   6.788612   8.039994   8.101634   7.753941   7.748303   7.963084   8.136867   0.2872592  8.136867   7.896967   87.5958    63.67915   303.1096  
201.4836   6.459325   8.046786   8.113167   7.7573     7.748217   7.959758   8.129867   0.2645871  8.129867   7.902043   88.9166    61.95692   304.5025  
201.636    6.130204   8.061629   8.122654   7.780294   7.757722   7.982996   8.141727   0.2900847  8.141727   7.920961   91.82233   60.2389    305.8914  
201.7884   5.81332    8.184378   8.243271   7.820565   7.772861   8.030626   8.203707   0.2961037  8.203707   8.002471   96.84624   59.26395   306.5495  
201.9408   5.525723   8.089455   8.157041   7.840504   7.801936   8.030545   8.221451   0.2933133  8.221451   7.964979   100.452    58.60167   306.9242  
202.0932   5.337218   8.00691    8.110179   7.832214   7.765679   7.959521   8.101575   0.2519114  8.101575   7.919562   102.7224   58.44433   306.893   
202.2456   5.124798   7.99853    8.105042   7.778156   7.742153   7.928682   8.129721   0.22016    8.129721   7.888343   104.348    57.97215   307.1527  
202.398    4.860733   7.995901   8.09461    7.77484    7.743529   7.929157   8.128845   0.2342284  8.128845   7.885371   104.361    56.75133   308.1094  
202.5504   4.581872   8.001324   8.102473   7.784264   7.733207   7.946259   8.122575   0.2037424  8.122575   7.892794   101.5146   54.6781    309.9038  
202.7028   4.275069   7.973972   8.096969   7.782999   7.734239   7.917519   8.115429   0.1966761  8.115429   7.878485   94.77912   54.05887   310.2162  
202.8552   3.960185   8.013648   8.101268   7.787711   7.725551   7.91162    8.114214   0.2012734  8.114214   7.90068    88.39941   54.22165   309.7386  
203.0076   3.65206    7.951481   8.082187   7.787493   7.746583   7.894993   8.137984   0.1746975  8.137984   7.869487   85.72623   53.79126   309.8609  
203.16     3.338945   8.004665   8.09461    7.794037   7.741378   7.869578   8.066137   0.1568531  8.066137   7.869578   87.25483   53.6867    309.6523  
203.3124   3.010422   8.022685   8.102421   7.796481   7.773635   7.931612   8.062637   0.1509635  8.062637   7.909583   89.37048   53.3074    309.7031  
203.4648   2.68107    8.02778    8.102316   7.792467   7.777291   7.95671    8.09161    0.1427935  8.09161    7.910123   89.88757   53.0974    309.5839  
203.6172   2.359267   8.007952   8.08963    7.793034   7.798365   7.943805   8.099921   0.1278005  8.099921   7.900493   89.64526   54.29675   308.0627  
203.7696   2.04581    8.026136   8.084022   7.803811   7.814709   7.961342   8.07931    0.128093   8.07931    7.914973   89.55914   56.21225   305.8336  
203.922    1.723408   8.136943   8.092775   7.825888   7.885889   8.063692   8.117908   0.1207976  8.117908   7.981415   91.02937   58.40227   303.3212  
204.0744   1.381566   8.171177   8.141001   7.824273   7.885114   8.091444   8.166325   0.1562156  8.166325   7.997725   93.58083   60.70753   300.6742  
204.2268   1.029808   8.165043   8.14378    7.803505   7.881416   8.073747   8.136672   0.1043076  8.136672   7.984274   94.61613   63.60307   297.4269  
204.3792   0.6733149  8.168164   8.109287   7.812013   7.876083   8.083147   8.106728   0.0987258  8.106728   7.990089   94.57967   66.39753   294.2759  
204.5316   0.3028933  8.180653   8.138275   7.816071   7.870577   8.088379   8.139199   0.09329844 8.139199   7.998362   93.22717   69.13577   291.1673  
204.684    359.9185   8.117772   8.132614   7.819561   7.817935   8.028543   8.148776   0.08530064 8.148776   7.968667   91.83773   71.93762   287.981   
204.8364   359.5204   8.118594   8.073066   7.782694   7.839138   7.999441   8.151936   0.08145088 8.151936   7.950644   93.85243   74.69794   284.8224  
204.9888   359.1082   8.118704   8.172924   7.910225   7.845891   8.081553   8.153296   0.07694279 8.153296   8.009407   97.53153   77.41933   281.6888  
205.1412   358.6943   8.144996   8.157355   7.863017   7.853073   8.057071   8.163943   0.06576374 8.163943   8.004006   102.0566   80.2193    278.4749  
205.2936   358.2734   8.148172   8.180315   7.864326   7.8406     8.035327   8.169047   0.04646343 8.169047   8.006249   103.5353   82.87817   275.3952  
205.446    357.8289   8.117226   8.106142   7.782912   7.825031   7.99053    8.122526   0.04535309 8.122526   7.950068   101.4157   85.48933   272.3396  
205.5984   357.3778   8.058069   8.110178   7.785006   7.76727    7.985688   8.095741   0.06430478 8.095741   7.921537   98.20209   88.48087   268.897   
205.7508   356.9294   8.048156   8.102631   7.81642    7.804472   7.986282   8.131617   0.07129339 8.131617   7.932287   94.68851   91.39854   265.5309  
205.9032   356.4666   8.062342   8.166267   7.825277   7.781807   7.98074    8.154366   0.07814717 8.154366   7.94381    92.42401   94.15432   262.3123  
206.0556   355.9925   8.009321   8.13015    7.855993   7.772388   7.97884    8.163846   0.08385497 8.163846   7.932657   91.84693   97.04836   258.9442  
206.208    355.5409   8.011238   8.104307   7.791202   7.764819   7.965973   8.09579    0.0665349  8.09579    7.90122    94.57978   99.56268   255.9783  
206.3604   355.0816   8.035666   8.112275   7.800931   7.703015   7.942696   8.095449   0.07870715 8.095449   7.907645   98.02425   102.4477   252.6339  
206.5128   354.6085   7.997325   8.069553   7.80176    7.739959   7.944478   8.095936   0.08251284 8.095936   7.899543   98.89082   105.9501   248.6583  
206.6652   354.1342   8.022082   8.062057   7.808218   7.784731   7.944834   8.058943   0.09024932 8.058943   7.91515    96.31472   109.1667   244.9675  
206.8176   353.6525   8.026191   8.095606   7.807563   7.738282   7.953544   8.041685   0.103044   8.041685   7.916877   92.46702   111.7491   241.9034  
206.97     353.1687   8.044102   8.084912   7.798619   7.697079   7.927969   8.071727   0.1440302  8.071727   7.890996   91.44685   114.1975   238.9711  
207.1224   352.6768   8.00357    8.134343   7.826281   7.730412   7.95964    8.142311   0.1355455  8.142311   7.914925   94.05749   116.3386   236.3382  
207.2748   352.1705   8.063272   8.181625   7.910313   7.824515   8.03451    8.164672   0.1338327  8.164672   7.986793   97.87112   118.8894   233.2811  
207.4272   351.6563   8.158798   8.196565   7.865722   7.850105   8.045177   8.137207   0.1579535  8.137207   8.01226    99.89423   122.1797   229.4766  
207.5796   351.1393   8.133328   8.207678   7.808086   7.8123     8.026254   8.050532   0.1541612  8.050532   7.970707   100.713    126.0531   225.0861  
207.732    350.6199   8.34974    8.670172   7.775276   7.814494   8.092303   8.662355   0.1634665  8.662355   8.062508   99.78185   128.3839   222.236   
207.8844   350.0909   7.928358   8.145351   8.070589   7.972896   8.109019   8.184262   0.1899727  8.184262   7.999474   99.87016   130.4876   219.6033  
208.0368   349.5472   8.200316   8.452579   7.927416   7.829247   8.06921    8.255721   0.2299819  8.255721   8.063867   101.7118   132.9385   216.6087  
208.1892   348.9909   8.193141   8.259468   7.698225   7.847009   8.039577   8.177214   0.2889083  8.177214   7.945683   102.9243   134.9159   214.0751  
