~Version
 VERS              .         2.0                           : CWLS LOG ASCII STANDARD - VERSION 2.0
 WRAP              .         NO                            : ONE LINE PER DEPTH STEP
 DLM               .         SPACE                         : DELIMITING CHARACTER(SPACE TAB OR COMMA)
~Well Information
#_______________________________________________________________________________
#
#PARAMETER_NAME    .UNIT     VALUE                         : DESCRIPTION
#_______________________________________________________________________________
STRT               .m        66                            : First reference value
STOP               .m        322.032                       : Last reference value
STEP               .m        0.1524                        : Step increment
NULL               .         -9999                         : Missing value
COMP               .                                       : Company
WELL               .         D                             : Well name
FLD                .                                       : Field
LOC                .                                       : Location
CNTY               .                                       : County
STAT               .                                       : State
CTRY               .                                       : Country
SRVC               .                                       : Service Company
DATE               .                                       : Date
API                .                                       : API number
~Parameter Information Block
#_______________________________________________________________________________
#
#PARAMETER_NAME    .UNIT     VALUE                         : DESCRIPTION
#_______________________________________________________________________________
SET                .         Inclination                   : 
TLFamily_AZI       .         Hole Azimuth                  : 
TLFamily_CAL2      .         Caliper 2                     : 
TLFamily_CAL4      .         Caliper                       : 
TLFamily_CAL6      .         Caliper                       : 
TLFamily_CAL8      .         Caliper                       : 
TLFamily_CALX      .         Caliper 1                     : 
TLFamily_CALY      .         Caliper 2                     : 
TLFamily_DEV       .         Hole Deviation                : 
TLFamily_DMAX      .         Caliper                       : 
TLFamily_DMIN      .         Caliper                       : 
TLFamily_GR        .         Gamma Ray                     : 
TLFamily_HAZI      .         Hole Azimuth                  : 
TLFamily_MD        .         Measured Depth                : 
TLFamily_ROT       .         Relative Bearing              : 
~Curve Information
#_______________________________________________________________________________
#
#LOGNAME           .UNIT     LOG_ID                        : DESCRIPTION
#_______________________________________________________________________________
MD                 .m                                      :  
AZI                .deg                                    : Pad 1 Azimuth 
CAL2               .in                                     : Caliper 
CAL4               .in                                     : Caliper 
CAL6               .in                                     : Caliper 
CAL8               .in                                     : Caliper 
CALX               .in                                     : Caliper 
CALY               .in                                     : Caliper 
DEV                .deg                                    : Deviation 
DMAX               .in                                     : Caliper 
DMIN               .in                                     : Caliper 
GR                 .gAPI                                   : Gamma Ray 
HAZI               .deg                                    : Hole Azimuth 
ROT                .deg                                    : Relative Bearing 
~Ascii
# ...
216.2664   321.6854   8.09674    8.103469   7.812188   7.742626   7.945625   8.166471   0.3187245  8.166471   7.923047   69.70103   81.74263   239.9428  
216.4188   321.2159   8.0435     8.095396   7.801324   7.746669   7.884384   8.136964   0.3528069  8.136964   7.884384   69.99791   81.31966   239.8963  
216.5712   320.7521   8.104463   8.052623   7.824578   7.748131   7.874685   8.121797   0.3815812  8.121797   7.874685   71.02342   81.03795   239.7142  
216.7236   320.2983   8.111309   8.037316   7.827065   7.770582   7.916687   8.110519   0.3565919  8.110519   7.903949   71.91037   80.81379   239.4845  
216.876    319.8464   8.09778    8.069449   7.803418   7.766109   7.932324   8.119852   0.3654545  8.119852   7.917779   73.26383   80.47869   239.3678  
217.0284   319.3829   8.089892   8.089211   7.767205   7.758282   7.940558   8.124082   0.3292646  8.124082   7.923746   73.83216   80.13393   239.249   
217.1808   318.9224   8.085292   8.085384   7.778811   7.76727    7.928564   8.142846   0.3296036  8.142846   7.926327   73.63203   79.9017    239.0208  
217.3332   318.4683   8.040104   8.083025   7.794081   7.786408   7.963005   8.139006   0.3135957  8.139006   7.917092   74.18888   79.62112   238.8472  
217.4856   318.015    8.033586   8.097913   7.830949   7.75355    7.966369   8.143818   0.2841378  8.143818   7.925731   73.38202   79.32964   238.6854  
217.638    317.5612   8.059165   8.158562   7.835268   7.691918   7.944398   8.037213   0.2891566  8.037213   7.92524    73.87182   79.30929   238.2519  
217.7904   317.1177   8.051606   8.169726   7.804858   7.702283   7.932522   8.032596   0.3335368  8.032596   7.928232   75.97577   79.89367   237.2239  
217.9428   316.6254   8.07357    8.156465   7.795128   7.801419   7.947407   8.137887   0.3556652  8.137887   7.93435    79.80578   80.35405   236.2713  
218.0952   316.0873   8.09307    8.188859   7.817816   7.833461   7.971793   8.17945    0.3541649  8.17945    7.955443   84.16489   80.36054   235.7267  
218.2476   315.5899   8.211984   8.18671    7.866028   7.885931   8.125736   8.256159   0.3553962  8.256159   8.036322   85.14616   80.1407    235.4492  
218.4      315.1444   8.055058   8.176908   7.915767   7.912124   8.106608   8.163846   0.3496004  8.163846   7.985412   85.83109   80.24285   234.9015  
218.5524   314.7268   8.107311   8.202122   7.990592   7.905329   8.1006     8.216492   0.3107983  8.216492   8.048952   88.01569   80.43176   234.295   
218.7048   314.3025   8.171616   8.231005   7.957652   7.913544   8.072275   8.261603   0.3442584  8.261603   8.064633   90.77655   80.49062   233.8118  
218.8572   313.8785   8.223158   8.208097   7.932608   7.925629   8.053638   8.23234    0.3526403  8.23234    8.053638   92.83953   80.42438   233.4541  
219.0096   313.4553   8.221897   8.189646   7.927721   7.930016   8.029686   8.197582   0.3266872  8.197582   8.029686   92.84793   80.56864   232.8866  
219.162    313.0367   8.192539   8.160658   7.846176   7.937069   8.024455   8.078289   0.3260286  8.078289   8.019358   90.92609   80.74496   232.2917  
219.3144   312.6282   8.152171   8.177799   7.820477   7.817504   8.052289   8.179742   0.3349216  8.179742   7.986324   89.85453   80.82194   231.8063  
219.4668   312.2416   8.164386   8.090364   7.838453   7.868341   8.012398   8.239339   0.3305087  8.239339   7.979352   89.80417   81.16458   231.0771  
219.6192   311.9001   8.07839    8.088738   7.87999    7.87432    7.946734   8.15845    0.3591813  8.15845    7.946734   90.46696   81.64767   230.2524  
219.7716   311.5741   8.080308   8.06882    7.786707   7.867739   7.906394   8.093894   0.3357427  8.093894   7.906394   90.6514    82.10581   229.4683  
219.924    311.2465   8.219378   8.209408   7.779421   7.757722   7.929157   8.336659   0.319058   8.336659   7.929157   89.95453   82.75668   228.4898  
220.0764   310.9436   10.01082   9.945558   8.639482   9.758521   8.225465   11.33971   0.3021248  11.33971   8.225465   88.77229   83.32589   227.6177  
220.2288   310.6663   9.587955   11.64526   8.565413   10.36046   8.675797   11.07846   0.3006613  11.07846   8.675797   88.25715   83.79775   226.8686  
220.3812   310.3571   9.372201   9.189645   8.403191   9.676982   8.512552   11.13256   0.3786972  11.13256   8.512552   90.26733   84.25095   226.1061  
220.5336   309.8853   9.600607   7.646626   6.918984   7.870922   7.976543   8.389937   0.3103716  8.389937   7.758774   92.34409   84.71833   225.167   
220.686    309.2893   8.229785   8.288823   7.8008     7.77256    8.012602   8.16895    0.2615299  8.16895    8.012602   94.85277   85.27568   224.0136  
220.8384   308.5383   8.121826   8.145142   7.880208   7.759141   8.033283   8.127922   0.2691974  8.127922   7.952142   96.02763   85.68249   222.8557  
220.9908   307.6246   8.157703   8.110493   7.852808   7.772345   7.988063   8.113873   0.3040309  8.113873   7.941419   95.17638   86.17866   221.4459  
221.1432   306.6349   8.224143   8.128944   7.845304   7.773033   7.965815   8.114602   0.298648   8.114602   7.950989   94.75084   86.5998    220.0351  
221.2956   305.6041   8.171177   8.082344   7.805556   7.822106   8.086417   8.141242   0.2938882  8.141242   7.952225   94.23655   86.83533   218.7687  
221.448    304.5943   8.191443   8.150174   7.892424   7.895996   8.188966   8.228743   0.3057463  8.228743   8.023085   93.12803   87.18555   217.4088  
221.6004   303.8262   8.207492   8.357859   8.073745   7.914834   8.132849   8.295534   0.3394846  8.295534   8.132849   92.01012   87.39675   216.4295  
221.7528   303.2489   8.220966   8.333274   7.983481   7.920339   8.153202   8.351874   0.3885533  8.351874   8.102223   89.82758   87.4467    215.8022  
221.9052   302.7368   8.338949   8.307693   8.410655   7.961885   8.164851   8.510154   0.3417711  8.510154   8.134789   87.66503   87.42715   215.3096  
222.0576   302.2502   8.36535    8.220941   7.874361   7.745465   8.069333   8.344339   0.3027344  8.344339   7.983202   85.55082   87.00039   215.2498  
222.21     301.7901   8.255803   8.134187   7.947834   8.070069   8.291351   8.314541   0.2943195  8.314541   8.101819   82.68615   86.58739   215.2027  
222.3624   301.3403   8.172601   8.328976   8.047964   7.96494    8.206091   8.322562   0.3076981  8.322562   8.110282   79.85658   86.41348   214.9268  
222.5148   300.9012   8.178133   8.298573   8.109682   8.016992   8.250724   8.366896   0.3159173  8.366896   8.143908   77.65768   86.40163   214.4996  
222.6672   300.478    8.310521   8.334533   7.946569   7.978014   8.111881   8.399513   0.3243498  8.399513   8.111881   77.24742   86.17007   214.3079  
222.8196   300.0529   8.490344   6.564214   7.62942    7.9658     8.131949   8.440299   0.3273756  8.440299   7.265007   79.39828   85.51721   214.5356  
222.972    299.6328   8.473254   7.111735   7.510658   7.96395    8.12684    8.357319   0.3111087  8.357319   7.537843   81.6421    85.15115   214.4817  
223.1244   299.2121   8.433871   8.297997   8.028918   7.990272   8.281215   8.487063   0.3146295  8.487063   8.144135   80.57601   85.36264   213.8495  
223.2768   298.7542   8.255255   8.214073   8.013758   7.891738   8.135832   8.447396   0.3303046  8.447396   8.052906   76.73622   85.6412    213.113   
223.4292   298.2538   9.318139   8.921521   9.047308   7.826622   8.327237   8.845232   0.3230809  9.182724   8.327237   73.27805   85.3893    212.8644  
223.5816   297.7351   8.122703   8.170198   7.785049   7.714068   8.025435   8.114019   0.3277153  8.114019   7.942133   71.69617   85.34507   212.39    
223.734    297.2227   8.198565   8.208097   7.807563   7.663532   8.082698   8.202492   0.3277948  8.202492   7.935815   71.67688   85.37727   211.8454  
223.8864   296.7203   9.567414   8.425479   8.64714    9.612084   8.709885   10.57222   0.3069427  10.57222   8.709885   73.06428   85.32114   211.3991  
224.0388   296.2771   9.557172   10.87282   8.581381   9.150468   9.698014   9.502653   0.2755878  10.01164   9.069276   76.16109   85.24597   211.031   
