~Version
 VERS              .         2.0                           : CWLS LOG ASCII STANDARD - VERSION 2.0
 WRAP              .         NO                            : ONE LINE PER DEPTH STEP
 DLM               .         SPACE                         : DELIMITING CHARACTER(SPACE TAB OR COMMA)
~Well Information
#_______________________________________________________________________________
#
#PARAMETER_NAME    .UNIT     VALUE                         : DESCRIPTION
#_______________________________________________________________________________
STRT               .m        66                            : First reference value
STOP               .m        322.032                       : Last reference value
STEP               .m        0.1524                        : Step increment
NULL               .         -9999                         : Missing value
COMP               .                                       : Company
WELL               .         D                             : Well name
FLD                .                                       : Field
LOC                .                                       : Location
CNTY               .                                       : County
STAT               .                                       : State
CTRY               .                                       : Country
SRVC               .                                       : Service Company
DATE               .                                       : Date
API                .                                       : API number
~Parameter Information Block
#_______________________________________________________________________________
#
#PARAMETER_NAME    .UNIT     VALUE                         : DESCRIPTION
#_______________________________________________________________________________
SET                .         Inclination                   : 
TLFamily_AZI       .         Hole Azimuth                  : 
TLFamily_CAL2      .         Caliper 2                     : 
TLFamily_CAL4      .         Caliper                       : 
TLFamily_CAL6      .         Caliper                       : 
TLFamily_CAL8      .         Caliper                       : 
TLFamily_CALX      .         Caliper 1                     : 
TLFamily_CALY      .         Caliper 2                     : 
TLFamily_DEV       .         Hole Deviation                : 
TLFamily_DMAX      .         Caliper                       : 
TLFamily_DMIN      .         Caliper                       : 
TLFamily_GR        .         Gamma Ray                     : 
TLFamily_HAZI      .         Hole Azimuth                  : 
TLFamily_MD        .         Measured Depth                : 
TLFamily_ROT       .         Relative Bearing              : 
~Curve Information
#_______________________________________________________________________________
#
#LOGNAME           .UNIT     LOG_ID                        : DESCRIPTION
#_______________________________________________________________________________
MD                 .m                                      :  
AZI                .deg                                    : Pad 1 Azimuth 
CAL2               .in                                     : Caliper 
CAL4               .in                                     : Caliper 
CAL6               .in                                     : Caliper 
CAL8               .in                                     : Caliper 
CALX               .in                                     : Caliper 
CALY               .in                                     : Caliper 
DEV                .deg                                    : Deviation 
DMAX               .in                                     : Caliper 
DMIN               .in                                     : Caliper 
GR                 .gAPI                                   : Gamma Ray 
HAZI               .deg                                    : Hole Azimuth 
ROT                .deg                                    : Relative Bearing 
~Ascii
# ...
263.8152   219.8468   8.019618   8.064679   7.845172   7.781893   7.950891   8.107213   0.3210345  8.107213   7.923286   64.94437   59.43098   160.4157  
263.9676   219.1347   8.032326   8.082397   7.847616   7.806322   7.947367   8.132103   0.3042229  8.132103   7.939971   63.50229   59.031     160.1036  
264.12     218.4273   8.074501   8.10588    7.844213   7.88804    7.972506   8.153395   0.2964591  8.153395   7.959357   64.9389    58.62283   159.8043  
264.2724   217.7165   8.022138   8.083549   7.876935   7.869545   7.955839   8.107505   0.2923867  8.107505   7.949536   68.65195   58.44238   159.274   
264.4248   216.9941   8.050895   8.129835   7.839849   7.81673    7.977138   8.157672   0.3265738  8.157672   7.945372   71.69849   58.0817    158.9123  
264.5772   216.2746   8.080198   8.160606   7.839108   7.762711   7.986717   8.1567     0.3359507  8.1567     7.959653   71.16898   57.66373   158.6108  
264.7296   215.5812   8.005267   8.153739   7.832127   7.815827   7.990367   8.134873   0.3099042  8.134873   7.918697   66.05118   57.5447    158.0364  
264.882    214.8952   8.000831   8.172976   7.810617   7.812988   7.969339   8.144402   0.3109253  8.144402   7.905724   58.34185   57.66522   157.2299  
265.0344   214.1968   8.085675   8.166843   7.857083   7.80787    8.037902   8.169388   0.3263922  8.169388   7.971379   50.62999   57.71112   156.4856  
265.1868   213.4948   8.032326   8.11909    7.930819   7.840084   8.083883   8.202686   0.3120643  8.202686   7.979587   44.17686   57.69861   155.7961  
265.3392   212.818    7.958897   8.159662   7.929946   7.814752   8.013256   8.195686   0.3339753  8.195686   7.944422   40.5562    57.82116   154.9967  
265.4916   212.156    7.877133   8.208517   7.882957   7.792387   7.988262   8.098901   0.3226535  8.098901   7.880045   40.33075   57.93435   154.2215  
265.644    211.4837   7.961532   8.332068   7.892642   7.69966    7.98359    8.199089   0.3943405  8.199089   7.927087   42.24498   57.97902   153.5046  
265.7964   210.8121   7.980216   8.128053   7.833697   7.878233   7.954256   8.105706   0.4392322  8.105706   7.906957   42.87302   57.91402   152.8979  
265.9488   210.1488   8.004829   8.144356   7.787275   7.912124   7.903663   8.160395   0.4431697  8.160395   7.896052   40.62352   58.06604   152.0827  
266.1012   209.4944   8.073571   8.110912   7.775146   7.909974   7.912966   8.143526   0.407068   8.143526   7.912966   37.97528   57.97365   151.5206  
266.2536   208.855    8.0263     8.071755   7.838279   7.915049   7.962807   8.087672   0.3917299  8.087672   7.932289   37.66336   57.97099   150.884   
266.406    208.2717   7.875182   8.072594   7.763933   7.900942   7.910353   8.134436   0.4058163  8.134436   7.819557   39.65194   57.9762    150.2954  
266.5584   207.7389   8.069955   8.059908   7.772048   7.881201   7.868588   8.069686   0.4250118  8.069686   7.868588   41.21715   57.97665   149.762   
266.7108   207.2094   8.000447   8.104361   7.790067   7.893415   7.93082    8.076783   0.3876263  8.076783   7.895257   41.16252   58.03227   149.177   
266.8632   206.6686   8.085621   8.166791   7.795084   7.87062    7.942261   8.209151   0.3349408  8.209151   7.940352   40.42068   58.06617   148.6023  
267.0156   206.1439   8.020001   8.145038   7.860661   7.927951   7.958848   8.1637     0.3263239  8.1637     7.940331   39.73008   58.26976   147.874   
267.168    205.613    8.004117   8.155416   7.878899   7.93922    7.947961   8.218534   0.3395054  8.218534   7.941399   40.02204   58.24899   147.3639  
267.3204   205.1004   7.958702   7.950557   7.855251   7.983132   7.965973   8.161172   0.3534974  8.161172   7.906976   39.98393   58.43893   146.6613  
267.4728   204.5981   7.998476   8.014881   7.899929   7.97767    7.993801   8.069102   0.3746081  8.069102   7.949202   39.13473   58.73463   145.8633  
267.6252   204.079    8.012333   8.203693   7.85067    7.867309   7.963282   8.075032   0.3676704  8.075032   7.931501   38.68721   58.91498   145.1638  
267.7776   203.5641   8.029532   8.184142   7.84936    7.882792   8.060668   8.047276   0.3319022  8.060668   7.939446   38.63967   59.15979   144.4042  
267.93     203.0965   8.005486   8.285153   7.859701   7.834278   7.966765   8.026032   0.3536191  8.059715   7.932594   39.11535   59.57972   143.5167  
268.0824   202.7083   8.110652   8.241698   7.811839   7.8606     7.983708   8.123741   0.327977   8.123741   7.961245   39.08841   60.00017   142.708   
268.2348   202.3956   7.99417    8.276556   7.859004   7.8972     7.960907   8.217221   0.3288123  8.217221   7.926587   40.26261   60.73118   141.6643  
268.3872   202.1363   8.079705   8.174444   7.823532   7.982831   7.973772   8.210416   0.3128966  8.210416   7.951618   44.07728   61.46394   140.6722  
268.5396   201.9072   8.070831   8.111227   7.781908   7.905415   7.940717   8.165888   0.3060791  8.165888   7.92637    47.90419   62.32784   139.5792  
268.692    201.6781   8.041637   8.15096    7.805163   7.843309   7.954691   8.11256    0.2886483  8.11256    7.9234     49.78175   63.05828   138.6197  
268.8444   201.4367   8.184761   8.108554   7.88348    7.979906   8.120463   8.203367   0.2887594  8.203367   8.034121   48.45653   63.50977   137.9267  
268.9968   201.1907   8.14757    8.22267    7.948577   7.968509   8.187943   8.199284   0.2685832  8.199284   8.048074   45.54513   64.16389   137.0267  
269.1492   200.926    8.137218   8.258419   7.936186   8.018288   8.081104   8.268069   0.29291    8.268069   8.036702   43.41829   64.87222   136.0537  
269.3016   200.6532   8.153156   8.206472   7.929074   8.0476     8.11372    8.31002    0.3344514  8.31002    8.041115   41.01951   65.27191   135.3812  
269.454    200.3801   8.054509   8.098541   7.933873   7.982014   8.099864   8.30968    0.30035    8.30968    7.994191   39.33847   65.66515   134.7149  
269.6064   200.0814   8.146638   8.168993   7.927852   8.037033   7.990408   8.222909   0.3097765  8.222909   7.990408   38.68516   65.95238   134.129   
269.7588   199.7395   8.130371   8.176174   7.93396    7.981756   8.018814   8.131373   0.2954682  8.131373   8.018814   38.54339   66.36031   133.3791  
269.9112   199.379    8.097287   8.190328   7.839413   7.934661   7.973693   8.106436   0.2994117  8.106436   7.96835    38.32944   66.47784   132.901   
270.0636   199.0185   8.169535   8.167944   7.88697    8.03432    7.978048   8.307541   0.2658587  8.307541   7.978048   37.53578   66.38951   132.6289  
270.216    198.6696   8.244575   8.125276   7.951762   8.062781   8.094755   8.26909    0.2047429  8.26909    8.094028   37.13749   66.13642   132.5331  
270.3684   198.3051   8.137162   8.330077   7.979641   8.064401   8.180914   8.263742   0.2540298  8.263742   8.058402   36.75846   66.33208   131.9729  
270.5208   197.9245   8.152938   8.359641   8.006947   8.091121   8.217127   8.396451   0.2447135  8.396451   8.079943   36.44175   66.20403   131.7204  
270.6732   197.5511   8.166631   8.291654   8.065549   8.113267   8.178625   8.266659   0.2457608  8.266659   8.11609    37.60744   65.97508   131.5759  
270.8256   197.1827   8.394928   8.318807   7.996828   8.034077   8.167549   8.270013   0.2429397  8.270013   8.167549   39.93563   65.59536   131.5872  
270.978    196.8136   8.296883   8.420395   7.924274   8.038895   8.132562   8.388917   0.2379845  8.388917   8.110579   41.73861   65.3055    131.5079  
271.1304   196.4457   8.398214   8.298311   7.948359   8.084928   8.183244   8.339089   0.2203561  8.339089   8.173286   40.93324   65.00938   131.4362  
271.2828   196.0665   8.344152   8.24652    7.997097   8.073389   8.140819   8.340403   0.1974642  8.340403   8.140819   39.44794   64.39981   131.6666  
271.4352   195.6313   8.29042    8.246887   8.055352   8.11679    8.148543   8.354403   0.2122998  8.354403   8.148543   39.70225   64.09663   131.5346  
271.5876   195.1498   8.301703   8.312359   8.030418   8.082296   8.163339   8.310653   0.2333331  8.310653   8.163339   40.98517   63.92974   131.2199  
