~Version
 VERS              .         2.0                           : CWLS LOG ASCII STANDARD - VERSION 2.0
 WRAP              .         NO                            : ONE LINE PER DEPTH STEP
 DLM               .         SPACE                         : DELIMITING CHARACTER(SPACE TAB OR COMMA)
~Well Information
#_______________________________________________________________________________
#
#PARAMETER_NAME    .UNIT     VALUE                         : DESCRIPTION
#_______________________________________________________________________________
STRT               .M        0.1524                        : First reference value
STOP               .M        325.6788                      : Last reference value
STEP               .M        0.1524                        : Step increment
NULL               .         -9999                         : Missing value
COMP               .                                       : Company
WELL               .         D                             : Well name
FLD                .                                       : Field
LOC                .                                       : Location
CNTY               .                                       : County
STAT               .                                       : State
CTRY               .                                       : Country
SRVC               .                                       : Service Company
DATE               .                                       : Date
API                .                                       : API number
~Parameter Information Block
#_______________________________________________________________________________
#
#PARAMETER_NAME    .UNIT     VALUE                         : DESCRIPTION
#_______________________________________________________________________________
SET                .         Logs                          : 
TLFamily_DEPT      .         Measured Depth                : 
TLFamily_DT        .         Compressional Slowness        : 
TLFamily_GR        .         Gamma Ray                     : 
TLFamily_ILD       .         Resistivity - Deep            : 
TLFamily_NPOR_LIM  .         Thermal Neutron Porosity Limestone: 
TLFamily_PEF       .         Photoelectric Factor          : 
TLFamily_RHO       .         Bulk Density                  : 
~Curve Information
#_______________________________________________________________________________
#
#LOGNAME           .UNIT     LOG_ID                        : DESCRIPTION
#_______________________________________________________________________________
DEPT               .M                                      : Depth 
DT                 .US/M                                   : Compressional Slowness 
GR                 .GAPI                                   : MGS Gamma Ray 
ILD                .OHMM                                   : Array Ind. One Res 85 
NPOR_LIM           .V/V                                    : Lmst Neutron Por. (PEN) 
PEF                .B/E                                    : PE 
RHO                .K/M3                                   : Compensated Density 
~Ascii
# ...
63.246     538.9503999999999 43.9245    18167.709  0.555      12.4142    1924.3303 
63.3984    538.4831   40.0555    17956.8438 0.5349     13.0237    1805.1294 
63.5508    541.0739   44.4505    18770.0762 0.4906     11.453     1721.093  
63.7032    544.9449   55.7494    20788.9609 0.4592     8.228999999999999 1747.5199 
63.8556    547.994    69.2974    23271.6914 0.4945     4.6957     1857.4006 
64.008     549.6856   79.37050000000001 23954.8516 0.6002999999999999 2.7175     1961.4689 
64.1604    551.1044000000001 82.7629    23347.0039 0.6611     2.5459     1955.4921 
64.3128    553.4232   84.6678    22801.7832 0.6441     2.557      1950.6843 
64.4652    556.6458   87.5274    22332.3164 0.6064000000000001 2.5332     1974.6993 
64.6176    559.5607   89.7398    21934.7246 0.5844     2.5338     2000.9489 
64.77      561.0923   88.6551    6526.3687  0.6108     2.5486     2042.6787 
64.9224    560.8951   87.75320000000001 2.4224     0.658      2.5669     2078.6592 
65.0748    559.4968   86.18389999999999 2.5159     0.6909     2.6069     2092.2727 
65.2272    557.3665999999999 86.70820000000001 2.5192     0.6977     2.6331     2091.3032 
65.3796    554.9144   90.1161    2.5127     0.705      2.629      2089.4363 
65.532     552.1446   93.9122    2.5102     0.7045     2.6141     2088.5603 
65.6844    548.5933   98.4194    2.5143     0.6889999999999999 2.5962     2095.0129 
65.8368    544.2542   100.465    2.5293     0.6666     2.5979     2098.2188 
65.9892    539.4257   99.44710000000001 2.5538     0.666      2.5929     2105.1243 
66.1416    535.076    95.0544    2.585      0.6637999999999999 2.5816     2108.448  
66.294     531.9233   91.816     2.624      0.6387     2.5834     2105.6399 
66.4464    529.6934   91.13500000000001 2.6322     0.6328     2.5982     2106.5007 
66.5988    527.92     93.1251    2.6781     0.6197     2.6125     2114.6711 
66.7512    526.1734   94.36409999999999 2.7439     0.6017     2.6237     2127.0073 
66.9036    524.4139   94.19459999999999 2.8147     0.5739     2.6325     2131.8462 
67.056     522.7005   93.9068    2.8832     0.5592     2.63       2126.3342 
67.2084    520.8704   93.95229999999999 2.9496     0.5800999999999999 2.5905     2115.3184 
67.3608    518.6218   96.0359    3.0109     0.5946     2.5846     2105.1528 
67.5132    515.7648   97.0562    3.0685     0.5913     2.6262     2101.5925 
67.6656    512.6514   98.15179999999999 3.1216     0.5861     2.6572     2113.0857 
67.818     509.8849   99.1601    3.1761     0.5823     2.6487     2125.5662 
67.9704    507.8712   101.5657   3.2325     0.5537     2.61       2128.23   
68.1228    506.6595   105.6517   3.2892     0.5344     2.6111     2116.0481 
68.2752    506.0978   109.5469   3.3566     0.5525     2.6198     2101.7942 
68.4276    505.9545   110.1677   3.4249     0.5651     2.5675     2099.0046 
68.58      506.008    108.4938   3.4847     0.5573     2.4925     2101.8784 
68.7324    505.8722   106.4622   3.5281     0.5339     2.4602     2110.1147 
68.8848    505.0977   104.8466   3.5569     0.4734     2.472      2123.0098 
69.0372    503.52     105.7231   3.5167     0.4631     2.5085     2138.3301 
69.1896    501.0156   107.0171   3.3117     0.5272     2.542      2148.3667 
69.342     497.8293   109.1644   3.2596     0.5518     2.5677     2152.8999 
69.4944    494.0342   111.5466   3.2885     0.5537     2.5886     2146.9836 
69.6468    490.1264   109.0246   3.2705     0.5609     2.5712     2135.833  
69.7992    486.9316   104.2048   3.3028     0.577      2.5143     2105.5342 
69.9516    484.9928   97.7929    3.6409     0.6084000000000001 2.3986     2050.2012 
70.104     485.1903   92.211     3.9536     0.6035     2.3009     2001.0713 
70.2564    487.6787   86.7191    3.9578     0.553      2.3042     1980.384  
70.4088    492.2382   80.0309    4.0114     0.522      2.3531     2002.0179 
70.5612    498.1397   75.12130000000001 4.5012     0.5168     2.3636     2034.168  
70.7136    504.7834   72.8921    4.7829     0.5079     2.3272     2038.4686 
70.866     511.7738   76.02800000000001 4.9049     0.4956     2.3321     2017.5242 
71.0184    518.8784000000001 82.3009    4.6813     0.4838     2.396      1998.2961 
71.1708    525.6716   86.42700000000001 4.2778     0.4747     2.4631     1988.4762 
71.3232    532.0225   86.9572    3.7313     0.4758     2.4769     1996.2616 
71.4756    538.0228   86.4526    3.6234     0.4957     2.4478     2026.6367 
71.628     543.8022999999999 89.52209999999999 3.6209     0.5276     2.4487     2066.4373 
71.7804    550.0193   97.1515    3.1288     0.5486     2.5012     2107.855  
71.9328    558.3738   102.2177   2.9722     0.535      2.5706     2127.335  
72.0852    567.7664   100.8036   3.0556     0.495      2.64       2130.9004 
72.2376    575.9621   95.0539    3.4815     0.4583     2.7077     2157.3855 
72.39      578.1553   85.5076    3.4288     0.4321     2.9221     2197.3157 
72.5424    574.4286   75.0984    5.2419     0.3827     3.0091     2224.7146 
72.6948    568.0536   66.63339999999999 11.1689    0.315      2.8532     2212.0056 
72.8472    560.1276   61.9128    16.5513    0.2575     2.4851     2148.3484 
72.9996    554.1615   61.1519    19.4748    0.2337     2.1379     2096.7314 
73.152     549.204    61.1047    15.9422    0.2585     2.1286     2086.5247 
73.3044    548.3085   59.5855    15.5833    0.2803     2.1338     2095.155  
73.4568    550.1802   55.1354    19.9446    0.2601     2.1038     2075.9734 
73.6092    552.3846   48.6066    33.3358    0.2116     2.0557     2030.7405 
73.7616    552.6382   40.6536    44.1738    0.1783     1.9991     1997.7943 
73.914     547.6294   34.5025    40.1791    0.185      1.9532     2008.4962 
74.0664    538.1482   29.7187    31.6771    0.2281     1.9376     2056.0847 
74.2188    525.28     26.3018    29.0144    0.2857     1.9454     2102.6697 
74.3712    514.1011   23.7698    28.9647    0.3272     1.931      2122.2639 
74.5236    506.7692   21.6564    29.409     0.3317     1.9021     2116.1904 
74.676     503.1889   21.8049    29.0732    0.3111     1.8693     2101.5508 
74.8284    501.8914   24.5033    28.5877    0.291      1.9039     2093.145  
74.9808    501.4251   31.1926    27.3914    0.3026     1.9959     2098.0566 
75.1332    501.5498   37.3965    24.8128    0.3547     2.0406     2106.168  
75.2856    501.2173   40.5025    24.5289    0.3949     2.0162     2106.8445 
75.438     499.6933   38.7476    26.2799    0.3823     1.925      2098.5088 
75.5904    497.1225   35.1249    27.1596    0.3535     1.8686     2090.6804 
75.7428    494.296    34.417     27.1716    0.3401     1.8969     2093.5723 
75.8952    491.7032   35.4758    27.1571    0.3546     1.9613     2102.25   
76.0476    489.5083   38.0755    27.1285    0.3685     2.0075     2109.9458 
76.2       487.919    38.5177    27.3065    0.3721     1.9993     2113.0071 
76.3524    486.8725   37.6784    28.1856    0.3592     1.9707     2109.4087 
76.5048    486.3943   36.1702    28.0663    0.3346     1.9482     2105.0291 
76.6572    486.1637   34.2554    28.1194    0.3262     1.9358     2099.2598 
76.8096    485.9348   33.4116    28.0979    0.3183     1.9092     2095.5898 
76.962     485.5566   34.177     27.6323    0.3121     1.909      2097.6873 
77.1144    485.0262   36.7038    26.8861    0.3171     1.9745     2102.1482 
77.2668    484.2594   36.5243    26.7899    0.3379     2.0309     2108.9641 
77.4192    483.1798   33.9559    27.3459    0.3563     2.0328     2114.5674 
77.5716    481.8091   32.5002    27.3798    0.3416     1.9617     2120.4839 
77.724     480.3208   33.223     27.2851    0.3279     1.905      2122.7075 
77.8764    479.086    34.5668    27.0866    0.3263     1.9076     2122.1475 
78.0288    478.1314   33.9876    26.9354    0.3302     1.9132     2118.2358 
78.1812    477.3613   30.7318    26.6801    0.3335     1.9203     2111.8438 
78.3336    476.5437   27.9199    26.4812    0.3142     1.9157     2112.8826 
78.486     475.4648   26.0744    26.2684    0.2954     1.9024     2116.5945 
78.6384    474.1186   24.8668    25.9306    0.2897     1.8814     2120.2703 
