~Version
 VERS              .         2.0                           : CWLS LOG ASCII STANDARD - VERSION 2.0
 WRAP              .         NO                            : ONE LINE PER DEPTH STEP
 DLM               .         SPACE                         : DELIMITING CHARACTER(SPACE TAB OR COMMA)
~Well Information
#_______________________________________________________________________________
#
#PARAMETER_NAME    .UNIT     VALUE                         : DESCRIPTION
#_______________________________________________________________________________
STRT               .M        0.1524                        : First reference value
STOP               .M        325.6788                      : Last reference value
STEP               .M        0.1524                        : Step increment
NULL               .         -9999                         : Missing value
COMP               .                                       : Company
WELL               .         D                             : Well name
FLD                .                                       : Field
LOC                .                                       : Location
CNTY               .                                       : County
STAT               .                                       : State
CTRY               .                                       : Country
SRVC               .                                       : Service Company
DATE               .                                       : Date
API                .                                       : API number
~Parameter Information Block
#_______________________________________________________________________________
#
#PARAMETER_NAME    .UNIT     VALUE                         : DESCRIPTION
#_______________________________________________________________________________
SET                .         Logs                          : 
TLFamily_DEPT      .         Measured Depth                : 
TLFamily_DT        .         Compressional Slowness        : 
TLFamily_GR        .         Gamma Ray                     : 
TLFamily_ILD       .         Resistivity - Deep            : 
TLFamily_NPOR_LIM  .         Thermal Neutron Porosity Limestone: 
TLFamily_PEF       .         Photoelectric Factor          : 
TLFamily_RHO       .         Bulk Density                  : 
~Curve Information
#_______________________________________________________________________________
#
#LOGNAME           .UNIT     LOG_ID                        : DESCRIPTION
#_______________________________________________________________________________
DEPT               .M                                      : Depth 
DT                 .US/M                                   : Compressional Slowness 
GR                 .GAPI                                   : MGS Gamma Ray 
ILD                .OHMM                                   : Array Ind. One Res 85 
NPOR_LIM           .V/V                                    : Lmst Neutron Por. (PEN) 
PEF                .B/E                                    : PE 
RHO                .K/M3                                   : Compensated Density 
~Ascii
# ...
233.7816   485.1287   68.7162    9.0596     0.3121     2.4276     2120.3669 
233.934    493.9137   69.3456    8.8142     0.3163     2.4327     2129.5652 
234.0864   499.0587   71.21299999999999 8.358499999999999 0.3262     2.4643     2139.6558 
234.2388   498.1697   75.0577    7.4444     0.3443     2.5053     2153.5295 
234.3912   494.4632   80.0218    7.2464     0.3583     2.5531     2161.561  
234.5436   489.3915   84.47239999999999 6.5784     0.3839     2.5858     2157.4546 
234.696    479.9225   87.0021    4.8612     0.4506     2.5756     2155.4224 
234.8484   467.1238   86.809     4.1709     0.5084     2.5311     2145.5054 
235.0008   450.4952   85.0699    4.3625     0.4681     2.463      2135.8677 
235.1532   433.4813   82.0831    5.7786     0.3796     2.5195     2119.8931 
235.3056   426.1846   79.9049    6.4868     0.3332     2.6315     2106.2866 
235.458    430.1164   78.943     4.9523     0.3595     2.6325     2117.6846 
235.6104   447.6694   78.3398    4.2401     0.4231     2.5478     2129.801  
235.7628   472.0193   75.90130000000001 3.7229     0.4592     2.4283     2135.8467 
235.9152   489.8444   73.758     3.6641     0.4746     2.4225     2120.9028 
236.0676   499.1015   74.3047    3.5337     0.5218     2.4542     2097.2524 
236.22     499.2513   77.93689999999999 3.1808     0.5947     2.4215     2054.5271 
236.3724   495.3374   84.85429999999999 3.6309     0.64       2.3433     2003.047  
236.5248   491.3778   92.55800000000001 4.6078     0.64       2.2798     1993.2694 
236.6772   486.2148   101.0457   4.6637     0.5953000000000001 2.278      2041.0424 
236.8296   479.8296   107.4163   5.0483     0.5308     2.2897     2130.0579 
236.982    472.7204   111.4578   5.3085     0.4757     2.2819     2194.2551 
237.1344   466.3423   111.6845   5.5716     0.4445     2.2747     2212.3792 
237.2868   461.4498   109.8397   5.7168     0.4344     2.263      2222.241  
237.4392   457.7447   108.7449   6.1197     0.4334     2.2569     2237.2729 
237.5916   454.4403   107.8337   6.24       0.4304     2.2732     2253.5261 
237.744    451.1599   107.8661   6.2462     0.425      2.3076     2264.1492 
237.8964   448.2604   107.0955   6.2878     0.4171     2.3474     2268.8574 
238.0488   446.081    105.6034   6.4174     0.4098     2.3637     2277.2944 
238.2012   445.0479   102.8834   6.618      0.4043     2.3557     2287.397  
238.3536   445.0829   98.3317    7.0199     0.3873     2.3088     2287.8823 
238.506    446.0311   93.3867    7.5218     0.3622     2.2519     2269.4304 
238.6584   447.0099   91.3004    9.4488     0.3359     2.2363     2246.0459 
238.8108   446.9667   91.9897    9.123699999999999 0.3416     2.268      2237.8542 
238.9632   445.2954   94.1155    7.5222     0.3798     2.3046     2250.4673 
239.1156   441.9455   94.67740000000001 7.812      0.3809     2.2957     2265.311  
239.268    438.0533   91.813     8.4725     0.3491     2.2477     2264.1858 
239.4204   434.9868   89.155     10.4798    0.3188     2.215      2251.7544 
239.5728   433.4753   89.59059999999999 10.7506    0.3101     2.2359     2239.8247 
239.7252   433.7575   91.53579999999999 9.994999999999999 0.3423     2.2614     2249.0461 
239.8776   435.5615   92.6296    8.818899999999999 0.3766     2.2653     2261.8525 
240.03     438.8513   91.0497    9.3543     0.3611     2.2347     2259.6741 
240.1824   443.7476   87.0371    10.7467    0.3201     2.1812     2246.2551 
240.3348   449.7805   81.24339999999999 11.2885    0.2982     2.155      2220.6719 
240.4872   456.6234   75.3685    11.7421    0.2989     2.145      2203.5256 
240.6396   463.0035   74.1566    12.4423    0.3053     2.1591     2196.8494 
240.792    468.2693   79.4357    11.3822    0.3184     2.192      2198.415  
240.9444   472.6363   87.27030000000001 10.4915    0.3477     2.2339     2215.4529 
241.0968   476.4068   91.67019999999999 10.3238    0.3855     2.2514     2228.3696 
241.2492   480.1961   88.496     9.088100000000001 0.3956     2.1984     2211.1541 
241.4016   483.2734   80.63120000000001 13.3891    0.3359     2.1298     2172.7397 
241.554    484.3942   77.473     15.9033    0.2709     2.1579     2142.0752 
241.7064   482.0728   81.4918    12.21      0.3021     2.2874     2155.304  
241.8588   476.3007   89.8694    8.2553     0.4256     2.4318     2208.6921 
242.0112   467.8153   94.39570000000001 7.3401     0.4985     2.4683     2252.3342 
242.1636   459.0504   90.8965    8.5021     0.4416     2.3922     2256.8611 
242.316    452.5552   84.8282    11.8494    0.3494     2.3006     2243.6848 
242.4684   449.6613   78.6802    11.5227    0.3164     2.24       2240.6475 
242.6208   449.7359   75.3516    10.8475    0.3262     2.2085     2247.8101 
242.7732   450.5904   72.6371    10.9997    0.328      2.1757     2253.9355 
242.9256   451.1847   68.8292    10.7109    0.3241     2.1473     2250.5315 
243.078    452.214    64.8865    10.7784    0.3163     2.1517     2244.3313 
243.2304   454.8662   59.6278    10.9744    0.2988     2.1522     2242.2715 
243.3828   459.9635   52.9407    10.6572    0.2854     2.1793     2231.592  
243.5352   466.6786   44.8181    11.2499    0.2525     2.1684     2215.584  
243.6876   475.3074   38.7552    11.6012    0.2163     2.1087     2193.7322 
243.84     484.5867   36.7521    10.5017    0.2194     2.0334     2170.8467 
243.9924   491.7198   36.6792    9.862299999999999 0.2297     1.9645     2156.7432 
244.1448   495.0006   36.3131    9.7956     0.2294     1.9717     2148.7954 
244.2972   492.4887   35.8925    10.4994    0.2235     2.0024     2145.8992 
244.4496   487.478    37.7667    10.65      0.2131     2.0328     2145.9463 
244.602    482.1296   40.536     11.0325    0.2062     2.0347     2147.1985 
244.7544   476.8987   45.4482    11.2794    0.2085     2.0373     2149.5737 
244.9068   471.1918   51.4003    11.0564    0.2143     2.0796     2161.6567 
245.0592   464.6579   54.7198    10.1171    0.2565     2.1167     2181.6292 
245.2116   459.0848   56.0673    10.333     0.2967     2.1408     2199.6814 
245.364    455.8787   60.6113    13.6737    0.2696     2.18       2216.7163 
245.5164   455.5336   73.91840000000001 10.8088    0.287      2.2611     2234.8591 
245.6688   457.5893   92.88720000000001 8.2323     0.3725     2.3997     2261.4587 
245.8212   461.9999   103.0156   6.9213     0.427      2.4514     2289.1011 
245.9736   468.677    97.37690000000001 6.9024     0.4274     2.3671     2295.8538 
246.126    476.4792   82.803     8.777699999999999 0.3806     2.2146     2271.7136 
246.2784   482.9818   70.6241    10.0788    0.3194     2.0797     2230.0132 
246.4308   486.0573   65.43640000000001 10.1741    0.287      2.018      2195.2004 
246.5832   484.7471   62.9063    9.6439     0.2935     1.9953     2173.1833 
246.7356   480.7182   62.3026    9.996499999999999 0.2936     1.9939     2157.8904 
246.888    477.2141   64.574     10.6254    0.276      2.0019     2151.6189 
247.0404   476.5873   69.428     10.5601    0.2852     2.0421     2165.4849 
247.1928   479.6382   72.82810000000001 9.656599999999999 0.3211     2.0743     2188.915  
247.3452   484.8554   68.6414    8.787699999999999 0.3539     2.0578     2195.5381 
247.4976   486.1125   60.1716    9.183199999999999 0.3299     2.0114     2176.8647 
247.65     481.2826   52.6705    9.2827     0.2797     1.9561     2149.5659 
247.8024   470.7848   48.5223    9.220700000000001 0.2731     1.9374     2134.0857 
247.9548   457.3169   47.3099    9.2959     0.268      1.9329     2137.3616 
248.1072   445.0974   46.217     9.3637     0.2612     1.9248     2147.1326 
248.2596   432.9831   47.4165    9.6259     0.2546     1.9344     2158.6165 
248.412    421.4055   53.9046    9.9072     0.2522     1.9596     2173.7383 
248.5644   412.0457   69.0205    9.879899999999999 0.2741     2.0026     2190.7903 
248.7168   405.6244   93.3681    9.8178     0.2949     2.0696     2209.1074 
248.8692   402.3466   118.6115   10.2111    0.3009     2.1237     2226.6584 
249.0216   400.9651   130.8979   10.345     0.3114     2.1602     2245.5688 
