~Version
 VERS              .         2.0                           : CWLS LOG ASCII STANDARD - VERSION 2.0
 WRAP              .         NO                            : ONE LINE PER DEPTH STEP
 DLM               .         SPACE                         : DELIMITING CHARACTER(SPACE TAB OR COMMA)
~Well Information
#_______________________________________________________________________________
#
#PARAMETER_NAME    .UNIT     VALUE                         : DESCRIPTION
#_______________________________________________________________________________
STRT               .M        0.1524                        : First reference value
STOP               .M        325.6788                      : Last reference value
STEP               .M        0.1524                        : Step increment
NULL               .         -9999                         : Missing value
COMP               .                                       : Company
WELL               .         D                             : Well name
FLD                .                                       : Field
LOC                .                                       : Location
CNTY               .                                       : County
STAT               .                                       : State
CTRY               .                                       : Country
SRVC               .                                       : Service Company
DATE               .                                       : Date
API                .                                       : API number
~Parameter Information Block
#_______________________________________________________________________________
#
#PARAMETER_NAME    .UNIT     VALUE                         : DESCRIPTION
#_______________________________________________________________________________
SET                .         Logs                          : 
TLFamily_DEPT      .         Measured Depth                : 
TLFamily_DT        .         Compressional Slowness        : 
TLFamily_GR        .         Gamma Ray                     : 
TLFamily_ILD       .         Resistivity - Deep            : 
TLFamily_NPOR_LIM  .         Thermal Neutron Porosity Limestone: 
TLFamily_PEF       .         Photoelectric Factor          : 
TLFamily_RHO       .         Bulk Density                  : 
~Curve Information
#_______________________________________________________________________________
#
#LOGNAME           .UNIT     LOG_ID                        : DESCRIPTION
#_______________________________________________________________________________
DEPT               .M                                      : Depth 
DT                 .US/M                                   : Compressional Slowness 
GR                 .GAPI                                   : MGS Gamma Ray 
ILD                .OHMM                                   : Array Ind. One Res 85 
NPOR_LIM           .V/V                                    : Lmst Neutron Por. (PEN) 
PEF                .B/E                                    : PE 
RHO                .K/M3                                   : Compensated Density 
~Ascii
# ...
187.7568   446.4306   72.1426    14.3341    0.4113     2.5172     2123.9763 
187.9092   446.9798   76.31270000000001 13.7906    0.4148     2.5265     2119.3918 
188.0616   447.6336   77.5505    12.736     0.4205     2.5596     2118.4612 
188.214    448.2677   75.97069999999999 11.7729    0.4505     2.5713     2122.5859 
188.3664   448.5817   74.1088    12.9452    0.4439     2.5647     2123.3044 
188.5188   448.1595   72.7336    12.9374    0.4176     2.5617     2119.8848 
188.6712   447.1118   72.7497    13.304     0.421      2.566      2116.491  
188.8236   445.7943   73.2992    13.1976    0.4175     2.5698     2117.583  
188.976    444.504    75.7642    12.4992    0.4096     2.5764     2122.1497 
189.1284   443.5034   79.5318    12.1909    0.4128     2.5725     2120.0491 
189.2808   443.2949   81.4478    11.5814    0.4093     2.5682     2116.252  
189.4332   444.2845   81.2466    11.3182    0.4038     2.5906     2114.0129 
189.5856   446.728    79.06959999999999 10.364     0.4142     2.6408     2109.4009 
189.738    449.9185   75.28440000000001 10.043     0.4266     2.685      2105.9539 
189.8904   452.9847   72.53019999999999 10.0116    0.4176     2.696      2102.8521 
190.0428   455.3294   71.14279999999999 8.3232     0.4136     2.6636     2105.1973 
190.1952   456.4731   71.9378    7.9251     0.428      2.6223     2112.1987 
190.3476   456.8333   74.69289999999999 7.4709     0.436      2.607      2119.1104 
190.5      457.0598   77.48609999999999 6.7802     0.4565     2.6133     2128.0942 
190.6524   458.1405   80.6733    5.86       0.4657     2.6454     2136.3286 
190.8048   461.1096   84.25369999999999 5.9826     0.4575     2.701      2142.449  
190.9572   465.6506   88.1669    5.1673     0.4956     2.7959     2152.002  
191.1096   471.5758   91.9606    4.6696     0.5198     2.9256     2160.3711 
191.262    478.1677   94.94      4.2107     0.4856     2.9923     2181.5781 
191.4144   484.9329   98.107     3.9871     0.4872     2.9983     2197.6052 
191.5668   491.2054   101.0512   3.775      0.514      2.9452     2199.8872 
191.7192   496.2371   102.0427   3.5848     0.5532     2.8933     2196.1704 
191.8716   499.7383   100.6547   3.4844     0.5739     2.8974     2180.7468 
192.024    501.8756   98.72839999999999 3.3839     0.5524     2.9021     2178.2935 
192.1764   503.1226   98.1121    3.3845     0.5391     2.9345     2181.7979 
192.3288   503.615    99.47969999999999 3.3951     0.5261     2.9612     2177.636  
192.4812   502.8521   100.5526   3.4139     0.5502     2.9027     2164.5867 
192.6336   500.7278   100.9957   3.4452     0.5909     2.8151     2132.4182 
192.786    497.2997   99.7634    3.9644     0.5506     2.7512     2100.7434 
192.9384   493.0169   96.6016    4.5902     0.4887     2.7654     2095.2932 
193.0908   488.1521   93.2852    4.9568     0.4721     2.8791     2105.5269 
193.2432   483.3039   91.4413    5.3182     0.4687     2.9746     2132.9512 
193.3956   479.6584   92.3319    4.0056     0.4775     3.0158     2162.6782 
193.548    477.7929   96.0886    4.0504     0.4808     3.0077     2184.1985 
193.7004   478.5787   100.9555   4.3582     0.4755     2.9477     2202.3279 
193.8528   481.2567   101.9247   4.3748     0.4812     2.8901     2209.2466 
194.0052   485.8104   100.1877   4.1008     0.4905     2.8545     2200.5535 
194.1576   491.6009   99.1084    3.5094     0.5004999999999999 2.8325     2178.9976 
194.31     498.2644   101.3713   2.96       0.5348000000000001 2.8164     2159.832  
194.4624   505.2054   105.6728   2.7283     0.5636     2.8138     2139.8203 
194.6148   511.7147   107.6385   2.5537     0.5646     2.8143     2129.759  
194.7672   517.3313000000001 108.5718   2.4601     0.576      2.8229     2132.2512 
194.9196   521.7916   108.0687   2.3342     0.5891999999999999 2.7951     2152.3379 
195.072    525.1519   108.2696   2.2515     0.5908     2.7485     2176.7522 
195.2244   527.5732   108.6716   2.2959     0.5894     2.7209     2175.6313 
195.3768   529.2637   108.5397   2.3419     0.5858     2.7327     2148.3135 
195.5292   530.3798   109.0492   2.3408     0.5884     2.7695     2121.9287 
195.6816   530.9671   107.3197   2.3569     0.59       2.7922     2112.6868 
195.834    530.9991   105.2293   2.3774     0.5800999999999999 2.7986     2109.2092 
195.9864   530.02     103.0298   2.371      0.5659999999999999 2.7847     2113.0256 
196.1388   527.7782999999999 102.4798   2.4777     0.569      2.799      2120.7893 
196.2912   524.2859   103.1796   2.453      0.5731000000000001 2.8329     2132.3643 
196.4436   520.2693   103.3291   2.4931     0.5719     2.8833     2155.5088 
196.596    516.2347   103.4289   2.7068     0.5741000000000001 2.9175     2174.0208 
196.7484   512.2188   104.1243   3.1727     0.5483     2.8916     2189.334  
196.9008   507.9177   105.3242   3.4479     0.5207000000000001 2.8603     2194.4038 
197.0532   503.3664   105.9203   3.5133     0.5242     2.8497     2187.7808 
197.2056   499.0627   105.1757   3.5465     0.5283     2.847      2193.4546 
197.358    495.5243   102.8957   3.9241     0.5023     2.8789     2200.5532 
197.5104   493.1132   101.2113   4.7351     0.4609     2.9117     2202.9478 
197.6628   491.7779   99.99379999999999 5.4157     0.435      2.9446     2198.2268 
197.8152   491.2429   98.38939999999999 5.5294     0.4341     2.9707     2196.5474 
197.9676   490.9073   96.4115    5.5424     0.4497     2.952      2201.2146 
198.12     491.0799   91.8583    5.7979     0.4456     2.9309     2194.7896 
198.2724   492.038    87.06059999999999 6.4287     0.4323     2.9122     2182.5237 
198.4248   493.6813   83.87730000000001 7.0635     0.4362     2.9004     2170.8098 
198.5772   494.9201   82.36620000000001 7.4212     0.4251     2.8994     2163.7312 
198.7296   494.0706   83.3254    7.6629     0.4036     2.8915     2159.2175 
198.882    490.742    86.14190000000001 7.9756     0.3903     2.904      2156.9824 
199.0344   486.4668   89.8759    7.9143     0.4057     2.945      2160.657  
199.1868   482.6108   93.884     7.9254     0.4247     2.9886     2166.957  
199.3392   480.2945   97.12569999999999 7.6907     0.4388     3.0197     2172.8362 
199.4916   479.7623   97.8227    8.007899999999999 0.4406     3.035      2172.4839 
199.644    480.9755   97.18340000000001 8.6831     0.4326     3.0327     2170.5188 
199.7964   484.7086   94.83580000000001 8.217599999999999 0.4565     3.0166     2172.645  
199.9488   491.4491   92.4012    7.876      0.4753     2.9947     2173.1702 
200.1012   505.2514   90.2129    8.432700000000001 0.4673     2.9607     2169.1042 
200.2536   524.9114   87.819     9.4595     0.4362     2.9541     2159.4397 
200.406    547.4337   85.8004    9.2395     0.4349     2.9848     2148.5359 
200.5584   564.9601   86.358     8.992100000000001 0.4556     3.0338     2131.9751 
200.7108   571.2935   88.31659999999999 9.321899999999999 0.4503     3.0635     2101.9375 
200.8632   569.3616   89.34739999999999 11.8796    0.3901     3.0359     2063.9866 
201.0156   562.1149   88.27370000000001 13.0894    0.3366     2.9863     2037.0159 
201.168    553.1618999999999 87.1833    12.4115    0.3457     2.9539     2031.0209 
201.3204   542.5355   88.39790000000001 10.9276    0.3729     2.9332     2038.4904 
201.4728   530.1023   92.6759    9.9183     0.3849     2.9427     2057.3713 
201.6252   516.2254   98.1251    10.3803    0.3853     2.9466     2093.6292 
201.7776   501.7007   100.5347   8.912699999999999 0.4146     2.9145     2145.8591 
201.93     487.5919   102.3719   9.0426     0.4228     2.8459     2196.1101 
202.0824   474.7733   103.9511   9.604699999999999 0.3907     2.7668     2224.9773 
202.2348   464.2379   104.2748   10.3889    0.3724     2.7168     2230.0327 
202.3872   455.9908   103.6807   10.4688    0.3708     2.6849     2224.9951 
202.5396   449.1002   101.1772   10.94      0.3688     2.6566     2221.0498 
202.692    442.9616   99.57850000000001 10.877     0.3613     2.667      2230.6497 
202.8444   437.2003   99.2444    11.4681    0.346      3.0254     2266.5901 
