~Version
 VERS              .         2.0                           : CWLS LOG ASCII STANDARD - VERSION 2.0
 WRAP              .         NO                            : ONE LINE PER DEPTH STEP
 DLM               .         SPACE                         : DELIMITING CHARACTER(SPACE TAB OR COMMA)
~Well Information
#_______________________________________________________________________________
#
#PARAMETER_NAME    .UNIT     VALUE                         : DESCRIPTION
#_______________________________________________________________________________
STRT               .M        0.1524                        : First reference value
STOP               .M        325.6788                      : Last reference value
STEP               .M        0.1524                        : Step increment
NULL               .         -9999                         : Missing value
COMP               .                                       : Company
WELL               .         D                             : Well name
FLD                .                                       : Field
LOC                .                                       : Location
CNTY               .                                       : County
STAT               .                                       : State
CTRY               .                                       : Country
SRVC               .                                       : Service Company
DATE               .                                       : Date
API                .                                       : API number
~Parameter Information Block
#_______________________________________________________________________________
#
#PARAMETER_NAME    .UNIT     VALUE                         : DESCRIPTION
#_______________________________________________________________________________
SET                .         Logs                          : 
TLFamily_DEPT      .         Measured Depth                : 
TLFamily_DT        .         Compressional Slowness        : 
TLFamily_GR        .         Gamma Ray                     : 
TLFamily_ILD       .         Resistivity - Deep            : 
TLFamily_NPOR_LIM  .         Thermal Neutron Porosity Limestone: 
TLFamily_PEF       .         Photoelectric Factor          : 
TLFamily_RHO       .         Bulk Density                  : 
~Curve Information
#_______________________________________________________________________________
#
#LOGNAME           .UNIT     LOG_ID                        : DESCRIPTION
#_______________________________________________________________________________
DEPT               .M                                      : Depth 
DT                 .US/M                                   : Compressional Slowness 
GR                 .GAPI                                   : MGS Gamma Ray 
ILD                .OHMM                                   : Array Ind. One Res 85 
NPOR_LIM           .V/V                                    : Lmst Neutron Por. (PEN) 
PEF                .B/E                                    : PE 
RHO                .K/M3                                   : Compensated Density 
~Ascii
# ...
296.418    417.7959   39.6294    100.129    0.3575     1.8853     2094.4749 
296.5704   419.7717   38.6291    107.5154   0.3504     1.866      2089.8374 
296.7228   421.0879   36.5546    112.8507   0.3436     1.8626     2090.0996 
296.8752   420.1708   35.2828    106.0619   0.341      1.8644     2094.0581 
297.0276   416.8912   36.6643    79.9104    0.3432     1.8596     2103.3892 
297.18     412.7584   38.8758    67.9843    0.3415     1.8461     2114.3484 
297.3324   409.2221   38.4992    62.1329    0.3392     1.8361     2119.7559 
297.4848   406.6761   37.0393    70.0004    0.3429     1.8362     2116.8904 
297.6372   404.8669   37.9244    77.3664    0.3419     1.8534     2114.8616 
297.7896   403.4148   40.348     68.9285    0.339      1.8841     2118.3064 
297.942    402.1714   43.3521    46.9124    0.3551     1.9108     2130.3796 
298.0944   400.7177   45.763     47.7311    0.3724     1.9315     2148.6772 
298.2468   399.0532   45.7354    40.449     0.3725     1.9346     2163.8984 
298.3992   397.3468   44.2396    34.0133    0.3761     1.9285     2173.3494 
298.5516   396.0874   41.7835    43.7136    0.3622     1.9257     2172.582  
298.704    395.9022   39.5519    49.8474    0.3366     1.9144     2163.8938 
298.8564   396.7996   38.3255    54.3864    0.3375     1.9019     2153.4614 
299.0088   399.2609   37.8798    61.92      0.3438     1.8971     2147.3733 
299.1612   403.1238   37.1214    50.7714    0.3522     1.9028     2141.0447 
299.3136   408.3406   34.5161    44.7895    0.3775     1.8952     2130.7766 
299.466    413.9647   30.045     70.1544    0.3921     1.8603     2108.1038 
299.6184   418.9808   24.4342    157.9444   0.3748     1.8181     2079.0493 
299.7708   422.6711   21.4003    219.2276   0.349      1.7893     2056.7637 
299.9232   424.6343   20.3588    241.9388   0.3356     1.7876     2043.1908 
300.0756   424.9674   19.5439    255.7434   0.3262     1.7933     2039.1252 
300.228    424.0411   19.6227    260.6902   0.319      1.7883     2038.7283 
300.3804   422.2165   19.2967    258.1094   0.3144     1.7755     2041.9652 
300.5328   419.5646   19.72      272.278    0.2999     1.7705     2050.1594 
300.6852   415.9207   20.581     277.8763   0.2919     1.7761     2060.3225 
300.8376   411.5647   21.7819    244.9124   0.2985     1.7947     2066.0527 
300.99     407.6025   23.6024    203.9319   0.3089     1.8156     2070.3328 
301.1424   404.9923   25.2104    136.0138   0.3387     1.8491     2077.9778 
301.2948   404.1752   26.3823    105.1169   0.3716     1.8881     2096.6047 
301.4472   404.1372   26.1601    106.4892   0.3589     1.9109     2115.77   
301.5996   403.841    25.8976    105.5782   0.328      1.9042     2124.9636 
301.752    402.86     30.1424    80.56570000000001 0.3364     1.9239     2131.8127 
301.9044   401.7276   43.2626    45.5865    0.3633     2.0404     2164.6465 
302.0568   401.4175   62.392     15.9452    0.3867     2.2811     2240.9421 
302.2092   402.461    75.2024    10.0699    0.4391     2.5515     2313.6548 
302.3616   404.1077   71.91840000000001 9.5626     0.4829     2.5644     2330.7727 
302.514    405.1586   57.8059    15.0721    0.4753     2.4043     2281.843  
302.6664   405.424    47.3261    30.9953    0.4139     2.2245     2209.9214 
302.8188   405.7712   48.0288    27.4195    0.3664     2.1309     2176.6416 
302.9712   407.446    56.1012    15.7181    0.3934     2.2029     2189.6323 
303.1236   410.6036   62.4012    12.8949    0.4087     2.2186     2217.3057 
303.276    414.1574   62.979     15.9649    0.3943     2.1776     2223.2407 
303.4284   416.988    59.1306    18.4414    0.3835     2.1644     2207.9321 
303.5808   418.6306   54.2249    21.4632    0.3738     2.1472     2193.6665 
303.7332   419.6563   48.7824    25.5611    0.3661     2.1641     2182.5181 
303.8856   420.6435   41.6585    30.3443    0.3601     2.1852     2165.4905 
304.038    421.8517   33.3931    33.5882    0.3529     2.101      2141.7441 
304.1904   423.2119   25.2991    42.0983    0.3528     1.9834     2109.6155 
304.3428   424.4861   19.3975    83.55240000000001 0.3382     1.8862     2078.4812 
304.4952   425.7804   16.9098    92.2247    0.3139     1.8504     2055.073  
304.6476   427.1813   21.5158    69.5132    0.3224     1.8935     2050.2551 
304.8      428.4364   32.6744    41.4064    0.3485     1.9463     2074.9988 
304.9524   429.2117   48.5465    21.7653    0.3782     2.0186     2114.4382 
305.1048   429.2106   59.7557    12.5075    0.4541     2.1012     2145.3477 
305.2572   429.0738   58.777     13.7194    0.5482     2.1321     2148.7749 
305.4096   429.8268   50.9546    22.8369    0.5225     2.0984     2131.009  
305.562    431.5224   42.7554    27.3563    0.4295     2.0566     2109.4656 
305.7144   433.7321   38.1146    18.6862    0.4017     2.0557     2097.8408 
305.8668   435.5899   36.9724    33.779     0.3742     2.0984     2100.978  
306.0192   436.7967   37.2978    37.9879    0.3332     2.1239     2109.2605 
306.1716   437.7448   40.2139    26.7352    0.3388     2.1063     2111.314  
306.324    438.0557   43.6489    21.2204    0.3678     2.073      2103.3577 
306.4764   436.9552   43.9997    11.8961    0.4133     2.0393     2097.9871 
306.6288   433.6187   42.0043    25.1179    0.3797     2.0082     2094.0637 
306.7812   428.002    39.0929    24.2606    0.3269     1.9853     2107.167  
306.9336   421.4389   44.358     26.5157    0.3288     2.0284     2140.7078 
307.086    415.1795   60.8505    22.375     0.2878     2.0759     2197.7307 
307.2384   410.2044   81.8895    10.9219    0.2967     2.0999     2272.5322 
307.3908   406.9298   100.6441   9.3248     0.3512     2.1        2325.6985 
307.5432   404.9624   108.4132   8.601000000000001 0.386      2.0877     2352.4993 
307.6956   404.6742   108.7064   7.8491     0.437      2.1113     2352.8772 
307.848    405.418    102.6654   7.0498     0.5099     2.1267     2333.9478 
308.0004   406.8343   88.4396    6.9139     0.547      2.0785     2313.981  
308.1528   407.5332   71.61199999999999 9.5176     0.4456     1.984      2290.8562 
308.3052   405.8336   62.4586    10.9004    0.3015     2.1171     2296.2407 
308.4576   401.7131   66.26390000000001 9.6874     0.272      3.0696     2383.7288 
308.61     395.1855   73.351     8.089600000000001 0.337      4.6488     2533.2478 
308.7624   387.4466   74.35509999999999 10.7379    0.3741     5.9264     2700.1187 
308.9148   378.8423   70.78919999999999 14.8766    0.363      6.2211     2781.1714 
309.0672   369.7124   68.80119999999999 14.4653    0.3518     5.5754     2744.2456 
309.2196   360.6043   68.51519999999999 15.832     0.3195     4.8517     2659.0525 
309.372    352.4279   66.0305    17.5491    0.2748     4.556      2591.8345 
309.5244   346.0146   62.0715    18.7778    0.2538     4.4749     2574.5886 
309.6768   341.4769   59.038     20.0101    0.2373     4.4209     2579.4204 
309.8292   338.427    58.4809    21.3682    0.217      4.3649     2587.1982 
309.9816   336.4738   60.2701    21.6832    0.2088     4.3275     2590.3499 
310.134    335.4862   63.0748    21.2902    0.2133     4.3073     2586.9663 
310.2864   335.5492   65.601     20.4495    0.2214     4.2933     2583.0525 
310.4388   336.4677   65.9165    20.5786    0.2212     4.2947     2580.6782 
310.5912   337.7433   65.32340000000001 20.863     0.2167     4.3045     2580.3904 
310.7436   338.7171   65.9211    20.5772    0.2168     4.3056     2579.532  
310.896    339.1811   68.43899999999999 19.3787    0.2217     4.2841     2574.9722 
311.0484   339.46     71.5949    19.5328    0.2264     4.2569     2567.6304 
311.2008   339.9984   72.80929999999999 19.5699    0.2268     4.2329     2559.2393 
311.3532   340.7462   70.87309999999999 20.5151    0.2197     4.2046     2555.3137 
311.5056   341.4103   68.51090000000001 20.9095    0.2123     4.1603     2557.5427 
311.658    341.7743   67.07550000000001 21.0738    0.2108     4.1544     2561.2158 
311.8104   341.843    66.9029    20.6435    0.2135     4.1649     2561.9048 
311.9628   341.7966   67.45829999999999 20.1997    0.2169     4.1733     2560.4504 
