~Version
 VERS              .         2.0                           : CWLS LOG ASCII STANDARD - VERSION 2.0
 WRAP              .         NO                            : ONE LINE PER DEPTH STEP
 DLM               .         SPACE                         : DELIMITING CHARACTER(SPACE TAB OR COMMA)
~Well Information
#_______________________________________________________________________________
#
#PARAMETER_NAME    .UNIT     VALUE                         : DESCRIPTION
#_______________________________________________________________________________
STRT               .M        0.1524                        : First reference value
STOP               .M        325.6788                      : Last reference value
STEP               .M        0.1524                        : Step increment
NULL               .         -9999                         : Missing value
COMP               .                                       : Company
WELL               .         D                             : Well name
FLD                .                                       : Field
LOC                .                                       : Location
CNTY               .                                       : County
STAT               .                                       : State
CTRY               .                                       : Country
SRVC               .                                       : Service Company
DATE               .                                       : Date
API                .                                       : API number
~Parameter Information Block
#_______________________________________________________________________________
#
#PARAMETER_NAME    .UNIT     VALUE                         : DESCRIPTION
#_______________________________________________________________________________
SET                .         Logs                          : 
TLFamily_DEPT      .         Measured Depth                : 
TLFamily_DT        .         Compressional Slowness        : 
TLFamily_GR        .         Gamma Ray                     : 
TLFamily_ILD       .         Resistivity - Deep            : 
TLFamily_NPOR_LIM  .         Thermal Neutron Porosity Limestone: 
TLFamily_PEF       .         Photoelectric Factor          : 
TLFamily_RHO       .         Bulk Density                  : 
~Curve Information
#_______________________________________________________________________________
#
#LOGNAME           .UNIT     LOG_ID                        : DESCRIPTION
#_______________________________________________________________________________
DEPT               .M                                      : Depth 
DT                 .US/M                                   : Compressional Slowness 
GR                 .GAPI                                   : MGS Gamma Ray 
ILD                .OHMM                                   : Array Ind. One Res 85 
NPOR_LIM           .V/V                                    : Lmst Neutron Por. (PEN) 
PEF                .B/E                                    : PE 
RHO                .K/M3                                   : Compensated Density 
~Ascii
# ...
93.726     503.9454   71.4413    15.8432    0.398      2.218      2089.5044 
93.8784    503.4822   74.2826    15.4774    0.4104     2.2317     2097.55   
94.0308    503.2051   73.82769999999999 15.7467    0.3999     2.2545     2110.3801 
94.1832    503.2472   72.01560000000001 15.4421    0.3784     2.2747     2117.9885 
94.3356    503.6633   69.37869999999999 14.9073    0.3862     2.2768     2120.6548 
94.488     504.3302   67.20699999999999 14.8524    0.3952     2.2626     2121.0054 
94.6404    505.0178   68.044     14.9662    0.3911     2.2465     2120.2837 
94.7928    505.4806   70.75449999999999 14.792     0.3888     2.2366     2119.9644 
94.9452    505.735    72.8043    14.5219    0.3973     2.2518     2117.6313 
95.0976    505.8704   71.8771    14.3687    0.4146     2.2545     2111.2583 
95.25      505.8844   68.23269999999999 16.1447    0.4049     2.2551     2104.7959 
95.4024    505.5221   64.95569999999999 17.8465    0.3724     2.2681     2104.0876 
95.5548    504.5431   63.2352    17.9872    0.362      2.2928     2104.7141 
95.7072    502.7347   61.8981    17.6235    0.3566     2.3223     2102.9819 
95.8596    500.6783   58.5016    17.7022    0.3523     2.3326     2099.7471 
96.012     498.9559   54.6507    17.8051    0.3572     2.3261     2100.248  
96.1644    497.5374   54.442     17.2283    0.3623     2.3147     2108.0029 
96.3168    495.8711   57.2118    16.3582    0.3619     2.32       2115.5208 
96.4692    493.8228   61.8434    16.0295    0.3652     2.3276     2120.6079 
96.6216    492.1178   63.9259    15.8796    0.3725     2.3492     2128.7405 
96.774     491.712    63.5201    15.8474    0.3796     2.4327     2142.167  
96.9264    491.9675   62.3051    15.4219    0.3834     2.5604     2157.3704 
97.0788    491.1399   61.8516    14.715     0.393      2.6643     2168.7422 
97.2312    488.4603   62.5483    14.7364    0.4077     2.6935     2166.1924 
97.3836    484.572    62.7193    15.6013    0.4021     2.6286     2154.0869 
97.536     480.9978   62.9963    16.4196    0.3857     2.5609     2149.3794 
97.6884    478.33     66.0823    15.4571    0.3764     2.5723     2163.4207 
97.8408    476.2773   70.0823    14.1759    0.3886     2.8233     2202.9988 
97.9932    474.8571   71.55159999999999 14.4701    0.4001     3.1247     2243.9771 
98.1456    474.3133   67.4238    16.8865    0.4144     3.1962     2260.6938 
98.298     475.4047   60.1855    18.7604    0.4148     3.2483     2248.1997 
98.4504    477.9489   56.1499    18.7563    0.4016     3.1889     2220.231  
98.6028    481.6659   54.0366    19.8043    0.417      3.0541     2193.7888 
98.7552    485.6006   53.0303    19.894     0.4126     2.7888     2164.8005 
98.9076    488.9539   53.548     20.001     0.3786     2.4147     2135.6104 
99.06      491.3639   53.3871    20.4539    0.3555     2.3726     2115.6135 
99.2124    492.6497   53.3047    20.5505    0.3469     2.5672     2115.7363 
99.3648    493.0959   53.7265    18.8139    0.3749     2.687      2131.74   
99.5172    492.9134   54.5304    17.8975    0.415      2.7135     2146.8711 
99.6696    492.734    58.8238    19.0133    0.3902     2.7107     2156.5715 
99.822     493.2434   64.4528    19.033     0.3789     2.6626     2157.8877 
99.9744    494.9142   70.0921    18.5751    0.4237     2.5903     2144.9995 
100.1268   497.6983   75.5301    18.3306    0.4238     2.4081     2117.0957 
100.2792   500.8495   78.82640000000001 17.9552    0.3983     2.2615     2088.6855 
100.4316   503.5355   80.7488    17.8133    0.4029     2.2511     2078.084  
100.584    505.1628   81.0064    17.6706    0.4195     2.2431     2079.1101 
100.7364   505.8097   79.3105    17.4836    0.4334     2.2388     2081.5442 
100.8888   505.7606   78.16289999999999 17.5112    0.4293     2.2475     2083.5085 
101.0412   505.3901   76.16670000000001 17.5138    0.4205     2.2556     2088.0088 
101.1936   504.8099   72.0885    17.891     0.4154     2.2271     2094.5906 
101.346    504.1248   66.1245    18.2161    0.3989     2.1699     2095.8384 
101.4984   503.3588   61.0003    18.7388    0.3673     2.1295     2091.8586 
101.6508   502.5216   58.1593    18.4389    0.349      2.1191     2088.1265 
101.8032   501.5404   56.75      17.7134    0.3653     2.1226     2086.0776 
101.9556   500.3281   54.2955    18.7713    0.3708     2.0941     2086.4209 
102.108    498.5912   52.8878    19.8328    0.3616     2.0703     2088.5168 
102.2604   496.2603   54.1772    19.8326    0.3496     2.0861     2087.2009 
102.4128   493.5112   55.2942    19.5641    0.3544     2.1158     2085.5459 
102.5652   491.0239   56.2703    19.6666    0.3606     2.15       2083.332  
102.7176   489.681    57.5219    19.7144    0.3631     2.1511     2077.6614 
102.87     490.2559   58.4116    19.2507    0.3814     2.1277     2074.4983 
103.0224   492.8866   58.6834    18.7944    0.3843     2.1138     2076.375  
103.1748   497.0393   59.468     18.348     0.379      2.144      2081.0881 
103.3272   502.1216   62.0787    17.4851    0.3986     2.2187     2087.7886 
103.4796   507.3457   65.79089999999999 16.5137    0.4336     2.2851     2093.6602 
103.632    512.4961   71.1134    16.7894    0.4294     2.3257     2101.3867 
103.7844   516.7232   76.08750000000001 16.3465    0.4083     2.3386     2108.9304 
103.9368   519.3625   79.87050000000001 16.1963    0.4156     2.363      2110.3433 
104.0892   519.7976   83.8458    16.3649    0.4338     2.3966     2107.6423 
104.2416   518.4271   83.1028    16.4498    0.4371     2.391      2104.8235 
104.394    516.0186   80.6549    16.441     0.4212     2.3692     2102.6313 
104.5464   513.5026   79.4903    16.6032    0.4116     2.37       2101.1191 
104.6988   511.5325   79.7308    16.4366    0.413      2.397      2099.886  
104.8512   510.2175   84.69      16.1754    0.432      2.4141     2096.5237 
105.0036   509.5801   88.2015    16.1434    0.452      2.3869     2093.0728 
105.156    509.2231   89.9667    16.118     0.4439     2.3319     2090.2385 
105.3084   508.9384   90.3691    16.2725    0.4303     2.2944     2090.9275 
105.4608   508.386    89.84829999999999 16.3622    0.4308     2.2866     2092.4978 
105.6132   507.3907   93.9081    16.2803    0.4218     2.3079     2093.3479 
105.7656   505.717    97.9248    16.0627    0.4        2.3294     2098.7307 
105.918    503.0431   101.2985   15.7001    0.3905     2.3256     2107.1511 
106.0704   499.2975   102.6525   15.5099    0.387      2.304      2120.1667 
106.2228   494.9485   101.4777   15.5045    0.3926     2.2852     2132.2085 
106.3752   491.0174   100.5212   15.6477    0.3932     2.2828     2142.3811 
106.5276   488.0992   99.26649999999999 15.9899    0.393      2.2834     2156.2649 
106.68     486.5938   97.32550000000001 16.3379    0.3922     2.2665     2168.6353 
106.8324   486.3313   93.68899999999999 16.5992    0.3824     2.2315     2175.5061 
106.9848   487.2823   87.176     16.9525    0.365      2.2037     2168.7207 
107.1372   489.1624   79.2867    16.5442    0.3605     2.2811     2151.3455 
107.2896   491.821    71.87649999999999 15.684     0.4002     2.6068     2134.7395 
107.442    494.927    64.9277    16.8238    0.4247     2.8394     2128.7    
107.5944   498.2633   60.6928    18.9434    0.4114     2.8204     2127.5088 
107.7468   501.1671   60.1276    18.4685    0.397      2.5585     2119.7268 
107.8992   502.7963   60.545     18.3041    0.3838     2.3232     2112.0566 
108.0516   503.2693   61.4315    18.7622    0.3833     2.3531     2104.2229 
108.204    502.8222   62.7574    19.0592    0.3805     2.3716     2095.6685 
108.3564   502.0786   64.8604    19.5245    0.3783     2.3088     2089.2112 
108.5088   500.8216   68.0119    19.6277    0.3796     2.2654     2092.6023 
108.6612   498.6946   71.89790000000001 19.5096    0.3624     2.2544     2101.6565 
108.8136   495.3714   74.4465    20.1354    0.3546     2.2323     2106.8308 
108.966    491.4503   73.78740000000001 19.6986    0.3561     2.2256     2104.8857 
109.1184   487.7205   70.76600000000001 19.573     0.3716     2.2218     2103.3623 
