~Version
 VERS              .         2.0                           : CWLS LOG ASCII STANDARD - VERSION 2.0
 WRAP              .         NO                            : ONE LINE PER DEPTH STEP
 DLM               .         SPACE                         : DELIMITING CHARACTER(SPACE TAB OR COMMA)
~Well Information
#_______________________________________________________________________________
#
#PARAMETER_NAME    .UNIT     VALUE                         : DESCRIPTION
#_______________________________________________________________________________
STRT               .M        0.1524                        : First reference value
STOP               .M        325.6788                      : Last reference value
STEP               .M        0.1524                        : Step increment
NULL               .         -9999                         : Missing value
COMP               .                                       : Company
WELL               .         D                             : Well name
FLD                .                                       : Field
LOC                .                                       : Location
CNTY               .                                       : County
STAT               .                                       : State
CTRY               .                                       : Country
SRVC               .                                       : Service Company
DATE               .                                       : Date
API                .                                       : API number
~Parameter Information Block
#_______________________________________________________________________________
#
#PARAMETER_NAME    .UNIT     VALUE                         : DESCRIPTION
#_______________________________________________________________________________
SET                .         Logs                          : 
TLFamily_DEPT      .         Measured Depth                : 
TLFamily_DT        .         Compressional Slowness        : 
TLFamily_GR        .         Gamma Ray                     : 
TLFamily_ILD       .         Resistivity - Deep            : 
TLFamily_NPOR_LIM  .         Thermal Neutron Porosity Limestone: 
TLFamily_PEF       .         Photoelectric Factor          : 
TLFamily_RHO       .         Bulk Density                  : 
~Curve Information
#_______________________________________________________________________________
#
#LOGNAME           .UNIT     LOG_ID                        : DESCRIPTION
#_______________________________________________________________________________
DEPT               .M                                      : Depth 
DT                 .US/M                                   : Compressional Slowness 
GR                 .GAPI                                   : MGS Gamma Ray 
ILD                .OHMM                                   : Array Ind. One Res 85 
NPOR_LIM           .V/V                                    : Lmst Neutron Por. (PEN) 
PEF                .B/E                                    : PE 
RHO                .K/M3                                   : Compensated Density 
~Ascii
# ...
249.174    400.6992   123.6266   9.751300000000001 0.3232     2.1454     2258.9395 
249.3264   401.0385   102.1888   8.8438     0.3427     2.0682     2252.4304 
249.4788   401.6296   85.8597    9.011900000000001 0.3433     2.0159     2228.3181 
249.6312   402.3283   83.1848    9.355399999999999 0.3094     2.0126     2208.3259 
249.7836   402.8653   86.721     10.0108    0.302      2.0503     2204.7471 
249.936    402.9338   88.387     10.8118    0.3232     2.0708     2209.9319 
250.0884   402.1839   82.7749    10.5806    0.3356     2.0431     2209.9526 
250.2408   400.9482   77.8034    10.0528    0.3321     2.0193     2206.8796 
250.3932   399.8586   77.37009999999999 10.3173    0.3203     2.0188     2211.7881 
250.5456   399.4135   79.9076    10.5719    0.3087     2.0488     2228.1936 
250.698    400.0222   83.339     10.044     0.3036     2.0875     2244.9272 
250.8504   401.5184   81.3447    9.1351     0.3107     2.0745     2243.0486 
251.0028   404.1166   74.1362    8.7349     0.3197     2.0339     2219.9163 
251.1552   407.7194   62.4387    8.035600000000001 0.301      1.98       2180.385  
251.3076   412.3294   55.3787    7.6961     0.2774     1.9476     2144.4924 
251.46     417.3032   58.9611    7.7465     0.2736     1.9648     2128.3831 
251.6124   421.8604   67.77800000000001 7.5555     0.2914     1.9953     2130.4563 
251.7648   425.2008   76.1994    7.7563     0.3222     2.0479     2144.0183 
251.9172   426.8047   79.58710000000001 6.7626     0.3474     2.065      2161.5957 
252.0696   426.9482   78.0625    6.1864     0.3728     2.0437     2172.8303 
252.222    426.1653   75.2757    7.3893     0.3473     2.0135     2179.2319 
252.3744   425.1794   73.5826    8.148199999999999 0.3151     2.0021     2184.5088 
252.5268   424.4101   73.1833    8.755100000000001 0.3246     2.036      2189.1245 
252.6792   424.0819   73.7624    9.3088     0.3303     2.0781     2193.9041 
252.8316   424.3264   73.6472    8.7921     0.3482     2.09       2191.2319 
252.984    425.0961   72.0351    6.4783     0.3876     2.0724     2181.6472 
253.1364   426.0066   70.06010000000001 7.3702     0.3837     2.0376     2168.4492 
253.2888   426.0874   66.53570000000001 7.8432     0.3477     1.9893     2150.562  
253.4412   424.8878   64.18510000000001 7.7939     0.3396     1.9577     2134.6233 
253.5936   422.1198   65.3845    8.0564     0.328      1.9428     2134.1155 
253.746    418.5106   67.7666    8.6297     0.3121     1.9682     2156.9729 
253.8984   414.8116   70.7779    8.183      0.317      2.0167     2192.0906 
254.0508   411.5342   73.0826    8.5044     0.3267     2.0513     2219.324  
254.2032   409.3062   75.6448    8.291      0.3374     2.0538     2220.2896 
254.3556   408.2505   74.5766    7.6146     0.3434     2.0136     2191.0466 
254.508    408.6965   67.4833    6.8205     0.3371     1.9781     2151.9438 
254.6604   410.1702   56.7391    6.4468     0.3208     1.9454     2119.5669 
254.8128   412.2052   50.9664    6.3308     0.3174     1.9154     2102.698  
254.9652   414.3399   57.4463    6.038      0.32       1.9008     2097.7646 
255.1176   416.5871   69.12220000000001 6.2077     0.3095     1.8876     2100.0522 
255.27     419.2089   74.22620000000001 6.232      0.3191     1.8798     2102.8179 
255.4224   422.3739   67.1139    6.1129     0.3327     1.8646     2093.8652 
255.5748   425.8541   52.6386    6.0008     0.3392     1.8429     2074.1963 
255.7272   429.3008   40.9379    6.3353     0.3622     1.8297     2056.5537 
255.8796   432.332    36.4211    6.8441     0.3722     1.827      2055.0161 
256.032    434.6694   36.8654    6.8484     0.3537     1.8375     2069.9963 
256.1844   436.0445   39.601     7.101      0.3324     1.862      2087.4756 
256.3368   436.4836   43.9122    7.613      0.3303     1.8832     2096.8643 
256.4892   436.1353   48.9114    8.9338     0.3477     1.8951     2094.8022 
256.6416   435.5139   52.4182    9.2479     0.3559     1.8868     2089.0681 
256.794    434.9981   54.2248    10.3106    0.3601     1.8757     2086.2903 
256.9464   434.6892   53.2035    11.9211    0.3586     1.873      2086.8286 
257.0988   434.3615   51.182     13.3638    0.3619     1.8716     2089.345  
257.2512   433.6379   50.2759    11.9258    0.3683     1.8831     2092.7061 
257.4036   432.1204   47.8075    13.9086    0.3753     1.8883     2094.3625 
257.556    429.9917   44.4272    23.9442    0.3688     1.879      2093.4453 
257.7084   427.3957   42.1732    35.1746    0.3444     1.8725     2089.5457 
257.8608   424.6692   42.137     50.3115    0.335      1.8673     2086.6523 
258.0132   421.972    41.8382    53.9771    0.336      1.8647     2088.4497 
258.1656   419.4236   40.3299    33.4695    0.3324     1.8849     2091.4197 
258.318    417.1035   38.6432    28.4622    0.3264     1.9093     2095.259  
258.4704   415.0059   41.4636    25.786     0.3204     1.9291     2101.9141 
258.6228   413.3217   49.609     16.7605    0.3164     1.9483     2113.5984 
258.7752   412.3232   55.6908    13.79      0.3299     1.9473     2128.3394 
258.9276   412.316    56.4088    12.6119    0.3635     1.9374     2134.876  
259.08     413.4133   51.6244    17.6381    0.3755     1.908      2127.6406 
259.2324   415.3192   48.5259    13.7158    0.352      1.8777     2113.0847 
259.3848   417.6458   51.679     10.5129    0.3436     1.8986     2103.5103 
259.5372   419.898    60.4438    10.4997    0.3669     1.9814     2115.259  
259.6896   422.093    68.9658    11.4098    0.3937     2.0631     2136.9934 
259.842    424.2874   71.48990000000001 8.574199999999999 0.4198     2.0796     2154.5569 
259.9944   426.1495   68.1285    11.7676    0.3995     2.0393     2158.5967 
260.1468   426.8401   63.1481    11.6722    0.3381     2.0029     2153.572  
260.2992   424.9253   63.9686    11.8544    0.3113     2.0165     2156.1038 
260.4516   420.8857   68.8176    9.238      0.3307     2.057      2167.9565 
260.604    415.9713   73.47539999999999 8.4114     0.3806     2.0807     2177.8613 
260.7564   412.0002   75.4479    12.0528    0.3739     2.0527     2179.7427 
260.9088   410.383    77.5299    12.7118    0.3467     2.0419     2182.8645 
261.0612   411.149    81.9156    10.7482    0.3633     2.0839     2191.5476 
261.2136   414.5066   84.9242    7.7311     0.4031     2.1258     2201.1338 
261.366    419.8973   85.43259999999999 8.333299999999999 0.4233     2.1236     2203.0398 
261.5184   426.3548   84.7624    9.643599999999999 0.4083     2.1077     2199.7854 
261.6708   432.6129   82.3493    8.1662     0.4122     2.0987     2190.5007 
261.8232   438.0163   76.64960000000001 6.2914     0.4421     2.07       2164.5273 
261.9756   442.2213   66.52370000000001 8.093299999999999 0.4282     2.0027     2123.7024 
262.128    444.9539   55.2711    7.4837     0.3832     1.9267     2086.4189 
262.2804   445.2292   48.4563    7.8948     0.3603     1.8909     2066.4268 
262.4328   442.8839   45.06      14.1769    0.34       1.8862     2064.2922 
262.5852   438.6733   43.9305    25.2417    0.3268     1.8848     2070.7163 
262.7376   434.0542   45.8124    23.004     0.3181     1.8971     2083.3623 
262.89     430.4246   50.0527    12.0313    0.3169     1.9337     2106.2039 
263.0424   427.9726   55.939     10.0364    0.3379     1.9876     2130.5591 
263.1948   426.9467   60.3477    10.5258    0.3616     2.0263     2143.3081 
263.3472   426.7783   61.7627    12.1806    0.3662     2.0248     2141.0413 
263.4996   426.8615   62.7472    11.9098    0.3498     2.0207     2141.676  
263.652    426.2195   65.90989999999999 10.3553    0.3598     2.0315     2159.7737 
263.8044   424.0375   68.2676    10.8875    0.3789     2.0517     2182.6528 
263.9568   420.9423   67.5535    13.9304    0.3908     2.0357     2191.5103 
264.1092   418.1068   66.8516    20.0435    0.3874     2.0073     2184.366  
264.2616   416.7871   67.4502    18.8338    0.3678     2.002      2178.8994 
264.414    418.4253   69.7079    16.5429    0.3835     2.0158     2182.46   
264.5664   423.9055   69.62439999999999 17.0023    0.4073     2.0481     2189.9812 
