~Version
 VERS              .         2.0                           : CWLS LOG ASCII STANDARD - VERSION 2.0
 WRAP              .         NO                            : ONE LINE PER DEPTH STEP
 DLM               .         SPACE                         : DELIMITING CHARACTER(SPACE TAB OR COMMA)
~Well Information
#_______________________________________________________________________________
#
#PARAMETER_NAME    .UNIT     VALUE                         : DESCRIPTION
#_______________________________________________________________________________
STRT               .M        0.1524                        : First reference value
STOP               .M        325.6788                      : Last reference value
STEP               .M        0.1524                        : Step increment
NULL               .         -9999                         : Missing value
COMP               .                                       : Company
WELL               .         D                             : Well name
FLD                .                                       : Field
LOC                .                                       : Location
CNTY               .                                       : County
STAT               .                                       : State
CTRY               .                                       : Country
SRVC               .                                       : Service Company
DATE               .                                       : Date
API                .                                       : API number
~Parameter Information Block
#_______________________________________________________________________________
#
#PARAMETER_NAME    .UNIT     VALUE                         : DESCRIPTION
#_______________________________________________________________________________
SET                .         Logs                          : 
TLFamily_DEPT      .         Measured Depth                : 
TLFamily_DT        .         Compressional Slowness        : 
TLFamily_GR        .         Gamma Ray                     : 
TLFamily_ILD       .         Resistivity - Deep            : 
TLFamily_NPOR_LIM  .         Thermal Neutron Porosity Limestone: 
TLFamily_PEF       .         Photoelectric Factor          : 
TLFamily_RHO       .         Bulk Density                  : 
~Curve Information
#_______________________________________________________________________________
#
#LOGNAME           .UNIT     LOG_ID                        : DESCRIPTION
#_______________________________________________________________________________
DEPT               .M                                      : Depth 
DT                 .US/M                                   : Compressional Slowness 
GR                 .GAPI                                   : MGS Gamma Ray 
ILD                .OHMM                                   : Array Ind. One Res 85 
NPOR_LIM           .V/V                                    : Lmst Neutron Por. (PEN) 
PEF                .B/E                                    : PE 
RHO                .K/M3                                   : Compensated Density 
~Ascii
# ...
218.3892   398.8605   92.5157    6.4384     0.4935     2.8298     2180.5388 
218.5416   427.1766   97.9118    6.1777     0.4935     2.8232     2190.9961 
218.694    449.8264   101.3281   6.1059     0.4875     2.8113     2194.9185 
218.8464   465.4142   101.6837   6.1857     0.4901     2.7992     2201.5747 
218.9988   470.9201   99.7667    6.2332     0.4886     2.798      2202.3635 
219.1512   470.2833   96.1036    6.5073     0.5017     2.7808     2199.5991 
219.3036   467.023    93.1512    6.5853     0.5135     2.7485     2198.4854 
219.456    463.6787   91.6033    6.5753     0.489      2.6973     2196.5051 
219.6084   462.4408   91.029     7.0325     0.4435     2.6575     2181.062  
219.7608   463.8456   89.9218    8.211499999999999 0.4135     2.6488     2155.6367 
219.9132   467.8067   88.7653    8.5989     0.4157     2.601      2134.8433 
220.0656   473.0608   85.5643    7.9247     0.4401     2.4785     2108.3254 
220.218    478.8361   84.1341    7.5496     0.4444     2.372      2086.5115 
220.3704   484.0529   86.06019999999999 7.5151     0.4293     2.3816     2085.241  
220.5228   487.5369   90.4601    7.8039     0.4146     2.5035     2116.6824 
220.6752   487.8546   94.9637    7.9165     0.4127     2.6095     2167.7764 
220.8276   484.1367   97.5072    7.6132     0.4171     2.6151     2199.0479 
220.98     477.545    98.8364    7.2032     0.4177     2.5789     2199.6521 
221.1324   470.7622   99.2697    6.5112     0.4152     2.5638     2194.0227 
221.2848   467.3588   99.1874    5.9439     0.4196     2.5723     2199.7559 
221.4372   468.375    97.18470000000001 4.7502     0.4463     2.5879     2201.8149 
221.5896   473.6674   94.0217    3.7491     0.4696     2.6022     2193.1572 
221.742    481.6102   90.7422    3.2891     0.4952     2.6333     2160.9336 
221.8944   490.8679   88.874     2.5071     0.5593     2.67       2128.2712 
222.0468   499.7387   87.85590000000001 2.3247     0.5959     2.6907     2116.0479 
222.1992   506.1727   86.80249999999999 2.298      0.5985     2.6836     2110.7183 
222.3516   509.7186   84.3142    2.2698     0.613      2.6741     2101.8938 
222.504    510.1936   82.31359999999999 2.246      0.6123     2.658      2085.2649 
222.6564   509.2291   81.61879999999999 2.3029     0.6068     2.6111     2080.406  
222.8088   507.463    81.3419    2.5419     0.5978     2.5799     2085.9556 
222.9612   505.2877   82.5904    2.5945     0.5763     2.5887     2085.8303 
223.1136   502.6435   83.1392    2.593      0.5544     2.5711     2048.9221 
223.266    499.9489   81.04989999999999 2.8453     0.5264     2.4766     2000.1245 
223.4184   498.1034   78.15219999999999 3.6831     0.4979     2.4265     1973.0558 
223.5708   497.8277   76.1067    4.3028     0.4809     2.4637     2001.2015 
223.7232   499.1713   75.63200000000001 4.6727     0.4841     2.5414     2068.5352 
223.8756   501.3517   77.3873    4.0143     0.4999     2.5423     2108.4473 
224.028    503.4115   79.69710000000001 3.8943     0.4996     2.5107     2122.8137 
224.1804   504.0877   82.3699    3.8766     0.4788     2.5348     2111.5596 
224.3328   502.4262   84.5192    4.2971     0.4534     2.593      2105.2095 
224.4852   496.9124   86.06010000000001 4.7302     0.4447     2.6043     2129.9319 
224.6376   488.6601   86.1183    5.1435     0.4417     2.5559     2157.4907 
224.79     479.5811   86.0831    5.8635     0.415      2.5154     2178.6565 
224.9424   471.4153   86.3004    6.2024     0.3887     2.4859     2188.5295 
225.0948   465.3268   86.1601    6.0826     0.3791     2.4978     2188.4089 
225.2472   460.8048   86.502     5.9432     0.3692     2.5191     2195.2275 
225.3996   458.0705   85.5711    5.8996     0.3608     2.567      2203.1404 
225.552    456.7449   85.8694    5.7066     0.356      2.6258     2202.0022 
225.7044   456.7638   86.804     5.991      0.3481     2.6561     2197.2104 
225.8568   457.4895   87.95480000000001 6.0738     0.3717     2.6932     2191.8772 
226.0092   458.9288   91.292     4.9842     0.439      2.7752     2178.6951 
226.1616   461.1761   93.6143    4.2265     0.4969     2.7914     2163.8975 
226.314    464.5808   94.33240000000001 3.5668     0.5569     2.7413     2151.6116 
226.4664   468.9362   94.7617    3.692      0.556      2.6606     2137.8071 
226.6188   473.7657   94.3841    3.5922     0.509      2.6179     2148.0588 
226.7712   478.2187   94.0245    3.3972     0.5125     2.6729     2167.374  
226.9236   481.6421   93.0731    3.34       0.5276     2.6896     2189.7173 
227.076    483.9452   91.35429999999999 3.2888     0.5349     2.6663     2200.0645 
227.2284   485.5825   90.85590000000001 3.2828     0.5493     2.6436     2192.9473 
227.3808   487.2349   91.2752    3.2627     0.5586     2.6474     2182.4268 
227.5332   488.9866   92.295     3.1667     0.5518999999999999 2.6663     2174.4539 
227.6856   490.084    94.1964    3.1759     0.5494     2.6896     2171.8696 
227.838    489.965    96.0343    3.2601     0.5467     2.704      2171.5579 
227.9904   488.3939   98.5637    3.3499     0.5326     2.7037     2172.0664 
228.1428   486.3065   99.235     3.2651     0.5191     2.714      2163.6648 
228.2952   484.691    98.6892    3.2589     0.5159     2.7095     2159.4299 
228.4476   483.8972   95.7079    3.2517     0.5167     2.6851     2164.3323 
228.6      484.093    90.2645    3.4785     0.5123     2.6495     2172.761  
228.7524   485.1208   87.2236    3.9248     0.4978     2.5995     2182.5969 
228.9048   487.2314   87.4327    3.9853     0.4724     2.5716     2183.134  
229.0572   489.9578   90.9802    3.5701     0.4438     2.5734     2181.4077 
229.2096   492.6048   94.05329999999999 3.5952     0.4466     2.6199     2175.6045 
229.362    494.3218   96.1794    3.4091     0.4875     2.692      2167.4421 
229.5144   494.7055   97.26649999999999 3.1225     0.5352     2.7353     2162.4534 
229.6668   494.0792   97.6421    3.1211     0.5499000000000001 2.7225     2158.823  
229.8192   492.6496   97.62569999999999 3.2711     0.5325     2.6861     2168.9197 
229.9716   490.6021   97.20099999999999 3.7212     0.494      2.6707     2184.6921 
230.124    488.042    96.6698    3.8092     0.4634     2.6813     2197.6196 
230.2764   485.3496   95.20480000000001 3.6348     0.483      2.702      2200.5342 
230.4288   482.6141   94.099     3.4927     0.509      2.7063     2194.5276 
230.5812   479.5607   94.26090000000001 3.5275     0.508      2.7008     2193.1685 
230.7336   475.99     95.83      3.6693     0.4983     2.6856     2190.5095 
230.886    472.4209   97.705     3.9347     0.4915     2.6738     2182.9243 
231.0384   469.478    97.53440000000001 4.311      0.4758     2.6672     2176.3403 
231.1908   467.7369   95.5985    4.7009     0.4595     2.6558     2179.7415 
231.3432   466.7794   91.9102    5.1066     0.4669     2.6264     2188.4241 
231.4956   466.6244   88.7692    5.3637     0.4829     2.5683     2194.9985 
231.648    467.3927   89.23220000000001 5.5288     0.4337     2.5539     2186.4954 
231.8004   469.4845   91.41679999999999 5.881      0.3778     2.5838     2179.7793 
231.9528   472.0952   93.64830000000001 5.5254     0.4154     2.6517     2190.6343 
232.1052   468.8091   93.6833    5.1577     0.45       2.7039     2200.2205 
232.2576   458.6301   90.8781    4.8222     0.4667     2.7061     2208.2278 
232.41     440.4045   86.45910000000001 5.0513     0.4669     2.8644     2238.4805 
232.5624   419.0164   79.26690000000001 5.8574     0.3967     3.549      2322.8555 
232.7148   397.4944   72.6384    9.0501     0.3016     4.1781     2434.8892 
232.8672   376.3672   69.3214    14.0485    0.2756     4.1845     2486.6687 
233.0196   368.1069   69.72150000000001 10.0121    0.3056     3.5739     2428.689  
233.172    386.093    71.37690000000001 8.9032     0.3143     2.7571     2299.8083 
233.3244   419.0714   71.49209999999999 9.688800000000001 0.3076     2.45       2178.3943 
233.4768   454.6176   70.62260000000001 9.9503     0.3074     2.447      2122.0764 
233.6292   472.6209   69.3981    9.605399999999999 0.309      2.4454     2113.4619 
