~Version
 VERS              .         2.0                           : CWLS LOG ASCII STANDARD - VERSION 2.0
 WRAP              .         NO                            : ONE LINE PER DEPTH STEP
 DLM               .         SPACE                         : DELIMITING CHARACTER(SPACE TAB OR COMMA)
~Well Information
#_______________________________________________________________________________
#
#PARAMETER_NAME    .UNIT     VALUE                         : DESCRIPTION
#_______________________________________________________________________________
STRT               .M        0.1524                        : First reference value
STOP               .M        325.6788                      : Last reference value
STEP               .M        0.1524                        : Step increment
NULL               .         -9999                         : Missing value
COMP               .                                       : Company
WELL               .         D                             : Well name
FLD                .                                       : Field
LOC                .                                       : Location
CNTY               .                                       : County
STAT               .                                       : State
CTRY               .                                       : Country
SRVC               .                                       : Service Company
DATE               .                                       : Date
API                .                                       : API number
~Parameter Information Block
#_______________________________________________________________________________
#
#PARAMETER_NAME    .UNIT     VALUE                         : DESCRIPTION
#_______________________________________________________________________________
SET                .         Logs                          : 
TLFamily_DEPT      .         Measured Depth                : 
TLFamily_DT        .         Compressional Slowness        : 
TLFamily_GR        .         Gamma Ray                     : 
TLFamily_ILD       .         Resistivity - Deep            : 
TLFamily_NPOR_LIM  .         Thermal Neutron Porosity Limestone: 
TLFamily_PEF       .         Photoelectric Factor          : 
TLFamily_RHO       .         Bulk Density                  : 
~Curve Information
#_______________________________________________________________________________
#
#LOGNAME           .UNIT     LOG_ID                        : DESCRIPTION
#_______________________________________________________________________________
DEPT               .M                                      : Depth 
DT                 .US/M                                   : Compressional Slowness 
GR                 .GAPI                                   : MGS Gamma Ray 
ILD                .OHMM                                   : Array Ind. One Res 85 
NPOR_LIM           .V/V                                    : Lmst Neutron Por. (PEN) 
PEF                .B/E                                    : PE 
RHO                .K/M3                                   : Compensated Density 
~Ascii
# ...
202.9968   432.8742   97.77249999999999 12.9193    0.3133     3.453      2314.8188 
203.1492   430.438    96.9329    14.9423    0.3217     3.5475     2334.9023 
203.3016   430.2932   97.05110000000001 11.8936    0.3687     3.3297     2307.0066 
203.454    432.0771   97.0902    9.920299999999999 0.422      2.9467     2244.9424 
203.6064   436.3994   97.18340000000001 8.597300000000001 0.458      2.8075     2192.7327 
203.7588   443.1606   95.5814    8.630599999999999 0.4743     2.8634     2178.2795 
203.9112   451.9833   94.3395    8.391400000000001 0.4846     2.8973     2183.3337 
204.0636   460.6111   94.5539    7.9191     0.482      2.9066     2189.7813 
204.216    467.0708   95.8964    7.4801     0.4776     2.9177     2192.5554 
204.3684   470.9185   97.7578    7.277      0.4765     2.9251     2191.8164 
204.5208   473.0174   97.71169999999999 7.0796     0.4898     2.9434     2192.0566 
204.6732   474.6639   96.8404    7.2507     0.4815     2.9463     2193.4185 
204.8256   476.1118   98.49809999999999 7.669      0.4469     2.9374     2200.853  
204.978    476.7514   101.9246   6.8108     0.4494     2.9276     2211.6355 
205.1304   475.8911   104.3831   6.1692     0.4618     2.9137     2221.1228 
205.2828   473.293    106.0233   6.3333     0.462      2.8853     2228.9482 
205.4352   469.7353   106.8739   6.7353     0.4585     2.8328     2232.9939 
205.5876   466.3398   106.4826   7.8851     0.4143     2.7669     2234.7395 
205.74     463.7851   103.3398   7.8859     0.3872     2.7196     2227.7637 
205.8924   462.1585   98.8818    7.5461     0.3887     2.7057     2216.7441 
206.0448   461.0308   98.71850000000001 7.4862     0.3948     2.6971     2209.5713 
206.1972   460.2999   100.8549   7.7201     0.3917     2.6818     2205.9202 
206.3496   460.042    100.8687   7.9978     0.3836     2.6489     2203.7495 
206.502    460.4122   98.70399999999999 8.428900000000001 0.3815     2.6222     2195.6816 
206.6544   460.9644   95.0073    8.6418     0.3733     2.6108     2182.6135 
206.8068   461.642    93.0517    8.565099999999999 0.3647     2.6007     2170.8496 
206.9592   462.4312   92.2731    8.958      0.3518     2.6259     2166.9846 
207.1116   463.3154   92.7561    8.1708     0.3599     2.6983     2173.415  
207.264    464.2967   95.5766    6.0372     0.4329     2.788      2182.7258 
207.4164   465.1988   98.66200000000001 4.8098     0.5127     2.8419     2188.009  
207.5688   466.5694   100.9113   4.9974     0.5373     2.8499     2194.1643 
207.7212   468.7619   100.8581   4.5156     0.5331     2.8441     2200.8323 
207.8736   471.5087   102.3016   4.1896     0.5349     2.8341     2209.7847 
208.026    474.4146   104.8785   3.8917     0.5439000000000001 2.835      2205.5745 
208.1784   476.8625   105.0905   3.816      0.5391     2.8083     2190.6526 
208.3308   478.9842   103.914    4.0508     0.5524     2.7814     2182.7493 
208.4832   481.4218   101.6897   4.4869     0.5405     2.8292     2174.9395 
208.6356   484.3448   102.7726   4.6483     0.4757     2.9087     2183.2256 
208.788    487.8946   103.2279   4.6061     0.4442     2.9969     2191.7566 
208.9404   491.882    100.5949   4.365      0.4519     3.0289     2197.5847 
209.0928   496.2648   99.36709999999999 4.0704     0.4794     2.9938     2201.1436 
209.2452   501.0364   100.6013   3.772      0.5222     2.9283     2189.0154 
209.3976   505.7121   101.9542   3.7844     0.547      2.8134     2180.3931 
209.55     509.3685   99.1815    4.5865     0.5054999999999999 2.6787     2167.6028 
209.7024   510.4454   94.20820000000001 6.2295     0.3995     2.5764     2147.9409 
209.8548   508.7628   89.0455    7.1038     0.3402     2.5556     2121.6404 
210.0072   503.029    86.8592    7.1797     0.3468     2.581      2104.6699 
210.1596   494.0579   87.41970000000001 7.4406     0.3559     2.6107     2112.8489 
210.312    482.4908   88.7667    7.5396     0.3632     2.6317     2131.845  
210.4644   471.2499   88.9179    7.3665     0.3746     2.62       2147.4421 
210.6168   463.8299   86.69070000000001 7.0482     0.3729     2.5945     2145.7507 
210.7692   461.8731   85.0462    6.2011     0.3979     2.5792     2138.5583 
210.9216   465.5405   86.9194    4.5006     0.4785     2.6072     2126.7014 
211.074    472.1342   91.57129999999999 3.1668     0.5586     2.6444     2122.345  
211.2264   479.2138   95.75700000000001 2.9072     0.6002999999999999 2.6896     2118.2163 
211.3788   485.2133   97.3167    2.8959     0.6095     2.7316     2115.4045 
211.5312   489.6818   96.7739    2.9486     0.6133999999999999 2.7284     2125.9138 
211.6836   492.3131   95.4761    3.1143     0.6038     2.7448     2132.3979 
211.836    493.2687   93.4288    3.4439     0.553      2.7692     2136.4646 
211.9884   492.9934   90.74550000000001 4.0272     0.5037     2.7561     2147.4661 
212.1408   492.4198   88.96599999999999 5.0718     0.4758     2.7269     2151.6123 
212.2932   489.4483   88.8122    5.6388     0.423      2.6865     2144.4431 
212.4456   481.2098   91.1131    6.1199     0.3803     2.7076     2134.5801 
212.598    466.2127   93.2332    5.9434     0.3911     2.7882     2135.2937 
212.7504   446.7052   89.9235    5.6536     0.4275     3.029      2180.4304 
212.9028   426.3644   81.6134    7.1979     0.4053     3.6132     2264.1001 
213.0552   409.8022   70.06570000000001 14.0641    0.2914     4.3739     2385.6772 
213.2076   403.6624   61.3344    28.7046    0.1829     4.794      2474.7053 
213.36     406.8246   60.2326    40.9056    0.1675     4.4458     2443.7642 
213.5124   418.5517   65.8437    22.6066    0.2498     3.6702     2305.4912 
213.6648   433.6454   71.99290000000001 17.0216    0.32       3.0151     2138.1021 
213.8172   454.2328   75.2593    16.3465    0.3282     2.7126     2031.968  
213.9696   475.2844   74.83150000000001 16.3431    0.3311     2.6548     1997.894  
214.122    493.0155   73.8693    16.1647    0.3474     2.6071     1996.668  
214.2744   497.25     75.34699999999999 15.501     0.3711     2.5711     2006.9188 
214.4268   492.1731   76.2465    14.5537    0.3801     2.7277     2041.5708 
214.5792   479.6561   74.1264    13.266     0.3793     3.3829     2126.0815 
214.7316   466.2243   68.3779    13.285     0.372      4.2137     2266.3647 
214.884    452.792    63.0287    16.113     0.3416     4.7107     2419.2412 
215.0364   439.3595   60.4179    19.7494    0.2716     4.6124     2525.9214 
215.1888   425.7308   60.167     26.6481    0.1973     4.3209     2573.5229 
215.3412   411.4711   61.3386    28.3224    0.1902     4.4215     2562.7056 
215.4936   400.2122   63.0745    18.8635    0.2709     4.4191     2506.3374 
215.646    405.2958   66.1647    12.4505    0.3818     4.0004     2395.9958 
215.7984   426.1232   69.755     10.6206    0.4275     3.2851     2266.2529 
215.9508   455.2027   71.26560000000001 10.2199    0.4314     2.7179     2163.8076 
216.1032   477.4252   71.7394    10.3417    0.4332     2.5508     2104.5461 
216.2556   490.3071   71.6811    10.5429    0.4196     2.5258     2087.2129 
216.408    495.8051   71.6036    10.3296    0.4084     2.5468     2085.4036 
216.5604   494.9419   71.60939999999999 9.9621     0.407      2.5967     2091.9783 
216.7128   487.4052   70.6469    9.7689     0.4072     2.6213     2098.7515 
216.8652   478.6888   70.8686    9.773400000000001 0.407      2.6147     2098.2434 
217.0176   469.9354   71.82980000000001 9.806699999999999 0.4145     2.5901     2092.2729 
217.17     459.6325   73.13590000000001 10.0343    0.4174     2.5665     2089.554  
217.3224   446.9819   73.2758    10.4053    0.4057     2.5849     2092.061  
217.4748   430.7145   72.0243    10.1917    0.3999     2.6164     2096.1194 
217.6272   413.392    71.25620000000001 9.8757     0.4082     2.6185     2095.1277 
217.7796   396.0689   73.0869    10.9175    0.4        2.5999     2087.6047 
217.932    378.8832   77.13249999999999 10.8494    0.3824     2.6158     2092.4453 
218.0844   371.9015   82.11069999999999 8.748699999999999 0.4104     2.6927     2119.3628 
218.2368   378.1458   88.012     7.005      0.4595     2.7874     2154.0383 
