~Version
 VERS              .         2.0                           : CWLS LOG ASCII STANDARD - VERSION 2.0
 WRAP              .         NO                            : ONE LINE PER DEPTH STEP
 DLM               .         SPACE                         : DELIMITING CHARACTER(SPACE TAB OR COMMA)
~Well Information
#_______________________________________________________________________________
#
#PARAMETER_NAME    .UNIT     VALUE                         : DESCRIPTION
#_______________________________________________________________________________
STRT               .M        0.1524                        : First reference value
STOP               .M        325.6788                      : Last reference value
STEP               .M        0.1524                        : Step increment
NULL               .         -9999                         : Missing value
COMP               .                                       : Company
WELL               .         D                             : Well name
FLD                .                                       : Field
LOC                .                                       : Location
CNTY               .                                       : County
STAT               .                                       : State
CTRY               .                                       : Country
SRVC               .                                       : Service Company
DATE               .                                       : Date
API                .                                       : API number
~Parameter Information Block
#_______________________________________________________________________________
#
#PARAMETER_NAME    .UNIT     VALUE                         : DESCRIPTION
#_______________________________________________________________________________
SET                .         Logs                          : 
TLFamily_DEPT      .         Measured Depth                : 
TLFamily_DT        .         Compressional Slowness        : 
TLFamily_GR        .         Gamma Ray                     : 
TLFamily_ILD       .         Resistivity - Deep            : 
TLFamily_NPOR_LIM  .         Thermal Neutron Porosity Limestone: 
TLFamily_PEF       .         Photoelectric Factor          : 
TLFamily_RHO       .         Bulk Density                  : 
~Curve Information
#_______________________________________________________________________________
#
#LOGNAME           .UNIT     LOG_ID                        : DESCRIPTION
#_______________________________________________________________________________
DEPT               .M                                      : Depth 
DT                 .US/M                                   : Compressional Slowness 
GR                 .GAPI                                   : MGS Gamma Ray 
ILD                .OHMM                                   : Array Ind. One Res 85 
NPOR_LIM           .V/V                                    : Lmst Neutron Por. (PEN) 
PEF                .B/E                                    : PE 
RHO                .K/M3                                   : Compensated Density 
~Ascii
# ...
78.7908    472.5291   24.5461    26.1043    0.2842     1.8497     2121.491  
78.9432    470.9795   25.7552    25.4332    0.2764     1.8444     2121.0208 
79.0956    469.8875   28.8869    24.6042    0.2774     1.8648     2119.687  
79.248     469.4969   31.6234    23.3054    0.2899     1.8893     2115.3225 
79.4004    470.0809   32.4254    22.3764    0.2945     1.9038     2109.6316 
79.5528    471.271    34.3773    20.9875    0.2942     1.9002     2106.3357 
79.7052    472.8821   42.0758    19.4864    0.3012     1.9973     2104.4109 
79.85760000000001 474.6352   57.4996    17.3429    0.3293     2.1932     2109.7175 
80.01000000000001 476.7273   76.8428    14.9193    0.3682     2.3391     2132.864  
80.16240000000001 479.3736   94.06999999999999 13.8491    0.3817     2.3885     2160.6038 
80.31480000000001 482.5708   105.1237   13.7294    0.3873     2.3416     2187.6345 
80.46720000000001 485.6438   112.1075   13.0472    0.4094     2.3328     2194.8057 
80.61960000000001 487.899    115.564    11.9699    0.4306     2.3989     2202.4668 
80.77200000000001 489.2239   117.6225   10.0172    0.4386     2.4803     2227.0652 
80.92440000000001 489.5919   117.553    9.476000000000001 0.4377     2.5128     2228.2559 
81.07680000000001 488.7037   112.7689   9.8085     0.4303     2.441      2177.0632 
81.22920000000001 486.0498   108.0538   10.1087    0.4151     2.3734     2113.2493 
81.38160000000001 481.5815   101.4393   10.7702    0.3928     2.5054     2083.0837 
81.53400000000001 476.2683   95.2594    12.5659    0.3673     2.6915     2122.2942 
81.68640000000001 471.1489   92.7491    12.62      0.3472     2.7725     2191.9241 
81.83880000000001 466.7143   94.23820000000001 11.9063    0.3447     2.6561     2218.2444 
81.99120000000001 463.6403   98.82340000000001 12.451     0.359      2.4442     2235.3953 
82.14360000000001 462.257    99.3322    12.0388    0.3822     2.3559     2229.0205 
82.29600000000001 463.5435   94.48099999999999 11.7226    0.4164     2.2927     2191.4766 
82.44840000000001 466.8882   83.773     12.3279    0.4619     2.2166     2137.2334 
82.60080000000001 471.5567   72.4487    15.1781    0.5155999999999999 2.1461     2090.5464 
82.75320000000001 476.3708   67.72329999999999 14.9129    0.5106000000000001 2.1312     2087.6426 
82.90560000000001 480.9977   67.4469    16.7306    0.4257     2.1678     2118.1165 
83.05800000000001 485.697    69.6041    17.8089    0.3818     2.2707     2134.9382 
83.21040000000001 490.2935   70.4923    18.3852    0.3976     2.3951     2131.8425 
83.36279999999999 493.7295   65.8471    20.1825    0.4096     2.4023     2116.2192 
83.51519999999999 494.5152   57.8374    20.2578    0.408      2.3228     2082.5276 
83.66759999999999 492.7116   50.5168    18.959     0.3839     2.1935     2055.8196 
83.81999999999999 489.2612   46.7819    18.8573    0.3638     2.0976     2045.9056 
83.97239999999999 485.8718   47.5283    19.4661    0.3587     2.0921     2050.1799 
84.12479999999999 483.2238   50.3174    20.0322    0.3627     2.1684     2063.6755 
84.27719999999999 481.4014   53.3107    20.7936    0.3699     2.4491     2100.7866 
84.42959999999999 480.3354   55.2665    22.5468    0.3685     2.7518     2151.282  
84.58199999999999 480.5507   56.6211    24.3453    0.3845     2.8117     2181.6411 
84.73439999999999 482.7629   58.24      21.1782    0.4048     2.6292     2163.1372 
84.88679999999999 487.4639   60.4016    20.8435    0.3912     2.3737     2109.3953 
85.03919999999999 493.7132   64.59520000000001 21.3852    0.3969     2.302      2072.4292 
85.19159999999999 499.6622   68.48399999999999 21.6853    0.4378     2.3228     2064.425  
85.34399999999999 503.683    69.6365    20.451     0.4402     2.2717     2071.7188 
85.49639999999999 504.4009   70.56189999999999 19.4498    0.4242     2.2056     2080.6592 
85.64879999999999 502.4128   71.56399999999999 18.7913    0.4068     2.1834     2085.166  
85.80119999999999 497.9212   75.52760000000001 18.5984    0.3878     2.1833     2091.1802 
85.95359999999999 492.1778   81.7949    18.2762    0.3894     2.1795     2097.5991 
86.10599999999999 486.1736   86.2966    17.6417    0.4022     2.1867     2103.5908 
86.25839999999999 480.7708   87.59099999999999 16.9583    0.4014     2.2344     2116.5437 
86.41079999999999 476.4433   88.6264    16.5858    0.39       2.2908     2135.1675 
86.56319999999999 473.2723   91.0421    16.0923    0.3871     2.3704     2145.1035 
86.71559999999999 471.5725   93.5466    15.3747    0.3988     2.4181     2156.5984 
86.86799999999999 472.0251   93.3982    14.4558    0.4456     2.3912     2171.0132 
87.0204    475.0344   92.1645    13.5201    0.4682     2.3716     2165.1497 
87.1728    479.9466   91.38249999999999 14.4634    0.4222     2.3668     2147.5044 
87.3252    485.9557   92.06180000000001 14.5168    0.4463     2.3478     2131.0879 
87.4776    491.8689   94.6879    13.6492    0.5168     2.3096     2120.3418 
87.63      497.3856   98.60420000000001 14.5209    0.4769     2.2625     2111.2375 
87.7824    501.9734   101.942    15.9403    0.4184     2.264      2096.1477 
87.9348    505.0861   101.1266   16.2297    0.4217     2.2886     2084.8164 
88.0872    506.375    95.18259999999999 16.6193    0.4353     2.2762     2089.0767 
88.2396    506.3808   88.67149999999999 16.7158    0.444      2.2741     2092.7002 
88.392     505.8311   88.33710000000001 17.1636    0.4467     2.3104     2091.8477 
88.5444    505.3137   92.30670000000001 17.4932    0.4377     2.3475     2091.5767 
88.6968    504.8544   96.5001    17.514     0.4361     2.3471     2088.6052 
88.8492    504.3892   96.223     17.2133    0.4205     2.3042     2087.7913 
89.0016    503.9281   93.9867    16.7053    0.4074     2.2592     2089.2717 
89.154     503.5074   91.80719999999999 16.0784    0.423      2.2179     2091.6099 
89.3064    503.0348   88.71769999999999 16.1303    0.4244     2.181      2090.4265 
89.4588    502.3732   84.31189999999999 17.0255    0.392      2.1461     2084.2795 
89.6112    501.4183   79.2068    16.9584    0.3573     2.1527     2076.2627 
89.7636    500.187    77.4325    16.6249    0.3821     2.1484     2049.9905 
89.916     498.6774   77.0869    15.9444    0.4983     2.0973     2008.3444 
90.0684    497.1124   72.342     15.0897    0.6087     2.064      1983.3118 
90.2208    495.8198   65.12949999999999 16.5138    0.5148     2.0555     2002.118  
90.3732    495.2038   58.6819    17.7417    0.372      2.0812     2048.7444 
90.5256    495.3822   55.1228    17.9582    0.3638     2.0905     2086.7422 
90.678     496.1906   53.305     18.4494    0.3883     2.0702     2098.0908 
90.8304    497.4147   51.8091    18.8444    0.3958     2.0532     2098.2112 
90.9828    498.8161   51.5192    19.5187    0.382      2.0472     2102.0557 
91.1352    500.2541   50.4401    19.8979    0.3799     2.0413     2101.7043 
91.2876    501.6338   49.1762    20.2261    0.3907     2.0349     2097.7805 
91.44      502.9339   46.7613    20.431     0.3853     2.0398     2091.1724 
91.5924    504.0677   46.7598    21.1465    0.3648     2.0518     2087.384  
91.7448    504.9304   50.8902    21.6311    0.347      2.0653     2089.6653 
91.8972    505.4178   54.2195    21.231     0.3545     2.0582     2087.9089 
92.0496    505.728    55.2258    20.6014    0.3811     2.0256     2083.2056 
92.202     506.0692   55.2967    21.1244    0.3761     1.9959     2079.198  
92.3544    506.531    56.585     20.8663    0.3465     1.9934     2076.4333 
92.5068    507.0686   61.9181    20.2241    0.3368     2.0211     2072.865  
92.6592    507.5393   68.24939999999999 19.1113    0.3527     2.0604     2066.3896 
92.8116    507.7852   70.78279999999999 18.3165    0.3792     2.0873     2064.3921 
92.964     507.7156   68.5142    17.9155    0.3791     2.0957     2073.1167 
93.1164    507.2451   64.563     17.45      0.3613     2.119      2087.1206 
93.2688    506.4352   62.1513    16.9502    0.3609     2.1627     2096.9377 
93.4212    505.4767   63.0862    16.3866    0.3705     2.208      2094.6672 
93.5736    504.6233   67.21250000000001 16.1175    0.3855     2.2234     2089.2056 
