~Version
 VERS              .         2.0                           : CWLS LOG ASCII STANDARD - VERSION 2.0
 WRAP              .         NO                            : ONE LINE PER DEPTH STEP
 DLM               .         SPACE                         : DELIMITING CHARACTER(SPACE TAB OR COMMA)
~Well Information
#_______________________________________________________________________________
#
#PARAMETER_NAME    .UNIT     VALUE                         : DESCRIPTION
#_______________________________________________________________________________
STRT               .M        0.1524                        : First reference value
STOP               .M        325.6788                      : Last reference value
STEP               .M        0.1524                        : Step increment
NULL               .         -9999                         : Missing value
COMP               .                                       : Company
WELL               .         D                             : Well name
FLD                .                                       : Field
LOC                .                                       : Location
CNTY               .                                       : County
STAT               .                                       : State
CTRY               .                                       : Country
SRVC               .                                       : Service Company
DATE               .                                       : Date
API                .                                       : API number
~Parameter Information Block
#_______________________________________________________________________________
#
#PARAMETER_NAME    .UNIT     VALUE                         : DESCRIPTION
#_______________________________________________________________________________
SET                .         Logs                          : 
TLFamily_DEPT      .         Measured Depth                : 
TLFamily_DT        .         Compressional Slowness        : 
TLFamily_GR        .         Gamma Ray                     : 
TLFamily_ILD       .         Resistivity - Deep            : 
TLFamily_NPOR_LIM  .         Thermal Neutron Porosity Limestone: 
TLFamily_PEF       .         Photoelectric Factor          : 
TLFamily_RHO       .         Bulk Density                  : 
~Curve Information
#_______________________________________________________________________________
#
#LOGNAME           .UNIT     LOG_ID                        : DESCRIPTION
#_______________________________________________________________________________
DEPT               .M                                      : Depth 
DT                 .US/M                                   : Compressional Slowness 
GR                 .GAPI                                   : MGS Gamma Ray 
ILD                .OHMM                                   : Array Ind. One Res 85 
NPOR_LIM           .V/V                                    : Lmst Neutron Por. (PEN) 
PEF                .B/E                                    : PE 
RHO                .K/M3                                   : Compensated Density 
~Ascii
# ...
47.3964    -9999      57.0131    -9999      0.418      -9999      -9999     
47.5488    -9999      55.0025    -9999      0.4226     -9999      -9999     
47.7012    -9999      54.6534    -9999      0.4232     -9999      -9999     
47.8536    -9999      55.1795    -9999      0.4242     -9999      -9999     
48.006     -9999      57.0666    -9999      0.418      -9999      -9999     
48.1584    -9999      58.1324    -9999      0.4107     -9999      -9999     
48.3108    -9999      57.8614    -9999      0.42       -9999      -9999     
48.4632    -9999      55.9059    -9999      0.4278     -9999      -9999     
48.6156    -9999      54.1465    -9999      0.418      -9999      -9999     
48.768     -9999      54.5997    -9999      0.4129     -9999      -9999     
48.9204    -9999      55.444     -9999      0.43       -9999      -9999     
49.0728    -9999      55.2991    -9999      0.4355     -9999      -9999     
49.2252    -9999      54.2654    -9999      0.4298     -9999      -9999     
49.3776    -9999      54.4602    -9999      0.4238     -9999      -9999     
49.53      -9999      55.3716    -9999      0.425      -9999      -9999     
49.6824    -9999      56.9398    -9999      0.4288     -9999      -9999     
49.8348    -9999      57.8876    -9999      0.4158     -9999      -9999     
49.9872    -9999      57.2755    -9999      0.407      -9999      -9999     
50.1396    -9999      56.1413    19922.8379 0.4221     11.8981    1915.7216 
50.292     -9999      55.1577    19965.707  0.4257     11.879     1920.063  
50.4444    -9999      55.6079    20013.3594 0.4173     11.9441    1923.488  
50.5968    -9999      56.9731    20070.3477 0.4231     12.0011    1924.4816 
50.7492    -9999      57.7478    20128.0762 0.4296     12.0449    1926.0959 
50.9016    -9999      56.4666    20168.0918 0.431      12.0298    1931.6481 
51.054     -9999      54.917     20174.6211 0.4251     12.0056    1936.9586 
51.2064    -9999      55.0687    20156.8789 0.4218     12.0073    1937.832  
51.3588    -9999      54.9157    20117.8828 0.4225     11.9498    1935.5051 
51.5112    -9999      55.9669    20068.5059 0.4358     12.0054    1936.0023 
51.6636    -9999      57.5601    20028.2402 0.4391     11.9979    1943.8713 
51.816     -9999      59.5835    20026.4883 0.4238     11.8829    1946.7186 
51.9684    -9999      60.179     20067.1895 0.4343     11.7564    1938.8613 
52.1208    -9999      57.8676    20111.8359 0.44       11.5986    1931.9648 
52.2732    -9999      55.5314    20126.3633 0.4295     11.5765    1931.3666 
52.4256    -9999      55.2801    20104.6719 0.4322     11.6587    1936.7788 
52.578     -9999      56.7915    20067.8047 0.441      11.7991    1941.3018 
52.7304    -9999      58.0699    20024.4492 0.4491     11.9402    1950.36   
52.8828    -9999      57.438     19990.8242 0.4436     12.0223    1996.9948 
53.0352    -9999      53.7627    20007.0762 0.4329     12.513     2075.8206 
53.1876    -9999      49.346     20036.7891 0.4436     13.2513    2118.4558 
53.34      -9999      44.8014    20040.2109 0.4678     13.8904    2150.7498 
53.4924    -9999      43.5739    20023.6348 0.4901     14.0735    2057.1926 
53.6448    -9999      47.1507    20005.166  0.5142     13.576     2064.4375 
53.7972    -9999      51.6155    20019.043  0.5334     13.1083    2099.9697 
53.9496    190.808    54.7875    20033.9434 0.4995     12.8093    2098.396  
54.102     187.761    55.5567    20032.3438 0.4541     12.6166    2043.6141 
54.2544    184.865    58.0104    20030.6348 0.4763     12.3592    1988.2175 
54.4068    182.5113   60.4955    20024.5957 0.4859     11.9841    1961.0167 
54.5592    181.0524   60.6146    20009.7266 0.4645     11.7299    1954.7611 
54.7116    180.7021   59.0732    19993.457  0.4617     11.732     1951.0347 
54.864     181.0599   57.886     19981.9863 0.4646     11.8386    1938.7648 
55.0164    181.9967   59.7804    19977.4492 0.4705     11.925     1931.8798 
55.1688    182.9053   61.7158    19977.8398 0.4652     12.0053    1925.424  
55.3212    183.229    61.1601    19975.9336 0.4587     12.0558    1923.5906 
55.4736    183.0041   58.2273    19978.7344 0.4558     12.0188    1931.4628 
55.626     182.6394   54.1149    19998.6465 0.4563     11.9453    1939.9834 
55.7784    182.6958   52.7095    20033.0332 0.4505     11.9749    1945.8536 
55.9308    183.099    55.1168    20066.4336 0.4388     12.0771    1946.4884 
56.0832    183.5568   56.6128    20077.959  0.4363     12.1038    1940.962  
56.2356    183.7082   55.8376    20058.2949 0.4496     12.0535    1937.4882 
56.388     183.5055   53.1751    20020.6582 0.4548     11.9874    1935.3783 
56.5404    183.3844   52.817     19975.8047 0.4577     12.0041    1932.4985 
56.6928    183.92     53.8335    19934.1289 0.4631     12.1       1936.4965 
56.8452    185.1877   52.5365    19901.1309 0.4638     12.173     1941.1835 
56.9976    186.721    52.4682    19875.5664 0.4651     12.1587    1947.3696 
57.15      188.0082   54.1221    19859.0664 0.4692     12.0517    1946.2444 
57.3024    188.8156   57.256     19854.875  0.4796     11.8802    1916.6853 
57.4548    189.76     60.8703    19871.2207 0.4735     11.7258    1859.756  
57.6072    191.8158   62.3209    19900.1074 0.4878     11.7068    1799.9138 
57.7596    201.2966   63.0309    19927.7246 0.5052     11.7018    1766.7972 
57.912     235.3799   64.34      19939.1035 0.4951     11.6851    1770.2538 
58.0644    300.7797   64.3027    19928.6816 0.49       11.7086    1797.4481 
58.2168    393.4846   64.6832    19906.6953 0.4888     11.7381    1828.2634 
58.3692    477.3015   65.4157    19881.6309 0.4865     11.7661    1852.8762 
58.5216    530.587    64.36839999999999 19857.748  0.4912     11.8359    1862.8169 
58.674     552.0844   63.6422    19838.2734 0.4886     11.8353    1870.6783 
58.8264    555.1121000000001 62.559     19820.582  0.4852     11.893     1882.4768 
58.9788    554.5365   61.4181    19796.4629 0.4874     12.0129    1901.1605 
59.1312    552.8907   60.918     19757.3555 0.4812     12.1454    1917.4385 
59.2836    553.2967   59.368     19702.4863 0.4825     12.2642    1920.7073 
59.436     556.0488   56.9522    19650.4219 0.4822     12.3179    1917.7172 
59.5884    560.8628   54.1049    19613.3555 0.4714     12.3109    1915.0304 
59.7408    566.0803   51.9761    19605.3184 0.4728     12.3297    1918.0376 
59.8932    570.3810999999999 51.9265    19629.4727 0.4816     12.4361    1920.811  
60.0456    572.2563   51.7718    19667.9492 0.4887     12.4574    1922.5422 
60.198     570.1852   50.652     19696.248  0.4877     12.4316    1922.583  
60.3504    565.6609   49.8213    19697.3223 0.4821     12.2594    1913.8446 
60.5028    559.6809   50.0932    19682.7344 0.4883     12.0535    1902.663  
60.6552    554.062    51.3327    19674.8945 0.4714     11.9871    1894.9855 
60.8076    550.3809   52.359     19682.8418 0.4498     12.0314    1892.0621 
60.96      548.9363   51.801     19705.6582 0.4583     12.1906    1896.6378 
61.1124    548.449    52.3475    19729.1465 0.4719     12.2934    1898.9846 
61.2648    546.6335   51.9261    19737.6074 0.4834     12.2263    1898.2819 
61.4172    542.5487000000001 48.6639    19724.2324 0.4828     12.1115    1894.1678 
61.5696    540.803    45.5968    19693.3242 0.4735     12.0965    1884.923  
61.722     544.7537   43.3706    19658.0586 0.4473     12.1592    1876.1411 
61.8744    553.595    44.6304    19619.1738 0.438      12.1047    1871.3646 
62.0268    561.6180000000001 49.2854    19568.8594 0.4584     11.9611    1871.3368 
62.1792    562.3381000000001 53.8649    19496.0742 0.4787     11.8601    1878.1097 
62.3316    557.1039   55.81      19395.584  0.4916     11.9114    1889.7402 
62.484     550.6403   54.9218    19267.959  0.5013     12.0069    1901.2111 
62.6364    546.8618   52.4715    19119.7031 0.5164     11.9467    1911.6467 
62.7888    546.2166999999999 51.3108    18950.9863 0.5306     11.7531    1914.5569 
62.9412    545.2241   50.974     18738.5273 0.5439000000000001 11.5732    1929.0753 
63.0936    542.227    48.6145    18483.5938 0.5535     11.6455    1953.1597 
