~Version
 VERS              .         2.0                           : CWLS LOG ASCII STANDARD - VERSION 2.0
 WRAP              .         NO                            : ONE LINE PER DEPTH STEP
 DLM               .         SPACE                         : DELIMITING CHARACTER(SPACE TAB OR COMMA)
~Well Information
#_______________________________________________________________________________
#
#PARAMETER_NAME    .UNIT     VALUE                         : DESCRIPTION
#_______________________________________________________________________________
STRT               .M        0.1524                        : First reference value
STOP               .M        325.6788                      : Last reference value
STEP               .M        0.1524                        : Step increment
NULL               .         -9999                         : Missing value
COMP               .                                       : Company
WELL               .         D                             : Well name
FLD                .                                       : Field
LOC                .                                       : Location
CNTY               .                                       : County
STAT               .                                       : State
CTRY               .                                       : Country
SRVC               .                                       : Service Company
DATE               .                                       : Date
API                .                                       : API number
~Parameter Information Block
#_______________________________________________________________________________
#
#PARAMETER_NAME    .UNIT     VALUE                         : DESCRIPTION
#_______________________________________________________________________________
SET                .         Logs                          : 
TLFamily_DEPT      .         Measured Depth                : 
TLFamily_DT        .         Compressional Slowness        : 
TLFamily_GR        .         Gamma Ray                     : 
TLFamily_ILD       .         Resistivity - Deep            : 
TLFamily_NPOR_LIM  .         Thermal Neutron Porosity Limestone: 
TLFamily_PEF       .         Photoelectric Factor          : 
TLFamily_RHO       .         Bulk Density                  : 
~Curve Information
#_______________________________________________________________________________
#
#LOGNAME           .UNIT     LOG_ID                        : DESCRIPTION
#_______________________________________________________________________________
DEPT               .M                                      : Depth 
DT                 .US/M                                   : Compressional Slowness 
GR                 .GAPI                                   : MGS Gamma Ray 
ILD                .OHMM                                   : Array Ind. One Res 85 
NPOR_LIM           .V/V                                    : Lmst Neutron Por. (PEN) 
PEF                .B/E                                    : PE 
RHO                .K/M3                                   : Compensated Density 
~Ascii
# ...
280.5684   452.2357   51.7868    38.5224    0.5134     1.9094     2000.2128 
280.7208   454.6684   42.9883    41.7095    0.5569     1.8592     1954.564  
280.8732   456.2664   35.2728    63.0844    0.5178     1.8209     1954.2534 
281.0256   457.0071   31.0244    121.834    0.4155     1.8021     1983.5759 
281.178    456.7947   30.6045    209.7275   0.3499     1.7968     2015.2427 
281.3304   455.3711   32.4064    275.0412   0.3228     1.7923     2029.8617 
281.4828   453.0222   34.176     307.8053   0.32       1.7926     2032.9393 
281.6352   450.6286   35.0829    323.7198   0.3273     1.7985     2029.5507 
281.7876   449.4222   34.829     320.4545   0.3372     1.8202     2020.4514 
281.94     450.0551   34.4833    303.6967   0.3492     1.8702     2018.563  
282.0924   453.6097   35.0358    259.6497   0.3669     2.0079     2020.5426 
282.2448   459.3769   37.1937    201.9439   0.3897     2.1256     2019.2722 
282.3972   466.4742   39.2393    102.0978   0.465      2.1334     2007.0339 
282.5496   473.042    39.3465    83.5141    0.544      2.0118     1986.1859 
282.702    477.4775   38.0345    116.0515   0.4907     1.8638     1972.256  
282.8544   479.6688   37.8753    164.06     0.4082     1.8328     1961.6013 
283.0068   479.598    39.4647    111.2749   0.4414     1.8414     1951.4937 
283.1592   478.2849   41.1504    80.9055    0.5091     1.8564     1952.641  
283.3116   476.403    41.7288    88.9036    0.4761     1.8608     1974.693  
283.464    474.519    41.8487    99.0984    0.4116     1.8677     2007.9181 
283.6164   472.4114   43.9386    104.3501   0.3911     1.8791     2032.3112 
283.7688   469.6207   47.6833    63.7986    0.4046     1.8858     2041.4325 
283.9212   465.8354   50.1198    51.1393    0.4356     1.8888     2040.8148 
284.0736   461.3289   49.6585    54.1009    0.4411     1.8891     2035.7765 
284.226    456.6993   48.7216    50.3539    0.4478     1.9026     2039.3073 
284.3784   452.5274   50.218     63.3757    0.4321     1.9282     2052.3318 
284.5308   448.9036   54.8278    65.6786    0.3959     1.9337     2072.9004 
284.6832   445.5573   58.1834    74.3887    0.384      1.927      2091.5347 
284.8356   442.2674   58.3738    56.4079    0.3758     1.9349     2102.7869 
284.988    439.1456   57.7974    51.7936    0.3705     1.9521     2112.8723 
285.1404   436.4152   58.7176    61.2831    0.3672     1.9651     2118.0327 
285.2928   434.1602   62.1732    54.6615    0.3737     1.9655     2115.8928 
285.4452   432.2609   65.65179999999999 58.0563    0.3775     1.9667     2113.8694 
285.5976   430.5266   67.1823    51.4236    0.3672     1.9777     2116.8872 
285.75     428.8499   68.0522    55.2049    0.3641     1.9841     2122.2512 
285.9024   427.351    68.1652    55.9697    0.3674     1.9809     2127.927  
286.0548   426.0951   67.8085    48.6557    0.361      1.9723     2129.6147 
286.2072   425.3195   66.20229999999999 42.8725    0.3535     1.9651     2132.2351 
286.3596   424.9788   63.6269    45.1874    0.3529     1.9721     2137.6013 
286.512    424.9062   60.731     49.469     0.352      1.9777     2138.6643 
286.6644   424.7707   57.8963    56.3394    0.3595     1.9757     2131.3672 
286.8168   424.3863   55.6367    60.1028    0.3629     1.9658     2120.0217 
286.9692   423.9104   51.8502    58.9681    0.3568     1.9425     2110.3101 
287.1216   423.6724   49.448     72.752     0.3545     1.9233     2106.1177 
287.274    423.9296   49.8656    78.68770000000001 0.3569     1.9235     2104.311  
287.4264   424.7431   50.9198    71.41679999999999 0.3629     1.9367     2103.5701 
287.5788   425.8953   50.3665    76.675     0.3614     1.9384     2098.5964 
287.7312   427.0918   46.7186    88.6645    0.3573     1.9278     2089.356  
287.8836   428.0868   43.8507    114.6351   0.3561     1.917      2084.0479 
288.036    428.7367   44.1653    123.4739   0.3552     1.9355     2087.3638 
288.1884   428.8859   47.4013    90.1284    0.3576     1.9664     2097.9673 
288.3408   428.5783   50.2688    59.1519    0.3576     1.9821     2111.5156 
288.4932   427.9002   51.1532    51.292     0.3567     1.9819     2121.1323 
288.6456   427.1172   50.0164    51.3513    0.3665     1.942      2122.7671 
288.798    426.5779   47.1925    65.0338    0.3731     1.8905     2116.5862 
288.9504   426.408    46.7766    88.3494    0.3654     1.8483     2103.5786 
289.1028   426.679    49.3957    74.572     0.3691     1.8458     2095.9482 
289.2552   427.1232   52.2172    68.8625    0.3724     1.8848     2100.7097 
289.4076   427.3052   52.8002    55.0982    0.373      1.909      2109.9199 
289.56     426.7206   51.0932    70.0224    0.3708     1.9068     2118.0918 
289.7124   424.7261   48.0415    74.04770000000001 0.3607     1.8915     2121.9448 
289.8648   421.4833   47.7387    58.5406    0.3626     1.9002     2124.676  
290.0172   417.5282   50.0476    57.7947    0.368      1.9275     2129.8376 
290.1696   414.0068   51.6559    51.2693    0.3662     1.9397     2134.3333 
290.322    411.981    51.0699    56.6428    0.3571     1.9402     2133.8613 
290.4744   411.9469   47.9189    59.0465    0.3451     1.926      2130.6838 
290.6268   413.5933   44.8519    52.2899    0.3486     1.9169     2123.5415 
290.7792   416.0224   43.8865    61.1408    0.3548     1.9151     2116.3511 
290.9316   418.2593   44.2786    62.0464    0.3493     1.9215     2112.9785 
291.084    419.8144   45.016     57.6863    0.3559     1.9292     2112.7439 
291.2364   420.882    46.0963    63.1526    0.3623     1.9204     2113.6409 
291.3888   421.6333   45.9062    66.8967    0.3609     1.9118     2108.4326 
291.5412   422.2852   45.4003    73.3682    0.3643     1.9173     2102.7012 
291.6936   422.8244   45.9359    81.90260000000001 0.3629     1.9461     2102.1584 
291.846    423.2329   46.2932    77.9534    0.3577     1.9712     2110.2332 
291.9984   423.3889   45.6956    62.7935    0.3518     1.9686     2119.3992 
292.1508   423.1693   44.77      62.5327    0.3497     1.9397     2119.978  
292.3032   422.4945   43.9319    87.9777    0.3478     1.911      2111.2241 
292.4556   421.6044   44.5136    97.25060000000001 0.3474     1.9018     2101.9529 
292.608    420.621    45.9814    97.7902    0.355      1.9131     2099.5532 
292.7604   419.503    46.8976    74.5826    0.365      1.9349     2108.0042 
292.9128   417.9845   47.6425    65.1833    0.3695     1.943      2121.1829 
293.0652   415.8246   48.1669    49.2051    0.3723     1.9305     2128.1724 
293.2176   412.94     47.6783    50.9715    0.3705     1.918      2128.6873 
293.37     409.894    47.83      61.669     0.3617     1.9251     2129.6685 
293.5224   407.5174   49.4717    52.8252    0.361      1.9462     2135.4443 
293.6748   406.6845   50.4411    54.9054    0.3598     1.9639     2140.8394 
293.8272   407.6635   49.0768    56.7856    0.359      1.958      2137.0708 
293.9796   410.313    44.1946    56.1435    0.366      1.9277     2122.6399 
294.132    414.2108   39.1915    70.08799999999999 0.368      1.891      2105.4048 
294.2844   418.8062   37.2582    96.0044    0.3596     1.8767     2093.0012 
294.4368   423.4119   37.6448    111.8406   0.3522     1.8923     2087.6624 
294.5892   427.1313   39.6259    104.3845   0.3571     1.912      2087.2461 
294.7416   429.5712   41.3836    112.9227   0.3601     1.9055     2083.9771 
294.894    430.5241   41.6091    107.8976   0.3674     1.8644     2075.6873 
295.0464   430.5118   41.2136    133.434    0.3841     1.8411     2065.2451 
295.1988   429.7268   40.4997    170.8399   0.3905     1.8505     2059.3037 
295.3512   428.516    40.1051    170.5162   0.3859     1.8798     2068.0886 
295.5036   426.8746   40.3891    140.8896   0.3805     1.9099     2086.1741 
295.656    424.9411   42.299     88.84829999999999 0.3783     1.9149     2107.2915 
295.8084   422.7173   45.7596    69.8379    0.3769     1.9116     2123.6487 
295.9608   420.263    46.3484    55.6096    0.3692     1.9114     2127.082  
296.1132   418.12     44.1558    59.0201    0.3737     1.9151     2118.384  
296.2656   417.055    41.375     82.6511    0.3721     1.9093     2105.3459 
