~Version
 VERS              .         2.0                           : CWLS LOG ASCII STANDARD - VERSION 2.0
 WRAP              .         NO                            : ONE LINE PER DEPTH STEP
 DLM               .         SPACE                         : DELIMITING CHARACTER(SPACE TAB OR COMMA)
~Well Information
#_______________________________________________________________________________
#
#PARAMETER_NAME    .UNIT     VALUE                         : DESCRIPTION
#_______________________________________________________________________________
STRT               .M        0.1524                        : First reference value
STOP               .M        325.6788                      : Last reference value
STEP               .M        0.1524                        : Step increment
NULL               .         -9999                         : Missing value
COMP               .                                       : Company
WELL               .         D                             : Well name
FLD                .                                       : Field
LOC                .                                       : Location
CNTY               .                                       : County
STAT               .                                       : State
CTRY               .                                       : Country
SRVC               .                                       : Service Company
DATE               .                                       : Date
API                .                                       : API number
~Parameter Information Block
#_______________________________________________________________________________
#
#PARAMETER_NAME    .UNIT     VALUE                         : DESCRIPTION
#_______________________________________________________________________________
SET                .         Logs                          : 
TLFamily_DEPT      .         Measured Depth                : 
TLFamily_DT        .         Compressional Slowness        : 
TLFamily_GR        .         Gamma Ray                     : 
TLFamily_ILD       .         Resistivity - Deep            : 
TLFamily_NPOR_LIM  .         Thermal Neutron Porosity Limestone: 
TLFamily_PEF       .         Photoelectric Factor          : 
TLFamily_RHO       .         Bulk Density                  : 
~Curve Information
#_______________________________________________________________________________
#
#LOGNAME           .UNIT     LOG_ID                        : DESCRIPTION
#_______________________________________________________________________________
DEPT               .M                                      : Depth 
DT                 .US/M                                   : Compressional Slowness 
GR                 .GAPI                                   : MGS Gamma Ray 
ILD                .OHMM                                   : Array Ind. One Res 85 
NPOR_LIM           .V/V                                    : Lmst Neutron Por. (PEN) 
PEF                .B/E                                    : PE 
RHO                .K/M3                                   : Compensated Density 
~Ascii
# ...
109.2708   484.8791   68.44289999999999 18.91      0.3913     2.2793     2107.4683 
109.4232   483.3281   69.3181    18.9438    0.3862     2.3985     2113.0117 
109.5756   483.1175   71.2445    18.5715    0.39       2.4675     2123.1118 
109.728    484.2356   73.7539    18.2538    0.3997     2.4585     2133.0557 
109.8804   486.7409   76.34269999999999 16.9692    0.4118     2.3456     2131.3755 
110.0328   490.5329   79.57170000000001 16.4199    0.4185     2.2736     2120.3657 
110.1852   495.3704   80.54049999999999 15.7477    0.411      2.2908     2111.4233 
110.3376   500.6116   78.8891    14.9102    0.4099     2.3164     2103.9058 
110.49     505.3946   76.94929999999999 14.8968    0.4114     2.3759     2094.6455 
110.6424   509.1601   76.54389999999999 14.1577    0.4234     2.4103     2089.9114 
110.7948   511.3436   78.84569999999999 13.304     0.4299     2.4527     2091.9832 
110.9472   512.2197   80.9555    14.0524    0.4191     2.4427     2112.3301 
111.0996   511.572    82.87990000000001 13.4306    0.4145     2.397      2132.437  
111.252    509.8315   85.5116    13.634     0.4102     2.3653     2143.2639 
111.4044   507.3351   88.2724    13.2253    0.4075     2.3668     2152.4189 
111.5568   505.0449   90.8801    12.9627    0.4195     2.4265     2157.6111 
111.7092   504.2175   92.0549    12.2365    0.4351     2.4873     2168.2778 
111.8616   505.0691   96.32689999999999 11.5965    0.4429     2.5517     2173.5732 
112.014    507.5391   101.8779   10.3338    0.4435     2.6039     2175.5288 
112.1664   510.7295   106.1753   8.991199999999999 0.4405     2.6732     2176.1162 
112.3188   513.8893   111.2586   7.3348     0.4381     2.7407     2166.5557 
112.4712   516.604    117.198    6.9035     0.4427     2.7342     2161.4241 
112.6236   518.5348   122.3072   6.8876     0.4601     2.6961     2152.5576 
112.776    519.5776   122.8002   6.4753     0.4879     2.6136     2148.2542 
112.9284   519.7518   118.8948   6.2573     0.5132     2.5491     2142.092  
113.0808   518.9982   115.6729   6.3462     0.5286     2.5644     2112.1001 
113.2332   517.5487000000001 113.7484   6.7974     0.534      2.5337     2094.0046 
113.3856   515.8922   112.1386   6.9005     0.5288     2.5131     2068.9456 
113.538    514.6328999999999 111.0617   6.8466     0.5224     2.4979     2054.9421 
113.6904   514.221    113.3217   6.8083     0.5279     2.4886     2068.124  
113.8428   514.4728   114.2903   6.9975     0.5422     2.5043     2082.3113 
113.9952   515.0714   111.4232   7.6027     0.551      2.4751     2100.144  
114.1476   515.5712   104.401    8.4094     0.5419     2.4545     2100.3938 
114.3      515.4079   100.9476   8.963200000000001 0.5193     2.4503     2084.063  
114.4524   514.1072   102.6618   9.536199999999999 0.4926     2.4133     2075.575  
114.6048   510.551    104.9152   9.984500000000001 0.4679     2.3615     2082.0212 
114.7572   504.561    105.3129   10.4807    0.4527     2.3139     2105.9343 
114.9096   496.0032   103.6199   11.5724    0.4456     2.3109     2145.0479 
115.062    486.4637   102.9621   11.8657    0.4378     2.3293     2173.2686 
115.2144   477.862    100.824    12.4177    0.4301     2.3324     2187.1731 
115.3668   472.1026   97.0337    12.7088    0.4274     2.3727     2183.7991 
115.5192   470.2591   96.24420000000001 12.5677    0.43       2.4534     2161.1743 
115.6716   472.0193   101.7781   11.7396    0.4377     2.491      2137.8357 
115.824    476.7719   108.4036   9.805400000000001 0.4468     2.4805     2108.0908 
115.9764   483.3308   111.9222   9.2135     0.4585     2.3946     2079.6943 
116.1288   490.4666   112.5687   9.5456     0.4703     2.3029     2061.1704 
116.2812   496.3499   115.2421   10.3638    0.4743     2.284      2055.9189 
116.4336   499.9313   117.2842   11.2179    0.471      2.2992     2094.4968 
116.586    500.9497   115.8609   10.8371    0.4679     2.3611     2143.3848 
116.7384   500.4953   115.017    10.4451    0.4592     2.4166     2175.5735 
116.8908   499.9102   118.3966   10.5125    0.4409     2.463      2196.0427 
117.0432   499.9555   124.9591   10.3871    0.4154     2.5335     2195.2065 
117.1956   500.8093   127.4561   9.9787     0.3943     2.573      2192.4836 
117.348    502.1589   120.906    10.4203    0.3954     2.5161     2176.677  
117.5004   503.8407   112.3143   11.2924    0.4073     2.4062     2146.4546 
117.6528   505.5679   105.6847   12.6004    0.4035     2.2968     2116.2466 
117.8052   506.4287   102.3402   12.9263    0.3878     2.2436     2097.4692 
117.9576   505.8378   101.5532   12.8381    0.3871     2.2686     2103.863  
118.11     503.5059   102.5832   12.6896    0.4034     2.3128     2123.22   
118.2624   500.2496   104.2841   12.6002    0.4191     2.3492     2137.2061 
118.4148   496.8268   103.6508   12.5718    0.4304     2.3688     2137.1924 
118.5672   493.2739   98.715     12.9004    0.4243     2.3607     2131.6257 
118.7196   489.2482   95.3099    13.1745    0.4066     2.335      2133.9641 
118.872    484.3374   95.26179999999999 13.078     0.3968     2.3085     2145.8879 
119.0244   479.2822   95.64660000000001 13.2171    0.3924     2.2868     2160.1174 
119.1768   475.2922   94.3167    13.4296    0.3832     2.2985     2167.9038 
119.3292   473.0927   93.0813    13.8211    0.3611     2.3423     2174.9224 
119.4816   472.9406   98.0069    13.7937    0.3562     2.373      2183.6721 
119.634    473.8996   104.2935   13.3109    0.3673     2.3684     2187.3801 
119.7864   475.4741   108.3727   13.5678    0.3821     2.3546     2180.7534 
119.9388   477.2601   105.3228   13.7032    0.4443     2.376      2184.3152 
120.0912   479.2462   99.4936    13.7112    0.5179     2.4246     2192.7717 
120.2436   481.3847   97.86799999999999 14.2167    0.4941     2.4509     2199.3665 
120.396    483.4147   99.8416    15.189     0.4375     2.4386     2206.6663 
120.5484   484.9652   100.1834   15.3665    0.4251     2.4258     2200.0813 
120.7008   485.6138   97.0373    15.4569    0.4347     2.4416     2196.7649 
120.8532   485.5392   92.2148    15.7058    0.4742     2.4704     2189.26   
121.0056   485.0427   85.958     14.677     0.5116000000000001 2.4698     2169.4001 
121.158    484.5746   77.9447    15.7562    0.4761     2.4151     2146.1465 
121.3104   484.0367   68.2938    18.1786    0.3953     2.352      2119.8384 
121.4628   483.1931   58.6016    18.6283    0.3576     2.327      2100.4187 
121.6152   481.8768   52.3956    18.5716    0.3673     2.3122     2094.3254 
121.7676   480.3109   51.1275    18.6003    0.37       2.3028     2086.116  
121.92     478.9009   51.8905    18.7056    0.361      2.3077     2084.2529 
122.0724   478.1897   54.5163    18.5835    0.3694     2.3306     2087.4619 
122.2248   478.3844   56.5224    18.5815    0.3781     2.3972     2092.4238 
122.3772   479.212    57.2616    18.8226    0.3862     2.5171     2097.3928 
122.5296   480.1048   56.2467    19.144     0.4062     2.6033     2097.166  
122.682    480.4923   53.0481    19.6553    0.4109     2.5862     2094.2095 
122.8344   480.3869   48.9652    19.6369    0.3947     2.4735     2087.5376 
122.9868   479.9125   46.5546    19.9037    0.3815     2.3527     2078.877  
123.1392   479.3046   47.0045    20.1884    0.3757     2.2981     2074.605  
123.2916   478.7194   48.5404    20.2525    0.3658     2.2742     2074.7131 
123.444    478.3046   49.802     19.933     0.357      2.2589     2073.6433 
123.5964   478.2451   49.7781    19.5294    0.3575     2.2545     2070.6553 
123.7488   478.4675   50.2248    19.4256    0.3697     2.2718     2065.6604 
123.9012   478.9089   50.4775    18.7497    0.3809     2.2722     2063.4126 
124.0536   479.5288   50.2072    18.0335    0.385      2.264      2065.4812 
124.206    480.3055   52.4595    16.9787    0.4066     2.2799     2067.6306 
124.3584   480.7404   55.7101    15.9775    0.42       2.3383     2072.5188 
124.5108   479.886    58.1541    15.1794    0.421      2.4058     2080.2998 
124.6632   476.7971   58.7523    14.9842    0.421      2.4513     2094.2817 
