~Version
 VERS              .         2.0                           : CWLS LOG ASCII STANDARD - VERSION 2.0
 WRAP              .         NO                            : ONE LINE PER DEPTH STEP
 DLM               .         SPACE                         : DELIMITING CHARACTER(SPACE TAB OR COMMA)
~Well Information
#_______________________________________________________________________________
#
#PARAMETER_NAME    .UNIT     VALUE                         : DESCRIPTION
#_______________________________________________________________________________
STRT               .M        0.1524                        : First reference value
STOP               .M        325.6788                      : Last reference value
STEP               .M        0.1524                        : Step increment
NULL               .         -9999                         : Missing value
COMP               .                                       : Company
WELL               .         D                             : Well name
FLD                .                                       : Field
LOC                .                                       : Location
CNTY               .                                       : County
STAT               .                                       : State
CTRY               .                                       : Country
SRVC               .                                       : Service Company
DATE               .                                       : Date
API                .                                       : API number
~Parameter Information Block
#_______________________________________________________________________________
#
#PARAMETER_NAME    .UNIT     VALUE                         : DESCRIPTION
#_______________________________________________________________________________
SET                .         Logs                          : 
TLFamily_DEPT      .         Measured Depth                : 
TLFamily_DT        .         Compressional Slowness        : 
TLFamily_GR        .         Gamma Ray                     : 
TLFamily_ILD       .         Resistivity - Deep            : 
TLFamily_NPOR_LIM  .         Thermal Neutron Porosity Limestone: 
TLFamily_PEF       .         Photoelectric Factor          : 
TLFamily_RHO       .         Bulk Density                  : 
~Curve Information
#_______________________________________________________________________________
#
#LOGNAME           .UNIT     LOG_ID                        : DESCRIPTION
#_______________________________________________________________________________
DEPT               .M                                      : Depth 
DT                 .US/M                                   : Compressional Slowness 
GR                 .GAPI                                   : MGS Gamma Ray 
ILD                .OHMM                                   : Array Ind. One Res 85 
NPOR_LIM           .V/V                                    : Lmst Neutron Por. (PEN) 
PEF                .B/E                                    : PE 
RHO                .K/M3                                   : Compensated Density 
~Ascii
# ...
140.6652   463.1377   53.9555    21.727     0.3825     2.3224     2056.6379 
140.8176   449.0396   53.8201    22.9939    0.3715     2.3331     2066.0693 
140.97     429.2362   51.9163    24.0689    0.3459     2.329      2075.2944 
141.1224   406.398    49.8686    23.824     0.3332     2.3185     2081.9482 
141.2748   384.3513   48.0555    23.4449    0.3252     2.3632     2108.3943 
141.4272   362.3036   45.0353    25.5378    0.2825     2.6926     2185.4827 
141.5796   340.2569   42.2988    44.7858    0.1995     3.2026     2313.3696 
141.732    318.2092   41.0861    99.6961    0.153      3.4633     2410.6201 
141.8844   301.602    43.9971    70.7795    0.1788     3.3066     2403.3423 
142.0368   302.2591   47.7423    32.639     0.2555     2.8568     2296.2388 
142.1892   323.1208   51.616     25.9923    0.3388     2.5081     2167.0796 
142.3416   360.2207   53.6627    25.5526    0.3767     2.4141     2091.9231 
142.494    400.5199   53.7337    25.5809    0.3813     2.3867     2066.3318 
142.6464   434.6624   53.9812    25.0879    0.3837     2.3607     2064.7542 
142.7988   456.6061   53.1643    24.3048    0.3886     2.3347     2065.1362 
142.9512   467.4214   51.659     23.5011    0.3925     2.3183     2065.2244 
143.1036   468.5121   49.9612    22.8048    0.398      2.3176     2069.8557 
143.256    467.3927   49.7777    22.4911    0.3961     2.4063     2079.1987 
143.4084   464.7332   50.9878    23.2042    0.402      2.5011     2087.3247 
143.5608   462.0959   52.9649    23.9586    0.4054     2.4967     2090.4863 
143.7132   460.5112   53.1808    23.2325    0.39       2.4232     2088.8967 
143.8656   460.1728   53.4981    23.0603    0.3773     2.3464     2087.3672 
144.018    461.1373   52.5525    23.0816    0.3722     2.333      2083.4727 
144.1704   462.5025   52.5544    23.2075    0.3676     2.3412     2075.0325 
144.3228   463.4654   55.1747    23.2974    0.3731     2.3477     2062.1687 
144.4752   463.5033   57.4855    23.7429    0.372      2.335      2053.5425 
144.6276   462.7354   58.1069    23.8503    0.364      2.3277     2056.7947 
144.78     462.2768   54.2271    23.4947    0.3726     2.3377     2064.6262 
144.9324   463.1526   47.8319    23.3875    0.3781     2.3429     2066.9673 
145.0848   465.8546   44.1851    23.51      0.3692     2.3363     2061.0725 
145.2372   469.764    43.4524    23.6428    0.3647     2.3127     2055.0825 
145.3896   473.6192   44.3475    23.5821    0.3752     2.2986     2051.9263 
145.542    476.3965   46.5454    23.322     0.3944     2.3257     2054.0066 
145.6944   477.6569   48.1849    23.228     0.4019     2.3528     2058.4241 
145.8468   478.1479   49.6596    23.2362    0.4097     2.3637     2060.8608 
145.9992   478.693    51.274     23.0619    0.4176     2.3556     2057.1548 
146.1516   479.6617   51.1971    22.844     0.429      2.3271     2045.4655 
146.304    480.9403   51.4268    23.0611    0.4289     2.3061     2036.233  
146.4564   482.1334   52.6304    22.7819    0.4177     2.2983     2034.6129 
146.6088   482.9552   53.7181    22.6369    0.4094     2.3008     2042.6974 
146.7612   483.3593   55.3417    22.4526    0.4013     2.303      2051.9585 
146.9136   483.2675   56.8928    22.8311    0.4032     2.2937     2059.0396 
147.066    482.8629   57.9046    22.7486    0.3892     2.2738     2064.9329 
147.2184   482.394    57.6175    22.3658    0.3738     2.2585     2070.9475 
147.3708   482.2283   55.2358    22.1096    0.3605     2.2486     2077.9426 
147.5232   482.6295   52.0794    21.8027    0.3514     2.2425     2083.0078 
147.6756   483.4136   50.4311    21.1366    0.3626     2.2297     2088.2346 
147.828    484.0075   50.4298    20.5332    0.3756     2.2437     2086.1938 
147.9804   483.91     51.174     20.087     0.3905     2.2924     2081.8887 
148.1328   483.3559   52.1786    19.7271    0.4089     2.3507     2078.2158 
148.2852   482.9423   52.5662    20.1914    0.4096     2.4076     2075.5232 
148.4376   482.8912   52.1188    20.3364    0.4075     2.438      2074.4456 
148.59     482.6123   52.5743    20.2932    0.4211     2.4303     2069.7444 
148.7424   481.4939   55.7971    20.4216    0.4208     2.4177     2065.9084 
148.8948   479.6721   60.954     20.2079    0.4109     2.4097     2064.3691 
149.0472   478.2692   64.33710000000001 19.8673    0.4077     2.4153     2062.8906 
149.1996   478.702    65.0663    19.9104    0.4089     2.4229     2063.407  
149.352    480.9189   65.4701    19.8933    0.4025     2.3886     2061.9939 
149.5044   484.6495   66.92610000000001 19.5707    0.3936     2.3408     2057.0815 
149.6568   488.5015   68.23      19.0631    0.4094     2.3155     2050.9146 
149.8092   491.5818   67.4331    18.8124    0.4195     2.3102     2046.2202 
149.9616   493.7797   65.2634    19.1539    0.4086     2.3033     2044.2438 
150.114    495.0105   62.229     19.4379    0.4079     2.297      2042.7109 
150.2664   495.5486   58.6217    19.5531    0.4072     2.2838     2039.8035 
150.4188   495.4243   54.7929    19.3054    0.405      2.3099     2038.1023 
150.5712   494.8348   52.5544    19.069     0.4115     2.3529     2040.8821 
150.7236   493.8992   54.4425    18.8925    0.4219     2.3832     2046.1665 
150.876    492.7503   57.6804    18.9385    0.4271     2.4123     2051.0576 
151.0284   491.4896   60.1835    18.5258    0.4268     2.4238     2049.3718 
151.1808   490.3944   61.4287    18.6497    0.4375     2.4114     2043.0723 
151.3332   489.4721   60.2872    18.7771    0.4374     2.3933     2036.0005 
151.4856   488.7025   59.1257    18.434     0.4121     2.3721     2034.0426 
151.638    488.0981   57.7968    18.0026    0.4006     2.3359     2034.075  
151.7904   487.4147   56.7731    17.8317    0.3983     2.3257     2031.8695 
151.9428   486.4137   56.9226    17.3528    0.3983     2.3056     2029.1981 
152.0952   484.5141   54.1398    16.8918    0.4083     2.2867     2028.4534 
152.2476   481.9768   50.9381    16.3761    0.4147     2.2956     2031.3478 
152.4      479.4026   48.75      15.8017    0.4128     2.3098     2030.2623 
152.5524   477.1617   49.3758    14.8678    0.4134     2.3461     2031.9243 
152.7048   475.1565   53.9655    14.0337    0.4117     2.6609     2050.8196 
152.8572   472.9118   61.8122    13.0618    0.4038     3.1273     2084.6484 
153.0096   470.52     70.02679999999999 12.2766    0.4116     3.3225     2121.2778 
153.162    469.0524   75.0903    10.7837    0.428      3.1799     2130.1074 
153.3144   469.9181   74.1147    9.578200000000001 0.4081     2.759      2116.6748 
153.4668   473.4928   72.071     8.457100000000001 0.3733     2.5465     2090.3794 
153.6192   479.6735   74.1212    7.0635     0.3806     2.6971     2071.3276 
153.7716   487.3994   82.5778    4.7561     0.4394     2.8929     2087.5718 
153.924    495.8321   92.4641    2.8281     0.5724     2.9573     2116.1572 
154.0764   504.3762   98.1253    2.3344     0.6634     2.8802     2133.8459 
154.2288   512.088    97.9378    2.1093     0.6637999999999999 2.7601     2127.9087 
154.3812   517.9888   94.2567    2.09       0.676      2.7024     2109.6663 
154.5336   521.7595   91.3325    2.2177     0.6758999999999999 2.6781     2104.2722 
154.686    523.3777   90.25790000000001 2.1905     0.6819     2.6436     2101.801  
154.8384   523.7954999999999 90.43559999999999 2.0719     0.7159     2.5795     2089.3203 
154.9908   523.4823   88.4551    2.0395     0.7215     2.5131     2072.9595 
155.1432   522.7288   86.23390000000001 2.13       0.6891     2.5223     2055.8328 
155.2956   521.6005   87.36069999999999 2.2828     0.6505     2.6121     2056.8584 
155.448    520.301    93.74250000000001 2.4887     0.6363     2.7352     2083.1465 
155.6004   518.8326   102.2858   2.5737     0.6274     2.8183     2106.2991 
155.7528   516.9373000000001 105.2514   2.6754     0.6015     2.797      2118.4214 
155.9052   514.0937   102.9919   2.7653     0.6081     2.7629     2109.6357 
156.0576   510.5428   98.4579    2.7794     0.6087     2.7061     2091.0278 
156.21     507.0592   95.5038    2.7569     0.5809     2.643      2093.3445 
