~Version
 VERS              .         2.0                           : CWLS LOG ASCII STANDARD - VERSION 2.0
 WRAP              .         NO                            : ONE LINE PER DEPTH STEP
 DLM               .         SPACE                         : DELIMITING CHARACTER(SPACE TAB OR COMMA)
~Well Information
#_______________________________________________________________________________
#
#PARAMETER_NAME    .UNIT     VALUE                         : DESCRIPTION
#_______________________________________________________________________________
STRT               .M        0.1524                        : First reference value
STOP               .M        325.6788                      : Last reference value
STEP               .M        0.1524                        : Step increment
NULL               .         -9999                         : Missing value
COMP               .                                       : Company
WELL               .         D                             : Well name
FLD                .                                       : Field
LOC                .                                       : Location
CNTY               .                                       : County
STAT               .                                       : State
CTRY               .                                       : Country
SRVC               .                                       : Service Company
DATE               .                                       : Date
API                .                                       : API number
~Parameter Information Block
#_______________________________________________________________________________
#
#PARAMETER_NAME    .UNIT     VALUE                         : DESCRIPTION
#_______________________________________________________________________________
SET                .         Logs                          : 
TLFamily_DEPT      .         Measured Depth                : 
TLFamily_DT        .         Compressional Slowness        : 
TLFamily_GR        .         Gamma Ray                     : 
TLFamily_ILD       .         Resistivity - Deep            : 
TLFamily_NPOR_LIM  .         Thermal Neutron Porosity Limestone: 
TLFamily_PEF       .         Photoelectric Factor          : 
TLFamily_RHO       .         Bulk Density                  : 
~Curve Information
#_______________________________________________________________________________
#
#LOGNAME           .UNIT     LOG_ID                        : DESCRIPTION
#_______________________________________________________________________________
DEPT               .M                                      : Depth 
DT                 .US/M                                   : Compressional Slowness 
GR                 .GAPI                                   : MGS Gamma Ray 
ILD                .OHMM                                   : Array Ind. One Res 85 
NPOR_LIM           .V/V                                    : Lmst Neutron Por. (PEN) 
PEF                .B/E                                    : PE 
RHO                .K/M3                                   : Compensated Density 
~Ascii
# ...
124.8156   470.7156   58.1713    14.4047    0.4145     2.4458     2108.4226 
124.968    462.2366   56.9581    13.8335    0.4026     2.5037     2126.9946 
125.1204   452.516    54.8029    13.9935    0.3887     2.9001     2166.8879 
125.2728   443.2183   52.1524    16.1067    0.3688     3.29       2223.5007 
125.4252   435.7897   53.372     18.6472    0.3746     3.3387     2260.77   
125.5776   431.4768   59.2915    14.3313    0.3967     3.0518     2248.9053 
125.73     430.7111   68.166     13.0653    0.406      2.6539     2209.9873 
125.8824   433.3135   77.34820000000001 12.4371    0.4188     2.5329     2179.3103 
126.0348   438.159    83.4821    12.4437    0.4356     2.5709     2172.0713 
126.1872   444.0776   85.8023    12.48      0.4539     2.6126     2176.0364 
126.3396   450.1295   81.80029999999999 12.9285    0.4413     2.6339     2179.6323 
126.492    456.0074   75.4542    14.0159    0.4025     2.6615     2186.9863 
126.6444   461.4016   69.8507    14.6368    0.3748     2.7075     2199.5859 
126.7968   466.1161   67.2129    15.1873    0.3727     2.7793     2212.428  
126.9492   470.2635   67.2911    15.639     0.3828     2.8031     2205.7532 
127.1016   473.9715   66.06359999999999 17.0182    0.3959     2.7451     2168.3728 
127.254    477.4256   65.74639999999999 17.4825    0.4119     2.6694     2112.6133 
127.4064   480.0145   64.64409999999999 17.6898    0.4237     2.5961     2068.0742 
127.5588   481.1515   62.0498    18.2321    0.4252     2.537      2051.0334 
127.7112   480.2361   60.4958    18.8315    0.4201     2.5138     2049.2366 
127.8636   477.9278   59.6658    19.0472    0.4209     2.5313     2046.2817 
128.016    475.1065   60.7724    19.4672    0.4268     2.5457     2044.4907 
128.1684   472.4866   60.6883    19.7095    0.4303     2.5216     2046.2534 
128.3208   470.076    59.5559    20.0362    0.4277     2.4818     2048.2346 
128.4732   467.3269   59.3008    20.6064    0.4296     2.4536     2055.8264 
128.6256   464.0721   59.0368    21.2227    0.4299     2.4399     2068.0244 
128.778    460.4127   59.0283    21.8908    0.3981     2.4395     2083.6062 
128.9304   456.543    57.6003    21.8391    0.3731     2.4452     2098.635  
129.0828   453.113    56.1364    21.7633    0.3715     2.4215     2109.8015 
129.2352   450.798    55.5086    22.3109    0.3603     2.386      2118.1462 
129.3876   446.048    54.8353    22.7504    0.3371     2.3505     2122.9448 
129.54     437.295    54.0408    22.5351    0.3271     2.4385     2140.7063 
129.6924   423.3552   51.3469    23.1223    0.3141     2.89       2196.8357 
129.8448   406.3961   47.528     37.9239    0.2374     3.4441     2274.2004 
129.9972   389.4361   46.3639    48.8432    0.2248     3.6369     2309.6682 
130.1496   378.08     50.6929    27.7696    0.3436     3.3076     2256.7185 
130.302    381.6243   56.8842    23.7448    0.4079     2.7377     2163.614  
130.4544   397.4135   61.5521    23.7683    0.3944     2.4647     2097.5962 
130.6068   424.1788   62.9581    23.99      0.3868     2.4553     2078.7341 
130.7592   446.1665   61.9879    24.4528    0.3726     2.4458     2078.2493 
130.9116   459.9008   61.323     24.1985    0.3701     2.4069     2077.3545 
131.064    466.0077   58.4842    23.9628    0.3757     2.3553     2078.302  
131.2164   467.3776   56.4045    24.1085    0.3651     2.3302     2082.2014 
131.3688   468.5717   54.9073    23.9241    0.358      2.3317     2086.6206 
131.5212   469.9761   54.4761    23.8795    0.36       2.3492     2086.6765 
131.6736   471.6798   53.7296    23.7777    0.3656     2.3746     2085.2336 
131.826    473.0699   52.4383    23.5775    0.3757     2.3816     2084.4353 
131.9784   473.3268   53.4521    23.8836    0.3687     2.3658     2084.7036 
132.1308   471.8566   54.7624    23.9928    0.3562     2.3613     2083.7197 
132.2832   468.8876   55.9302    24.0312    0.3616     2.383      2083.5044 
132.4356   465.8068   54.7729    23.8019    0.3661     2.4184     2085.0063 
132.588    463.6842   52.1919    23.6068    0.3606     2.4502     2089.8867 
132.7404   462.5508   50.5926    23.7336    0.3553     2.4447     2094.3105 
132.8928   461.9065   49.5236    24.0555    0.3552     2.4292     2097.6021 
133.0452   461.4079   50.1572    24.544     0.3531     2.4258     2096.3452 
133.1976   461.2414   50.5105    24.7225    0.3515     2.4218     2090.6326 
133.35     461.4034   49.9635    24.6637    0.3542     2.4041     2083.3994 
133.5024   462.0933   49.9214    24.5474    0.3678     2.3937     2077.189  
133.6548   463.454    50.6176    24.502     0.3819     2.4001     2077.3286 
133.8072   465.6324   51.0215    24.8148    0.3934     2.4192     2080.1941 
133.9596   467.7374   49.4265    24.845     0.4021     2.4162     2080.1426 
134.112    468.5071   47.0887    25.2424    0.4013     2.3898     2078.2095 
134.2644   467.1956   46.4093    25.7574    0.3986     2.3596     2072.6655 
134.4168   460.7089   48.2674    25.6652    0.395      2.3532     2065.9739 
134.5692   449.6016   49.4504    24.9219    0.3952     2.3535     2064.0808 
134.7216   434.1685   49.8566    24.5371    0.3921     2.4256     2089.6824 
134.874    417.2397   48.7731    25.4615    0.3372     2.8497     2179.6201 
135.0264   400.3103   45.2732    39.3175    0.2198     3.8357     2349.8464 
135.1788   383.3815   41.3779    73.3485    0.1529     4.8167     2531.0396 
135.3312   366.4521   37.6026    59.1902    0.1949     4.8512     2592.2517 
135.4836   351.3889   37.5934    33.9452    0.2877     4.0043     2495.5854 
135.636    349.318    40.3788    26.8831    0.3464     2.9165     2311.0779 
135.7884   365.5606   42.4853    26.2428    0.3613     2.3546     2159.3196 
135.9408   398.2205   43.4362    25.7188    0.3882     2.324      2088.2117 
136.0932   433.1521   44.26      25.4607    0.3973     2.3256     2062.7537 
136.2456   457.305    47.4159    24.2137    0.3923     2.3387     2054.8469 
136.398    468.1214   51.5579    23.4738    0.3969     2.3469     2052.4895 
136.5504   469.9534   54.5126    23.0806    0.3962     2.3413     2055.804  
136.7028   470.008    55.0635    22.7089    0.3932     2.3258     2058.1489 
136.8552   469.955    53.6702    22.577     0.3892     2.3019     2057.8965 
137.0076   469.8153   52.2372    22.6914    0.3756     2.3049     2057.7671 
137.16     469.7098   49.758     22.8577    0.3561     2.3207     2055.8    
137.3124   469.8244   47.714     22.9232    0.3501     2.3374     2053.7827 
137.4648   470.2951   49.6399    22.9075    0.346      2.3477     2056.4116 
137.6172   471.2519   53.8492    22.9275    0.3409     2.338      2061.2324 
137.7696   472.5198   56.124     22.7495    0.3448     2.3345     2063.5396 
137.922    473.8805   53.8071    22.5658    0.3504     2.3437     2060.3311 
138.0744   475.1426   49.1663    22.5314    0.3556     2.3478     2051.624  
138.2268   476.1618   47.6522    22.3095    0.3673     2.3425     2043.3162 
138.3792   476.9077   49.9127    22.0465    0.3815     2.3235     2041.7333 
138.5316   477.3232   54.041     21.8552    0.3809     2.3055     2043.844  
138.684    477.3056   57.1566    21.8528    0.3773     2.3018     2048.0645 
138.8364   476.955    57.482     22.0035    0.3865     2.3294     2052.0103 
138.9888   476.4137   56.0272    22.0196    0.3922     2.3596     2052.0493 
139.1412   475.8925   57.6808    21.9608    0.4105     2.3692     2055.3938 
139.2936   475.5119   60.285     21.9131    0.4196     2.3747     2058.7598 
139.446    475.2757   62.8362    21.9648    0.4125     2.3747     2060.1736 
139.5984   475.2194   64.6127    21.9312    0.4158     2.399      2060.311  
139.7508   475.2844   61.8321    21.9204    0.4074     2.3986     2060.8337 
139.9032   475.2858   58.2657    21.9266    0.3967     2.3743     2062.2212 
140.0556   474.9679   55.3283    21.6619    0.3989     2.3445     2057.0266 
140.208    474.081    53.2047    21.3632    0.4006     2.3087     2049.6016 
140.3604   472.6679   52.1396    21.166     0.3976     2.2974     2047.9974 
140.5128   470.4549   52.888     21.0998    0.3883     2.3019     2050.467  
