~Version
 VERS              .         2.0                           : CWLS LOG ASCII STANDARD - VERSION 2.0
 WRAP              .         NO                            : ONE LINE PER DEPTH STEP
 DLM               .         SPACE                         : DELIMITING CHARACTER(SPACE TAB OR COMMA)
~Well Information
#_______________________________________________________________________________
#
#PARAMETER_NAME    .UNIT     VALUE                         : DESCRIPTION
#_______________________________________________________________________________
STRT               .M        0.1524                        : First reference value
STOP               .M        325.6788                      : Last reference value
STEP               .M        0.1524                        : Step increment
NULL               .         -9999                         : Missing value
COMP               .                                       : Company
WELL               .         D                             : Well name
FLD                .                                       : Field
LOC                .                                       : Location
CNTY               .                                       : County
STAT               .                                       : State
CTRY               .                                       : Country
SRVC               .                                       : Service Company
DATE               .                                       : Date
API                .                                       : API number
~Parameter Information Block
#_______________________________________________________________________________
#
#PARAMETER_NAME    .UNIT     VALUE                         : DESCRIPTION
#_______________________________________________________________________________
SET                .         Logs                          : 
TLFamily_DEPT      .         Measured Depth                : 
TLFamily_DT        .         Compressional Slowness        : 
TLFamily_GR        .         Gamma Ray                     : 
TLFamily_ILD       .         Resistivity - Deep            : 
TLFamily_NPOR_LIM  .         Thermal Neutron Porosity Limestone: 
TLFamily_PEF       .         Photoelectric Factor          : 
TLFamily_RHO       .         Bulk Density                  : 
~Curve Information
#_______________________________________________________________________________
#
#LOGNAME           .UNIT     LOG_ID                        : DESCRIPTION
#_______________________________________________________________________________
DEPT               .M                                      : Depth 
DT                 .US/M                                   : Compressional Slowness 
GR                 .GAPI                                   : MGS Gamma Ray 
ILD                .OHMM                                   : Array Ind. One Res 85 
NPOR_LIM           .V/V                                    : Lmst Neutron Por. (PEN) 
PEF                .B/E                                    : PE 
RHO                .K/M3                                   : Compensated Density 
~Ascii
# ...
156.3624   504.7743   97.1639    2.7933     0.5557     2.6256     2104.2004 
156.5148   504.3969   101.0601   2.8358     0.5563     2.6135     2114.5093 
156.6672   505.4335   100.5285   2.8633     0.6002999999999999 2.5964     2101.072  
156.8196   507.4193   93.2419    2.9298     0.6492     2.5033     2036.9487 
156.972    509.9913   83.3411    3.217      0.67       2.4088     1943.084  
157.1244   513.0708   79.4186    3.5125     0.6394     2.3424     1866.5724 
157.2768   516.0203   81.77379999999999 3.4162     0.5775     2.3068     1840.3032 
157.4292   517.7545   84.71510000000001 3.3159     0.5315     2.3565     1874.743  
157.5816   517.4592   86.3235    3.0719     0.5177     2.4361     1931.4225 
157.734    515.5544   85.1294    2.8758     0.5316     2.5211     2002.8486 
157.8864   513.3856   85.7363    2.7855     0.5485     2.6181     2056.1301 
158.0388   512.0466   87.253     2.7471     0.5558     2.6528     2074.1382 
158.1912   512.0519   86.65430000000001 2.8012     0.5666     2.6406     2065.8923 
158.3436   513.0551   84.3437    2.9909     0.5991     2.5025     1998.5759 
158.496    515.1156999999999 79.672     3.1953     0.6434     2.2651     1864.0206 
158.6484   518.2164   77.0325    3.4466     0.665      2.1548     1727.9584 
158.8008   521.894    78.87350000000001 3.5996     0.6444     2.2191     1696.2303 
158.9532   524.9472   82.6191    3.6713     0.5924     2.4657     1823.3967 
159.1056   525.6532999999999 85.8862    3.7895     0.5502     2.7192     1982.7849 
159.258    523.9372   88.5553    3.8141     0.5355     2.7629     2021.3708 
159.4104   520.5504   90.6362    3.7907     0.5259     2.6207     1967.3317 
159.5628   516.9688   91.9969    3.9846     0.4974     2.4826     1903.453  
159.7152   513.6707   91.7423    4.7327     0.4633     2.4546     1905.0405 
159.8676   509.7218   85.6519    6.3857     0.4507     2.5446     1961.2747 
160.02     504.076    76.02379999999999 8.976100000000001 0.4596     2.6011     2014.5504 
160.1724   496.888    66.53740000000001 10.5387    0.4738     2.5601     2039.3646 
160.3248   489.6787   61.6543    11.5718    0.4733     2.544      2037.4351 
160.4772   484.1208   63.4958    12.4474    0.4547     2.5312     2037.1791 
160.6296   480.6992   65.28879999999999 13.2891    0.4337     2.5031     2039.2499 
160.782    479.0128   62.6741    14.1374    0.4225     2.4972     2038.2993 
160.9344   478.1246   58.6397    14.8338    0.4229     2.5467     2041.0027 
161.0868   477.7018   57.1269    15.4848    0.4287     2.6388     2046.781  
161.2392   477.4848   56.7059    16.144     0.4348     2.7156     2050.2905 
161.3916   477.3203   56.644     16.3638    0.4388     2.7446     2053.6279 
161.544    477.1171   56.4443    16.3436    0.4427     2.7071     2049.8264 
161.6964   476.8982   56.6279    16.3608    0.444      2.6353     2044.3936 
161.8488   476.7477   59.0479    16.4757    0.4515     2.5822     2044.063  
162.0012   476.5387   60.5414    16.6487    0.4528     2.5703     2043.1774 
162.1536   475.9728   59.5364    16.7088    0.4432     2.6023     2041.9905 
162.306    474.654    57.9297    16.9325    0.4465     2.6719     2040.8656 
162.4584   472.5961   55.79      17.2308    0.4515     2.7476     2043.326  
162.6108   469.8162   55.2488    17.6146    0.4521     2.7971     2050.1318 
162.7632   466.6727   55.5458    17.8016    0.4475     2.8443     2061.7061 
162.9156   463.5413   54.9786    17.9898    0.4376     2.9045     2075.1311 
163.068    460.8302   55.4555    18.2531    0.4398     2.9769     2088.1672 
163.2204   458.8512   56.6412    18.1591    0.4403     3.0159     2094.7969 
163.3728   457.6481   57.8266    18.0905    0.4341     3.0332     2092.4272 
163.5252   457.0693   58.7764    18.1044    0.4432     3.062      2090.8901 
163.6776   456.7861   59.5025    18.29      0.4453     3.0947     2094.9885 
163.83     456.4771   59.9674    18.3003    0.4369     3.0886     2100.314  
163.9824   456.1332   61.0443    18.1115    0.4455     3.0114     2102.0422 
164.1348   456.1258   62.1048    17.9268    0.4458     2.9084     2091.3948 
164.2872   457.3221   62.7098    17.6206    0.4328     2.7841     2075.5249 
164.4396   459.9972   62.8522    17.3405    0.429      2.6794     2062.0159 
164.592    463.692    62.4726    17.2451    0.4233     2.6163     2052.5771 
164.7444   467.1099   61.4571    17.1283    0.4324     2.5965     2048.2449 
164.8968   468.8802   59.964     17.2206    0.4389     2.6066     2046.8398 
165.0492   469.0306   59.1556    17.5432    0.4266     2.6343     2052.7786 
165.2016   467.9137   58.2355    18.0871    0.4192     2.6802     2063.8064 
165.354    466.2358   57.6362    18.8666    0.4148     2.7708     2074.9368 
165.5064   464.0867   57.1345    19.4342    0.4171     2.87       2084.0344 
165.6588   461.4676   56.3507    19.9774    0.4236     2.8973     2089.1594 
165.8112   458.2585   55.4037    20.6956    0.4284     2.8349     2089.4404 
165.9636   454.841    54.0354    21.5861    0.4331     2.6967     2082.3198 
166.116    448.2322   53.8313    22.6395    0.4318     2.5944     2070.6689 
166.2684   437.6547   54.2107    24.1275    0.4269     2.59       2063.7219 
166.4208   422.606    54.6606    25.4906    0.427      2.6555     2067.9836 
166.5732   405.4024   53.982     26.7761    0.4138     2.871      2116.6631 
166.7256   388.0791   53.3463    28.5259    0.3362     3.2101     2216.2546 
166.878    371.3748   54.2639    30.8391    0.2478     3.4131     2320.3455 
167.0304   362.0484   55.3042    28.8046    0.2797     3.3597     2348.7759 
167.1828   370.5725   55.9212    24.7297    0.3752     3.0828     2277.313  
167.3352   395.4779   57.2269    22.8245    0.4156     2.8294     2167.2566 
167.4876   425.3597   59.5251    21.6714    0.4247     2.7235     2086.9109 
167.64     447.1599   62.5834    20.4226    0.4247     2.6626     2059.3523 
167.7924   456.5082   64.7384    19.415     0.4203     2.6195     2053.1682 
167.9448   459.4171   64.9218    18.7902    0.4224     2.5887     2051.6204 
168.0972   460.1333   63.1509    18.214     0.4217     2.5728     2050.1311 
168.2496   459.447    60.1055    17.6426    0.4165     2.5618     2049.1008 
168.402    457.8358   56.9615    17.1575    0.4126     2.5809     2050.4397 
168.5544   455.9553   55.4809    17.0722    0.4118     2.64       2054.3821 
168.7068   453.9346   55.0442    17.0878    0.4115     2.6898     2061.8567 
168.8592   451.3297   54.2925    16.8822    0.4121     2.7067     2071.3682 
169.0116   447.7954   54.9182    16.6986    0.4138     2.692      2077.613  
169.164    444.1542   55.5281    16.8668    0.4198     2.6671     2079.4739 
169.3164   442.0943   56.5453    16.6011    0.4283     2.6404     2074.4204 
169.4688   442.3994   57.2547    16.1713    0.431      2.6075     2066.9797 
169.6212   444.4452   56.5281    15.9305    0.4294     2.5522     2059.4534 
169.7736   446.6009   54.7171    16.0142    0.4301     2.5077     2053.3809 
169.926    447.7543   53.7366    16.2974    0.4337     2.5141     2051.4956 
170.0784   446.7706   54.3148    16.454     0.4393     2.5585     2051.9646 
170.2308   445.1667   56.9576    16.8375    0.4482     2.5926     2054.8762 
170.3832   443.2784   59.3901    17.4274    0.4522     2.5937     2055.5361 
170.5356   438.5707   59.3372    18.149     0.4451     2.5819     2058.3831 
170.688    426.8006   57.3404    19.6077    0.4115     2.6774     2086.8    
170.8404   408.0867   53.5338    25.6945    0.3108     3.0346     2183.7185 
170.9928   384.1146   49.6017    51.6893    0.1986     3.5278     2351.7671 
171.1452   359.9302   44.9618    134.7525   0.1563     3.9427     2508.4709 
171.2976   337.0832   41.08      170.5333   0.1537     3.9969     2561.2366 
171.45     321.9195   41.399     85.65309999999999 0.1784     3.5717     2460.3838 
171.6024   325.1859   45.9428    37.5352    0.2491     3.0337     2287.5867 
171.7548   345.0988   52.1763    24.0675    0.3459     2.611      2145.0725 
171.9072   378.3373   57.0922    20.044     0.4077     2.4322     2063.2148 
