~Version
 VERS              .         2.0                           : CWLS LOG ASCII STANDARD - VERSION 2.0
 WRAP              .         NO                            : ONE LINE PER DEPTH STEP
 DLM               .         SPACE                         : DELIMITING CHARACTER(SPACE TAB OR COMMA)
~Well Information
#_______________________________________________________________________________
#
#PARAMETER_NAME    .UNIT     VALUE                         : DESCRIPTION
#_______________________________________________________________________________
STRT               .M        0.1524                        : First reference value
STOP               .M        325.6788                      : Last reference value
STEP               .M        0.1524                        : Step increment
NULL               .         -9999                         : Missing value
COMP               .                                       : Company
WELL               .         D                             : Well name
FLD                .                                       : Field
LOC                .                                       : Location
CNTY               .                                       : County
STAT               .                                       : State
CTRY               .                                       : Country
SRVC               .                                       : Service Company
DATE               .                                       : Date
API                .                                       : API number
~Parameter Information Block
#_______________________________________________________________________________
#
#PARAMETER_NAME    .UNIT     VALUE                         : DESCRIPTION
#_______________________________________________________________________________
SET                .         Logs                          : 
TLFamily_DEPT      .         Measured Depth                : 
TLFamily_DT        .         Compressional Slowness        : 
TLFamily_GR        .         Gamma Ray                     : 
TLFamily_ILD       .         Resistivity - Deep            : 
TLFamily_NPOR_LIM  .         Thermal Neutron Porosity Limestone: 
TLFamily_PEF       .         Photoelectric Factor          : 
TLFamily_RHO       .         Bulk Density                  : 
~Curve Information
#_______________________________________________________________________________
#
#LOGNAME           .UNIT     LOG_ID                        : DESCRIPTION
#_______________________________________________________________________________
DEPT               .M                                      : Depth 
DT                 .US/M                                   : Compressional Slowness 
GR                 .GAPI                                   : MGS Gamma Ray 
ILD                .OHMM                                   : Array Ind. One Res 85 
NPOR_LIM           .V/V                                    : Lmst Neutron Por. (PEN) 
PEF                .B/E                                    : PE 
RHO                .K/M3                                   : Compensated Density 
~Ascii
# ...
264.7188   433.8018   65.1644    18.8913    0.4065     2.0478     2187.8413 
264.8712   446.5687   58.7392    24.427     0.4056     2.0112     2165.6584 
265.0236   459.2903   50.368     44.1996    0.3845     1.9716     2129.0327 
265.176    468.9008   42.577     97.9541    0.3352     1.9406     2088.1553 
265.3284   474.3839   37.2551    144.1916   0.3085     1.936      2059.9565 
265.4808   476.0002   35.2209    150.8278   0.3176     1.9296     2050.3997 
265.6332   474.8548   35.9448    123.1739   0.3471     1.91       2052.2039 
265.7856   472.1366   35.6709    113.5945   0.3585     1.894      2057.4922 
265.938    468.9033   34.7106    152.695    0.3367     1.8853     2062.8818 
266.0904   466.0496   33.6791    198.0686   0.3143     1.8755     2070.6492 
266.2428   463.7997   34.2252    214.3242   0.3037     1.8706     2081.6169 
266.3952   461.9489   35.9848    216.9319   0.2931     1.8768     2091.3293 
266.5476   459.9792   36.3048    220.8931   0.2859     1.8878     2096.335  
266.7      457.2695   35.5921    227.0659   0.288      1.8928     2096.5835 
266.8524   454.3376   35.0393    249.7332   0.297      1.8862     2093.501  
267.0048   451.7396   34.8857    263.9589   0.3035     1.8775     2091.1707 
267.1572   450.0952   35.4089    277.268    0.3082     1.8584     2091.2803 
267.3096   449.594    35.8903    286.9099   0.3136     1.8385     2091.2766 
267.462    449.8591   36.3005    303.1157   0.3195     1.822      2089.927  
267.6144   450.4723   37.3235    317.6287   0.3241     1.819      2087.6001 
267.7668   450.8726   37.7254    331.2193   0.3293     1.8324     2086.0964 
267.9192   450.9999   36.5279    340.9837   0.3365     1.8429     2084.9114 
268.0716   451.0896   33.9392    343.6163   0.3461     1.8485     2080.5012 
268.224    451.4097   32.4964    324.083    0.3669     1.8545     2072.7788 
268.3764   451.9156   33.9341    258.6459   0.3848     1.8723     2062.8032 
268.5288   452.2328   36.9838    163.6947   0.3941     1.8815     2058.2688 
268.6812   451.9841   38.4777    156.6057   0.4056     1.8746     2054.1125 
268.8336   451.0869   37.7338    253.9243   0.4011     1.856      2046.1033 
268.986    449.6194   35.7867    307.8689   0.3848     1.8499     2038.1949 
269.1384   447.9601   34.8031    318.9114   0.3801     1.8635     2034.2498 
269.2908   446.2984   35.2859    308.5611   0.3843     1.869      2034.4741 
269.4432   444.6929   37.2295    300.2721   0.3874     1.857      2034.8417 
269.5956   442.9417   39.6047    296.8815   0.3904     1.836      2034.0082 
269.748    440.8519   39.79      299.3209   0.3944     1.8276     2033.9075 
269.9004   438.3164   38.7702    292.7273   0.3932     1.8313     2035.5715 
270.0528   435.599    36.6891    291.1973   0.3925     1.8397     2035.9144 
270.2052   432.9893   35.4445    283.7105   0.3917     1.8501     2036.8475 
270.3576   430.6933   35.28      275.7575   0.3756     1.8583     2038.2683 
270.51     428.8876   34.893     263.6259   0.3604     1.8679     2035.0675 
270.6624   427.5259   34.1478    247.6799   0.3542     1.87       2031.7321 
270.8148   426.7474   33.3942    231.701    0.345      1.8593     2031.5348 
270.9672   426.4517   32.8845    211.9138   0.3412     1.8484     2032.1661 
271.1196   426.546    33.5123    194.2821   0.3435     1.8443     2034.126  
271.272    426.838    34.6401    180.4252   0.3404     1.8449     2035.0549 
271.4244   427.1411   35.3591    166.272    0.332      1.8408     2036.8441 
271.5768   427.4016   35.6262    151.6375   0.3243     1.8316     2038.0313 
271.7292   427.673    35.1296    136.2274   0.3195     1.8224     2038.9526 
271.8816   428.0901   34.7873    118.6588   0.3193     1.8152     2040.7681 
272.034    428.8314   34.6989    102.0738   0.3236     1.813      2038.7714 
272.1864   430.3827   35.7204    87.76649999999999 0.3322     1.8421     2036.7271 
272.3388   432.9745   39.0831    72.18770000000001 0.3483     1.9027     2040.2692 
272.4912   436.9782   45.9672    47.0086    0.3756     2.0631     2064.0076 
272.6436   441.398    60.4639    30.6281    0.3828     2.3301     2120.854  
272.796    444.8312   80.6709    10.4006    0.4112     2.5806     2190.7075 
272.9484   446.7635   99.2698    6.3031     0.5208     2.7588     2249.6714 
273.1008   446.8884   111.3302   5.8346     0.5992     2.8022     2284.2559 
273.2532   446.157    114.5311   5.8296     0.61       2.7904     2294.1611 
273.4056   444.6573   115.4629   6.0312     0.5995     2.7926     2297.4905 
273.558    442.2401   114.9058   6.0957     0.5832000000000001 2.7751     2301.8567 
273.7104   438.7553   112.7347   6.0912     0.5598     2.7435     2308.4346 
273.8628   434.8094   108.0364   6.2046     0.5253     2.6723     2303.7561 
274.0152   431.3717   96.5973    6.2801     0.5041     2.5063     2276.5303 
274.1676   429.4017   81.15860000000001 8.5021     0.4683     2.2867     2227.5417 
274.32     429.5649   64.7278    13.1123    0.3896     2.0903     2170.6541 
274.4724   431.9168   50.4352    15.2251    0.3445     1.9617     2124.3472 
274.6248   436.2381   40.7124    26.9447    0.3444     1.9122     2089.3931 
274.7772   441.5569   35.6509    51.3134    0.3334     1.9105     2062.4224 
274.9296   446.6676   35.8935    59.825     0.3197     2.0131     2050.7881 
275.082    450.3098   37.5844    46.2245    0.3261     2.1202     2054.9626 
275.2344   452.1103   37.5588    41.1208    0.3897     2.1437     2052.6787 
275.3868   452.2567   35.9217    45.1777    0.4529     2.0736     2032.7592 
275.5392   451.3718   33.2853    58.594     0.4362     1.9622     2012.2335 
275.6916   449.6944   30.6339    75.7739    0.3899     1.9148     2008.5961 
275.844    447.5639   29.1083    67.3081    0.3751     1.9215     2035.9558 
275.9964   445.3563   29.8941    62.6847    0.363      1.9542     2069.2017 
276.1488   443.354    32.4537    54.8764    0.3552     1.9745     2092.3274 
276.3012   441.7503   34.656     44.0609    0.367      1.976      2102.2336 
276.4536   440.481    35.776     68.28959999999999 0.3659     1.9761     2092.5986 
276.606    439.5613   36.5999    64.7321    0.3749     1.9857     2076.6785 
276.7584   438.9089   37.5167    65.88939999999999 0.3937     1.9948     2064.2324 
276.9108   438.3194   38.3098    59.7711    0.4168     2.0107     2053.3972 
277.0632   437.6231   38.6938    58.0463    0.4487     2.0094     2041.4736 
277.2156   436.8811   37.6027    90.7731    0.4405     1.9785     2028.2266 
277.368    436.3665   35.9478    138.7256   0.3969     1.9219     2020.0874 
277.5204   436.317    35.5655    186.304    0.3614     1.8765     2021.9919 
277.6728   436.5859   36.4698    185.9437   0.3566     1.8709     2026.6412 
277.8252   436.8051   37.1728    197.2106   0.3483     1.8655     2031.049  
277.9776   437.0629   36.2054    203.9125   0.3347     1.8496     2034.9187 
278.13     437.5865   34.5207    224.3023   0.3321     1.8474     2037.2104 
278.2824   438.5937   34.2577    197.1223   0.3279     1.8472     2035.9259 
278.4348   439.7347   35.7944    160.3692   0.3315     1.8464     2030.1984 
278.5872   440.2326   37.2072    123.1287   0.3462     1.8419     2024.1375 
278.7396   440.1274   38.166     93.3202    0.363      1.8402     2020.3976 
278.892    439.507    39.391     87.1748    0.3744     1.8506     2022.7289 
279.0444   438.5931   44.6735    74.229     0.3771     1.8709     2037.9753 
279.1968   437.2923   54.9418    58.3958    0.3751     1.9146     2066.21   
279.3492   435.6933   66.3329    33.6694    0.3786     1.9894     2105.5535 
279.5016   434.3351   74.6884    23.4895    0.4015     2.0609     2145.811  
279.654    433.7997   77.7129    22.3719    0.4302     2.0916     2172.5486 
279.8064   434.8064   77.9267    23.3807    0.4482     2.0883     2183.6445 
279.9588   437.2362   77.89619999999999 26.6072    0.4537     2.0717     2179.4636 
280.1112   440.8994   75.5175    29.0764    0.4505     2.0563     2164.7876 
280.2636   444.9902   69.4995    33.2809    0.451      2.0233     2129.1692 
280.416    448.9284   61.0877    34.4154    0.471      1.9681     2069.7346 
