~Version
 VERS              .         2.0                           : CWLS LOG ASCII STANDARD - VERSION 2.0
 WRAP              .         NO                            : ONE LINE PER DEPTH STEP
 DLM               .         SPACE                         : DELIMITING CHARACTER(SPACE TAB OR COMMA)
~Well Information
#_______________________________________________________________________________
#
#PARAMETER_NAME    .UNIT     VALUE                         : DESCRIPTION
#_______________________________________________________________________________
STRT               .m        60.3504                       : First reference value
STOP               .m        357.378                       : Last reference value
STEP               .m        0.1524                        : Step increment
NULL               .         -9999                         : Missing value
COMP               .                                       : Company
WELL               .         E                             : Well name
FLD                .                                       : Field
LOC                .                                       : Location
CNTY               .                                       : County
STAT               .                                       : State
CTRY               .                                       : Country
SRVC               .                                       : Service Company
DATE               .                                       : Date
API                .                                       : API number
~Parameter Information Block
#_______________________________________________________________________________
#
#PARAMETER_NAME    .UNIT     VALUE                         : DESCRIPTION
#_______________________________________________________________________________
SET                .         Inclination                   : 
TLFamily_C13       .         Caliper 1                     : 
TLFamily_C24       .         Caliper 2                     : 
TLFamily_DEVI      .         Hole Deviation                : 
TLFamily_GR        .         Gamma Ray                     : 
TLFamily_HAZI      .         Hole Azimuth                  : 
TLFamily_MD        .         Measured Depth                : 
TLFamily_P1AZ      .         Pad A Azimuth                 : 
TLFamily_RB        .         Relative Bearing              : 
~Curve Information
#_______________________________________________________________________________
#
#LOGNAME           .UNIT     LOG_ID                        : DESCRIPTION
#_______________________________________________________________________________
MD                 .m                                      :  
C13                .mm                                     : Caliper 1-3 
C24                .mm                                     : Caliper 2-4 
DEVI               .deg                                    : Deviation 
GR                 .gAPI                                   : Gamma Ray 
HAZI               .deg                                    : Hole Azimuth 
P1AZ               .deg                                    : Pad 1 Azimuth 
RB                 .deg                                    : Relative Bearing 
~Ascii
# ...
101.4984   208.8699   210.5283   0.2211304  88.06777   98.34558   224.4191   126.0757  
101.6508   211.5436   212.5356   0.2201843  89.83022   97.94397   223.196    125.2626  
101.8032   213.9202   214.9443   0.2170715  88.41051   97.81427   223.794    125.9853  
101.9556   215.7027   215.8476   0.211853   84.86163   97.92896   224.6326   126.7126  
102.108    216.8909   217.9553   0.2045593  82.88995   98.38757   224.1437   125.7554  
102.2604   219.4656   220.5648   0.1968079  84.15189   99.3573    221.3561   122.0031  
102.4128   224.6149   226.386    0.1895142  85.33488   100.5038   219.3465   118.8469  
102.5652   224.6149   224.8805   0.1854248  86.36018   101.3512   222.2484   120.9052  
102.7176   224.6149   223.9772   0.1818237  85.01934   102.7091   226.5637   123.8587  
102.87     222.2383   223.9772   0.1813965  85.33485   103.9078   225.1275   121.2138  
103.0224   222.2383   222.7728   0.1847839  83.75752   104.7592   221.4138   116.654   
103.1748   224.6149   226.386    0.1915588  83.6787    105.4738   220.1871   114.7084  
103.3272   224.6149   226.386    0.2008972  83.0477    105.8377   219.0748   113.2295  
103.4796   224.6149   226.386    0.2104492  82.89004   106.1004   218.252    112.1414  
103.632    224.6149   226.9882   0.2202454  84.78279   106.4899   219.4124   112.9337  
103.7844   224.6149   225.7838   0.2287292  85.25603   107.0617   218.5798   111.524   
103.9368   219.0695   220.9663   0.2348938  86.28125   107.7554   221.9055   114.1486  
104.0892   215.7027   214.9443   0.2385559  83.67849   108.2926   222.022    113.7181  
104.2416   213.326    213.1377   0.239563   86.75417   108.2926   219.8371   111.5452  
104.394    209.7612   211.0301   0.2391052  88.88366   107.687    218.5835   110.8967  
104.5464   206.7904   208.3202   0.2364502  92.03854   106.4293   217.7788   111.3544  
104.6988   206.7904   206.5137   0.2337341  91.60313   104.2935   218.2212   113.9269  
104.8512   206.7904   206.5137   0.2309265  95.12579   101.5835   218.3001   116.7094  
105.0036   206.7904   208.0191   0.2290649  96.43579   98.58051   217.8673   119.2746  
105.156    206.7904   208.3202   0.227478   99.24849   95.66068   216.8518   121.1844  
105.3084   207.3845   210.1268   0.2257996  96.90892   93.23172   216.3993   123.166   
105.4608   207.6816   209.8257   0.2242432  93.46959   91.55762   214.9649   123.4084  
105.6132   206.7904   208.9224   0.221283   89.59404   90.85406   213.9865   123.1338  
105.7656   210.9494   211.1304   0.2191772  80.83974   90.6644    213.9032   123.2336  
105.918    213.326    212.7363   0.2148743  79.5778    90.64383   213.1465   122.5007  
106.0704   213.326    214.3421   0.2105713  78.94665   90.81708   210.1077   119.2897  
106.2228   215.7027   214.9443   0.2062378  85.09822   91.08447   208.0317   116.9477  
106.3752   216.8909   217.6542   0.2025146  86.28116   91.09982   205.7397   114.6333  
106.5276   221.05     221.7692   0.199707   88.41075   90.80536   204.8139   114.0078  
106.68     224.6149   224.5794   0.1976929  86.83349   90.25406   204.7367   114.4913  
106.8324   224.6149   226.386    0.1965942  83.93935   89.63751   203.7185   114.0766  
106.9848   225.8033   228.1925   0.1958618  77.55114   89.24811   206.5677   117.3236  
107.1372   225.8033   228.1925   0.1956787  74.15977   89.22192   211.1936   121.9775  
107.2896   225.8033   228.1925   0.1957397  72.79517   89.81717   214.8539   125.0398  
107.442    224.6149   227.7911   0.1960449  71.45415   90.99097   215.0354   124.0531  
107.5944   225.011    227.5903   0.1968994  70.50773   92.60443   212.8519   120.2529  
107.7468   225.2091   226.9882   0.1983643  72.08501   94.56723   214.2152   119.6493  
107.8992   224.6149   226.386    0.2005615  75.39751   96.68698   215.1181   118.4287  
108.0516   224.6149   226.386    0.2030945  78.70993   98.7023    214.0375   115.3453  
108.204    224.6149   225.4827   0.2043762  78.07899   99.85632   213.532    113.6747  
108.3564   221.05     221.5685   0.207428   75.47648   101.0364   211.4324   110.3964  
108.5088   217.2871   218.156    0.2100525  69.79792   101.7844   211.7639   109.9872  
108.6612   215.7027   216.5502   0.2120972  63.3308    102.0471   212.0813   110.0289  
108.8136   215.7027   217.3531   0.2137146  59.62387   101.7166   212.3884   110.6739  
108.966    215.7027   216.7509   0.2153015  59.38728   101.1455   212.4381   111.2923  
109.1184   215.7027   214.9443   0.2164917  58.04655   100.3251   212.0342   111.7146  
109.2708   213.326    214.9443   0.217804   52.28922   99.27991   212.4527   113.1668  
109.4232   213.326    213.9407   0.2196045  46.03475   98.18796   212.8595   114.6754  
109.5756   210.0582   211.3312   0.2207336  44.62636   97.09009   213.7026   116.6146  
109.728    208.5728   210.1268   0.2217712  45.57294   96.01968   214.4457   118.4212  
109.8804   211.5436   212.5356   0.2209473  46.54325   94.91061   214.3481   119.4298  
110.0328   213.326    213.74     0.2184753  45.3147    93.63501   214.9051   121.2727  
110.1852   213.9202   214.9443   0.2134399  41.49893   92.31229   216.2627   123.9478  
110.3376   214.5144   214.9443   0.2058716  39.47242   90.71365   217.8589   127.1494  
110.49     215.7027   215.8476   0.1956482  38.2448    88.76569   221.0287   132.2659  
110.6424   216.8909   217.3531   0.188446   38.98468   87.52548   221.7391   134.2206  
110.7948   216.8909   218.8586   0.1759338  36.04263   84.97699   222.1612   137.1855  
110.9472   216.4949   216.9516   0.1634216  31.23173   82.18353   222.5784   140.3951  
111.0996   216.8909   217.6542   0.1517944  28.55023   79.22952   221.1977   141.9752  
111.252    218.0793   219.7619   0.1422119  28.94454   76.08405   221.268    145.1766  
111.4044   223.7237   223.9772   0.1349182  32.09917   73.62213   220.8546   147.2218  
111.5568   224.6149   225.1816   0.1298218  33.5976    71.63818   222.4633   150.8355  
111.7092   224.6149   224.9809   0.1265869  33.75534   70.41907   223.55     153.1397  
111.8616   224.6149   226.386    0.1249084  33.04551   69.75217   221.4147   151.6563  
112.014    224.6149   226.386    0.1246948  34.30733   69.41187   221.2062   151.8072  
112.1664   224.6149   226.386    0.1253662  33.83412   69.02863   222.5173   153.4822  
112.3188   224.6149   225.1816   0.1280212  32.25686   68.12497   224.2512   156.1231  
112.4712   224.6149   226.386    0.1339417  27.68258   66.25476   223.4723   157.2066  
112.6236   224.6149   226.386    0.1442871  28.31349   63.63184   225.2629   161.626   
112.776    224.6149   226.386    0.1614685  28.39234   60.34167   232.3461   172.0016  
112.9284   224.6149   226.386    0.1856079  30.75841   57.18454   237.88     180.7003  
113.0808   224.6149   225.7838   0.2168884  30.28522   54.6033    239.7362   185.1327  
113.2332   217.4851   219.3604   0.2407227  30.75838   53.09341   240.4467   187.3524  
113.3856   211.1475   211.9334   0.2814331  30.995     52.09525   239.7427   187.6459  
113.538    209.167    210.729    0.3247986  30.12746   51.87564   239.1659   187.2922  
113.6904   206.7904   208.9224   0.3686829  33.75545   52.33932   236.5277   184.1899  
113.8428   208.2758   209.5246   0.4105225  37.54106   53.21155   234.1295   180.918   
113.9952   205.6021   206.1122   0.4495544  42.47206   54.38052   231.1626   176.7847  
114.1476   206.7904   207.5173   0.4848328  43.02411   55.50882   231.6111   176.1033  
114.3      210.9494   211.3312   0.5174255  45.31121   56.56229   232.1889   175.6264  
114.4524   210.9494   211.6323   0.547699   47.63597   57.18457   235.8979   178.7125  
114.6048   210.9494   211.3312   0.5757751  46.68951   57.4194    238.1353   180.7159  
114.7572   210.0582   210.729    0.6030884  43.37717   57.0784    241.2984   184.2203  
114.9096   207.0875   208.9224   0.6301575  39.31358   56.30371   243.9434   187.6383  
115.062    206.7904   207.718    0.6575928  40.49659   55.26563   242.2444   186.9749  
115.2144   206.7904   210.1268   0.6850281  42.94142   54.06723   243.2633   189.1941  
