~Version
 VERS              .         2.0                           : CWLS LOG ASCII STANDARD - VERSION 2.0
 WRAP              .         NO                            : ONE LINE PER DEPTH STEP
 DLM               .         SPACE                         : DELIMITING CHARACTER(SPACE TAB OR COMMA)
~Well Information
#_______________________________________________________________________________
#
#PARAMETER_NAME    .UNIT     VALUE                         : DESCRIPTION
#_______________________________________________________________________________
STRT               .m        60.3504                       : First reference value
STOP               .m        357.378                       : Last reference value
STEP               .m        0.1524                        : Step increment
NULL               .         -9999                         : Missing value
COMP               .                                       : Company
WELL               .         E                             : Well name
FLD                .                                       : Field
LOC                .                                       : Location
CNTY               .                                       : County
STAT               .                                       : State
CTRY               .                                       : Country
SRVC               .                                       : Service Company
DATE               .                                       : Date
API                .                                       : API number
~Parameter Information Block
#_______________________________________________________________________________
#
#PARAMETER_NAME    .UNIT     VALUE                         : DESCRIPTION
#_______________________________________________________________________________
SET                .         Inclination                   : 
TLFamily_C13       .         Caliper 1                     : 
TLFamily_C24       .         Caliper 2                     : 
TLFamily_DEVI      .         Hole Deviation                : 
TLFamily_GR        .         Gamma Ray                     : 
TLFamily_HAZI      .         Hole Azimuth                  : 
TLFamily_MD        .         Measured Depth                : 
TLFamily_P1AZ      .         Pad A Azimuth                 : 
TLFamily_RB        .         Relative Bearing              : 
~Curve Information
#_______________________________________________________________________________
#
#LOGNAME           .UNIT     LOG_ID                        : DESCRIPTION
#_______________________________________________________________________________
MD                 .m                                      :  
C13                .mm                                     : Caliper 1-3 
C24                .mm                                     : Caliper 2-4 
DEVI               .deg                                    : Deviation 
GR                 .gAPI                                   : Gamma Ray 
HAZI               .deg                                    : Hole Azimuth 
P1AZ               .deg                                    : Pad 1 Azimuth 
RB                 .deg                                    : Relative Bearing 
~Ascii
# ...
184.7088   218.0793   219.1597   7.193634   48.27051   50.1156    301.1851   250.9298  
184.8612   218.0793   219.1597   7.2052     48.42822   50.15359   302.8715   252.5889  
185.0136   215.7027   216.7509   7.215576   48.05099   50.21606   302.8943   252.5484  
185.166    215.7027   216.7509   7.225067   46.31583   50.3027    302.9497   252.5167  
185.3184   215.7027   216.4498   7.232635   47.22451   50.41351   304.201    253.6642  
185.4708   215.7027   215.5465   7.237915   47.62233   50.54739   306.1277   255.4695  
185.6232   215.7027   216.7509   7.241394   47.69778   50.69608   307.3785   256.5792  
185.7756   215.7027   215.2454   7.244141   48.68195   50.85556   307.7357   256.7783  
185.928    214.5144   214.9443   7.246765   49.41575   51.01172   309.3311   258.2278  
186.0804   215.7027   216.1487   7.250641   48.51048   51.15207   308.9963   257.7491  
186.2328   212.4348   212.937    7.256348   49.01004   51.27487   310.7994   259.4419  
186.3852   207.1865   208.9224   7.263916   49.22266   51.37399   312.5304   261.0858  
186.5376   206.7904   208.3202   7.272766   50.12787   51.45181   311.9764   260.4491  
186.69     206.7904   208.3202   7.281677   46.98454   51.5061    311.4394   259.8532  
186.8424   210.0582   210.729    7.289093   46.39477   51.54105   311.7111   260.0915  
186.9948   213.7222   213.7399   7.293274   47.22468   51.5643    311.211    259.564   
187.1472   215.7027   216.7509   7.292572   49.39518   51.5817    308.9897   257.3087  
187.2996   217.8812   218.7582   7.285553   50.45119   51.59631   306.6725   254.9604  
187.452    217.7822   218.5575   7.27243    56.77774   51.60947   303.4259   251.6788  
187.6044   216.8909   217.052    7.254425   68.78977   51.61627   299.9271   248.1522  
187.7568   215.7027   216.7509   7.232452   79.65314   51.61697   301.8696   250.1066  
187.9092   215.7027   216.7509   7.208008   86.43582   51.60831   304.0671   252.3277  
188.0616   215.7027   216.7509   7.183807   87.86889   51.58997   303.2427   251.5175  
188.214    215.7027   214.9443   7.161499   90.96183   51.56049   303.072    251.3763  
188.3664   215.7027   216.1487   7.142914   92.77567   51.52252   303.072    251.415   
188.5188   216.8909   217.3531   7.129089   93.00214   51.48029   303.4747   251.8633  
188.6712   216.8909   217.3531   7.120575   92.14487   51.44855   304.4194   252.8465  
188.8236   216.8909   217.9553   7.116913   90.04642   51.43259   305.2583   253.707   
188.976    218.0793   219.1597   7.118561   90.49235   51.44431   305.3768   253.8141  
189.1284   217.6832   218.5575   7.123932   88.66515   51.4931    303.8217   252.1998  
189.2808   216.8909   217.052    7.133331   90.13283   51.58282   301.0938   249.3647  
189.4332   215.7027   216.3495   7.144897   86.44316   51.71933   298.788    246.9079  
189.5856   215.7027   215.5465   7.158447   81.09332   51.89658   298.6761   246.6165  
189.738    211.3456   212.1341   7.172791   74.64665   52.1069    298.8058   246.5347  
189.8904   208.5728   210.1268   7.187836   68.30989   52.34415   301.4252   248.9299  
190.0428   208.5728   210.1268   7.203247   68.49843   52.59628   301.7806   249.0329  
190.1952   207.3845   209.5246   7.219055   75.26045   52.85034   300.4152   247.4035  
190.3476   208.5728   210.1268   7.234833   86.19897   53.09537   301.1241   247.8694  
190.5      210.9494   211.9334   7.250732   96.10567   53.32654   301.1047   247.6167  
190.6524   210.9494   211.9334   7.266235   99.22594   53.53839   300.2383   246.5316  
190.8048   208.5728   210.1268   7.28125    102.0928   53.73297   299.3179   245.4098  
190.9572   208.5728   210.1268   7.295044   100.1997   53.91504   296.7299   242.6253  
191.1096   208.5728   210.1268   7.307098   98.54027   54.08734   294.2547   239.9653  
191.262    206.7904   208.3202   7.31723    94.05141   54.25485   292.6577   238.1934  
191.4144   207.0875   209.5246   7.327118   93.50634   54.48184   289.9396   235.238   
191.5668   206.7904   208.3202   7.332153   93.22857   54.64908   287.6933   232.8181  
191.7192   206.7904   208.3202   7.335144   94.92577   54.81433   286.5225   231.4791  
191.8716   206.7904   208.3202   7.337341   95.22784   54.97202   286.6451   231.4434  
192.024    206.7904   208.3202   7.339813   97.83041   55.11276   287.3466   232.0053  
192.1764   210.9494   211.3312   7.342224   99.71644   55.23892   287.4119   231.9442  
192.3288   213.326    213.74     7.346344   101.3003   55.34818   285.8896   230.3096  
192.4812   213.326    214.3421   7.352386   99.01325   55.44003   285.4379   229.7647  
192.6336   213.326    212.5356   7.360565   97.5801    55.52167   283.1183   227.3605  
192.786    211.5436   211.9334   7.370911   95.76624   55.60275   277.6731   221.8338  
192.9384   211.2465   212.2345   7.383179   95.42664   55.68817   271.1516   215.2381  
193.0908   212.7319   212.5356   7.396332   93.61606   55.78278   264.8914   208.9056  
193.2432   216.8909   217.3531   7.409943   90.45097   55.88904   259.382    203.3179  
193.3956   216.8909   217.3531   7.422058   90.79038   56.00705   257.5363   201.3652  
193.548    216.8909   217.9553   7.432556   89.05513   56.13254   257.3875   201.0923  
193.7004   217.4851   217.9553   7.440369   91.35256   56.26505   258.5456   202.111   
193.8528   218.0793   219.1597   7.445496   86.71317   56.3934    260.1898   203.6179  
194.0052   218.0793   219.7619   7.447968   84.601     56.51508   260.1204   203.4276  
194.1576   220.4559   221.5685   7.449249   80.89421   56.62845   259.3881   202.5871  
194.31     222.2383   222.1706   7.44989    79.61176   56.73251   258.8136   201.9124  
194.4624   222.2383   222.1706   7.451019   79.08376   56.82593   260.2054   203.2031  
194.6148   222.2383   223.9772   7.45401    79.47822   56.91547   260.7867   203.6919  
194.7672   220.1588   221.5685   7.459747   79.25191   57.00662   260.9847   203.7981  
194.9196   219.8617   219.7619   7.468933   82.11855   57.10428   263.4984   206.2002  
195.072    219.8617   221.5685   7.481079   82.35508   57.21298   264.3173   206.9061  
195.2244   218.0793   219.1597   7.495941   79.03579   57.33505   264.5883   207.0535  
195.3768   215.7027   217.163    7.512695   72.77439   57.46844   263.6709   206.0074  
195.5292   215.7027   215.7473   7.530396   65.9918    57.60849   261.4894   203.6976  
195.6816   215.7027   214.9443   7.548004   63.7286    57.75073   263.0976   205.1545  
195.834    215.1085   214.9443   7.564117   59.73026   57.89023   264.6183   206.5276  
195.9864   213.326    212.8366   7.578369   56.57554   58.01709   265.7502   207.5267  
196.1388   211.8407   212.5356   7.589996   51.89832   58.12683   267.8579   209.5145  
196.2912   213.326    214.1414   7.598846   49.99862   58.21436   268.6359   210.2015  
196.4436   213.9202   214.9443   7.605072   49.62486   58.28281   269.934    211.4254  
196.596    213.326    214.9443   7.608826   50.22845   58.3317    272.4744   213.9077  
196.7484   213.326    213.1377   7.609894   47.6019    58.36133   274.842    216.2387  
196.9008   206.7904   208.3202   7.608978   46.63494   58.37415   274.8327   216.2167  
197.0532   207.3845   208.6213   7.606598   48.59633   58.37579   271.7466   213.1385  
197.2056   213.326    213.3385   7.602997   51.3875    58.37436   272.0177   213.4103  
197.358    216.8909   217.3531   7.598755   51.30855   58.36676   277.8523   219.2377  
197.5104   218.0793   219.7619   7.594818   48.51738   58.36343   279.7052   221.0915  
197.6628   219.8617   220.9663   7.591614   47.4852    58.36252   281.382    222.7679  
197.8152   220.1588   221.5685   7.589996   47.70122   58.36163   282.3055   223.692   
197.9676   222.2383   222.1706   7.590332   49.36084   58.36237   286.2709   227.6575  
198.12     222.2383   222.5721   7.593292   46.92282   58.3645    284.2972   225.6804  
198.2724   222.2383   222.7728   7.599731   44.81059   58.36554   277.8633   219.2499  
198.4248   222.2383   222.7728   7.610016   44.01152   58.36646   274.5105   215.9032  
