~Version
 VERS              .         2.0                           : CWLS LOG ASCII STANDARD - VERSION 2.0
 WRAP              .         NO                            : ONE LINE PER DEPTH STEP
 DLM               .         SPACE                         : DELIMITING CHARACTER(SPACE TAB OR COMMA)
~Well Information
#_______________________________________________________________________________
#
#PARAMETER_NAME    .UNIT     VALUE                         : DESCRIPTION
#_______________________________________________________________________________
STRT               .m        60.3504                       : First reference value
STOP               .m        357.378                       : Last reference value
STEP               .m        0.1524                        : Step increment
NULL               .         -9999                         : Missing value
COMP               .                                       : Company
WELL               .         E                             : Well name
FLD                .                                       : Field
LOC                .                                       : Location
CNTY               .                                       : County
STAT               .                                       : State
CTRY               .                                       : Country
SRVC               .                                       : Service Company
DATE               .                                       : Date
API                .                                       : API number
~Parameter Information Block
#_______________________________________________________________________________
#
#PARAMETER_NAME    .UNIT     VALUE                         : DESCRIPTION
#_______________________________________________________________________________
SET                .         Inclination                   : 
TLFamily_C13       .         Caliper 1                     : 
TLFamily_C24       .         Caliper 2                     : 
TLFamily_DEVI      .         Hole Deviation                : 
TLFamily_GR        .         Gamma Ray                     : 
TLFamily_HAZI      .         Hole Azimuth                  : 
TLFamily_MD        .         Measured Depth                : 
TLFamily_P1AZ      .         Pad A Azimuth                 : 
TLFamily_RB        .         Relative Bearing              : 
~Curve Information
#_______________________________________________________________________________
#
#LOGNAME           .UNIT     LOG_ID                        : DESCRIPTION
#_______________________________________________________________________________
MD                 .m                                      :  
C13                .mm                                     : Caliper 1-3 
C24                .mm                                     : Caliper 2-4 
DEVI               .deg                                    : Deviation 
GR                 .gAPI                                   : Gamma Ray 
HAZI               .deg                                    : Hole Azimuth 
P1AZ               .deg                                    : Pad 1 Azimuth 
RB                 .deg                                    : Relative Bearing 
~Ascii
# ...
129.2352   212.9299   213.4389   2.160492   44.71794   63.04099   284.4685   221.4075  
129.3876   209.4641   211.3312   2.183075   44.32374   63.09274   286.9985   223.8859  
129.54     211.5436   212.5356   2.195679   41.87888   63.07086   288.7632   225.6709  
129.6924   213.029    212.8366   2.210724   39.82814   62.9523    291.8109   228.8368  
129.8448   216.4949   217.1524   2.219971   39.74914   62.72583   292.9888   230.2421  
129.9972   218.0793   219.1597   2.223206   40.99045   62.39279   294.6919   232.2783  
130.1496   218.0793   219.1597   2.221863   43.78465   61.98611   297.1476   235.1414  
130.302    219.8617   219.7619   2.217468   49.46325   61.56638   299.885    238.2996  
130.4544   218.0793   219.7619   2.211029   53.19062   61.1622    299.4956   238.3143  
130.6068   223.0305   223.1743   2.205109   55.01195   60.83249   300.1788   239.3285  
130.7592   224.6149   225.4827   2.200134   56.89722   60.60608   300.9194   240.2952  
130.9116   224.6149   225.7838   2.197876   59.97303   60.50766   299.0567   238.5297  
131.064    224.6149   226.386    2.198853   63.66957   60.50165   298.9327   238.4123  
131.2164   224.6149   226.386    2.203674   65.1756    60.5589    298.465    237.8866  
131.3688   224.6149   226.386    2.213409   68.40922   60.62207   297.2731   236.6315  
131.5212   224.6149   226.386    2.226715   72.40057   60.61682   297.2363   236.5989  
131.6736   224.6149   225.7838   2.243927   75.0032    60.53275   295.6189   235.0654  
131.826    224.6149   226.0849   2.263702   73.66236   60.35684   295.3637   234.9861  
131.9784   217.188    218.7582   2.277802   72.08523   60.18356   294.7293   234.525   
132.1308   212.7319   213.1377   2.300323   69.72593   59.82254   297.1734   237.33    
132.2832   208.5728   210.1268   2.322906   69.96266   59.39645   294.1143   234.696   
132.4356   206.7904   209.8257   2.34433    67.59657   58.92459   295.034    236.0874  
132.588    204.4138   205.9114   2.365112   69.71931   58.44559   294.8618   236.3943  
132.7404   206.7904   208.3202   2.38504    76.65942   57.97574   292.9078   234.9085  
132.8928   206.7904   209.9261   2.405212   86.83345   57.53238   291.77     234.2138  
133.0452   206.7904   208.3202   2.426422   95.19687   57.13898   291.7548   234.5918  
133.1976   206.7904   209.5246   2.449951   94.72369   56.7944    294.084    237.2664  
133.35     206.7904   210.1268   2.47644    86.08938   56.49445   296.8878   240.3701  
133.5024   206.7904   208.3202   2.506012   75.82965   56.24817   296.9558   240.6839  
133.6548   205.8992   208.3202   2.539368   67.94293   56.0368    297.1555   241.095   
133.8072   199.6606   205.9114   2.574158   70.34644   55.85654   298.8273   242.9471  
133.9596   197.284    204.1049   2.609985   71.53274   55.68137   298.6765   242.9711  
134.112    197.284    204.1049   2.644531   70.0344    55.5145    296.2707   240.7302  
134.2644   197.8781   204.1049   2.677338   63.3308    55.33841   295.7001   240.3348  
134.4168   199.6606   205.9114   2.706635   62.06905   55.15289   293.2423   238.06    
134.5692   202.0372   207.718    2.732391   63.74924   54.95154   290.684    235.7023  
134.7216   204.7108   208.3202   2.754364   68.48118   54.73633   291.0618   236.2948  
134.874    213.7222   212.937    2.772705   69.66426   54.5141    289.7329   235.188   
135.0264   215.7027   214.9443   2.783844   72.63721   54.35269   290.521    236.1367  
135.1788   216.2968   217.052    2.79895    70.50791   54.1088    291.3357   237.1956  
135.3312   215.7027   216.7509   2.813477   70.98108   53.85248   290.8393   236.9558  
135.4836   217.7822   218.2564   2.827667   69.00941   53.58719   290.5442   236.9243  
135.636    218.0793   219.4608   2.841614   67.51083   53.29919   289.3676   236.0353  
135.7884   224.6149   225.1816   2.855804   62.76157   52.9859    289.5638   236.5453  
135.9408   224.6149   226.386    2.870087   62.76147   52.65134   294.2497   241.5687  
136.0932   224.6149   226.386    2.883881   65.28532   52.29269   291.2584   238.9336  
136.2456   225.8033   226.386    2.89679    68.77267   51.9397    290.8162   238.8443  
136.398    225.8033   226.6871   2.909637   70.42883   51.58832   287.398    235.7756  
136.5504   225.8033   227.5903   2.92215    67.77817   51.27225   286.2347   234.9277  
136.7028   225.8033   226.9882   2.935028   62.41517   50.99496   286.0963   235.0662  
136.8552   225.011    226.9882   2.9487     52.47791   50.7836    286.6385   235.82    
137.0076   224.6149   226.9882   2.963959   45.50668   50.63486   289.3723   238.7027  
137.16     224.6149   226.386    2.980591   41.24783   50.55237   290.3529   239.7664  
137.3124   224.6149   226.386    2.999176   39.82821   50.52124   287.2599   236.7021  
137.4648   224.6149   224.8805   3.019958   41.89589   50.52396   284.7994   234.2377  
137.6172   219.8617   220.364    3.042114   46.24853   50.53738   292.1476   241.5766  
137.7696   218.0793   219.1597   3.065399   48.76202   50.54535   296.666    246.0906  
137.922    217.8812   219.7619   3.088562   47.79848   50.53342   301.7357   251.1766  
138.0744   216.8909   217.9553   3.111206   47.3102    50.48593   299.9451   249.4311  
138.2268   215.7027   215.5465   3.132538   50.47522   50.38205   296.3902   245.9765  
138.3792   213.326    213.5392   3.149994   54.57636   50.23145   296.2595   245.9956  
138.5316   210.3553   211.3312   3.16452    58.05347   50.04327   298.9735   248.901   
138.684    208.5728   210.4279   3.171783   60.77641   49.92096   300.0326   250.0829  
138.8364   210.9494   211.3312   3.179504   64.50376   49.71689   299.7183   249.973   
138.9888   211.2465   212.5356   3.182678   67.02063   49.52377   299.1475   249.5948  
139.1412   210.9494   211.5319   3.182159   69.73956   49.38116   299.3018   249.8919  
139.2936   208.5728   210.4279   3.173706   71.4539    49.27011   302.6562   253.3623  
139.446    208.5728   210.1268   3.167786   71.61179   49.30652   300.679    251.3461  
139.5984   207.0875   209.5246   3.16217    69.86996   49.3844    299.5427   250.1303  
139.7508   206.7904   209.9261   3.156982   72.31474   49.48602   301.1588   251.6475  
139.9032   210.3553   211.7326   3.152618   75.23949   49.57388   302.1397   252.5412  
140.0556   213.326    214.041    3.148865   76.4228    49.63226   299.1332   249.4723  
140.208    213.326    214.041    3.144623   79.34097   49.64767   298.2191   248.5421  
140.3604   215.1085   214.9443   3.139984   79.81434   49.61826   299.1024   249.4559  
140.5128   216.8909   217.3531   3.134369   79.18324   49.53964   300.4929   250.9264  
140.6652   218.9705   220.1702   3.127594   74.73906   49.41949   299.4901   250.0433  
140.8176   220.1588   221.5685   3.12085    73.31934   49.28922   298.2358   248.9185  
140.97     220.4559   221.5685   3.116394   71.97865   49.14783   297.2511   248.0738  
141.1224   224.6149   224.5794   3.115479   74.21449   49.01285   295.3675   246.3236  
141.2748   224.6149   226.386    3.11972    76.159     48.89505   299.7761   250.8549  
141.4272   224.6149   226.386    3.131165   81.75854   48.79614   304.6831   255.8668  
141.5796   224.6149   226.386    3.148865   86.49052   48.72418   307.7766   259.0364  
141.732    224.6149   225.1816   3.16449    91.80194   48.68076   309.4734   260.7787  
141.8844   216.6929   217.5538   3.192169   92.51191   48.64291   307.468    258.8082  
142.0368   208.5728   210.4279   3.224243   93.61609   48.62302   297.168    248.5139  
142.1892   206.7904   210.1268   3.258057   87.06994   48.62323   294.2931   245.6354  
142.3416   206.7904   207.1158   3.292664   75.56207   48.6405    295.5269   246.8522  
142.494    206.7904   207.2398   3.326935   61.0204    48.67981   297.0161   248.3033  
142.6464   204.7108   206.5137   3.36026    52.14606   48.73648   300.1826   251.4163  
142.7988   206.7904   207.718    3.392639   48.59003   48.81317   302.0305   253.1891  
142.9512   204.4138   207.718    3.423462   46.4118    48.9147    301.9832   253.04    
