~Version
 VERS              .         2.0                           : CWLS LOG ASCII STANDARD - VERSION 2.0
 WRAP              .         NO                            : ONE LINE PER DEPTH STEP
 DLM               .         SPACE                         : DELIMITING CHARACTER(SPACE TAB OR COMMA)
~Well Information
#_______________________________________________________________________________
#
#PARAMETER_NAME    .UNIT     VALUE                         : DESCRIPTION
#_______________________________________________________________________________
STRT               .m        60.3504                       : First reference value
STOP               .m        357.378                       : Last reference value
STEP               .m        0.1524                        : Step increment
NULL               .         -9999                         : Missing value
COMP               .                                       : Company
WELL               .         E                             : Well name
FLD                .                                       : Field
LOC                .                                       : Location
CNTY               .                                       : County
STAT               .                                       : State
CTRY               .                                       : Country
SRVC               .                                       : Service Company
DATE               .                                       : Date
API                .                                       : API number
~Parameter Information Block
#_______________________________________________________________________________
#
#PARAMETER_NAME    .UNIT     VALUE                         : DESCRIPTION
#_______________________________________________________________________________
SET                .         Inclination                   : 
TLFamily_C13       .         Caliper 1                     : 
TLFamily_C24       .         Caliper 2                     : 
TLFamily_DEVI      .         Hole Deviation                : 
TLFamily_GR        .         Gamma Ray                     : 
TLFamily_HAZI      .         Hole Azimuth                  : 
TLFamily_MD        .         Measured Depth                : 
TLFamily_P1AZ      .         Pad A Azimuth                 : 
TLFamily_RB        .         Relative Bearing              : 
~Curve Information
#_______________________________________________________________________________
#
#LOGNAME           .UNIT     LOG_ID                        : DESCRIPTION
#_______________________________________________________________________________
MD                 .m                                      :  
C13                .mm                                     : Caliper 1-3 
C24                .mm                                     : Caliper 2-4 
DEVI               .deg                                    : Deviation 
GR                 .gAPI                                   : Gamma Ray 
HAZI               .deg                                    : Hole Azimuth 
P1AZ               .deg                                    : Pad 1 Azimuth 
RB                 .deg                                    : Relative Bearing 
~Ascii
# ...
156.972    218.6734   219.7619   4.840576   46.61075   46.1424    331.1516   285.0607  
157.1244   216.0988   216.7509   4.865295   47.24166   46.16534   325.5963   279.4645  
157.2768   216.8909   217.3531   4.885956   45.51004   46.18655   322.7684   276.6056  
157.4292   215.7027   216.7509   4.902985   42.2766    46.20273   320.4453   274.2581  
157.5816   215.7027   216.5502   4.916595   42.43436   46.21274   319.3714   273.1702  
157.734    215.7027   216.7509   4.926788   42.98304   46.22247   319.0193   272.8073  
157.8864   215.7027   216.7509   4.936127   47.55716   46.23224   318.6061   272.3824  
158.0388   215.7027   215.5465   4.944519   49.52882   46.25061   320.1199   273.8836  
158.1912   215.7027   217.163    4.952911   53.58195   46.29398   319.6357   273.354   
158.3436   214.5144   214.9443   4.961121   53.96135   46.36008   318.4363   272.084   
158.496    213.326    213.74     4.968689   51.72214   46.46487   318.6208   272.164   
158.6484   214.5144   214.9443   4.975433   51.21809   46.60913   318.3075   271.7047  
158.8008   215.7027   216.7509   4.980377   47.76296   46.78326   318.0484   271.2701  
158.9532   215.7027   215.5465   4.983429   45.58559   46.97314   319.2044   272.2398  
159.1056   215.7027   215.2454   4.983765   44.20372   47.16348   320.4999   273.3492  
159.258    216.8909   217.3531   4.983398   43.17842   47.28818   319.9883   272.7106  
159.4104   218.0793   219.1597   4.979126   44.28259   47.45905   316.6373   269.1752  
159.5628   218.0793   219.7619   4.972443   43.14068   47.60452   312.1196   264.4947  
159.7152   218.0793   219.4608   4.963745   45.03356   47.72055   309.0305   261.2776  
159.8676   218.0793   219.1597   4.954132   47.71503   47.79987   306.4314   258.5901  
160.02     216.8909   217.3531   4.944763   47.42358   47.84619   304.5347   256.6406  
160.1724   216.8909   217.3531   4.936554   45.53072   47.8681    305.1789   257.2653  
160.3248   217.7822   219.1597   4.931824   45.29406   47.8624    311.4499   263.5639  
160.4772   216.8909   217.3531   4.931946   47.55716   47.83759   316.0152   268.1708  
160.6296   216.8909   217.1524   4.937744   53.80135   47.7966    314.9798   267.1729  
160.782    219.8617   220.6651   4.949249   60.66308   47.73087   313.4273   265.6804  
160.9344   216.5939   217.052    4.966705   64.68535   47.65134   314.9101   267.2484  
161.0868   212.7319   213.1377   4.989044   68.85174   47.56683   315.804    268.2305  
161.2392   206.7904   208.3202   5.015686   71.69077   47.474     313.1836   265.6933  
161.3916   206.7904   208.3202   5.045715   71.37526   47.37683   306.6796   259.2621  
161.544    206.7904   208.9224   5.077393   67.03751   47.27298   303.3174   255.9918  
161.6964   206.7904   207.718    5.109924   56.64416   47.16986   299.6917   252.4565  
161.8488   206.7904   207.5173   5.143707   50.2559    47.07242   294.4958   247.3412  
162.0012   206.7904   208.3202   5.178223   44.41967   46.9884    291.8422   244.7633  
162.1536   206.7904   206.5137   5.212738   45.82208   46.92593   290.0244   243.0027  
162.306    206.7904   207.1158   5.246887   47.5572    46.88559   288.1496   241.1625  
162.4584   206.7904   208.3202   5.279602   51.34281   46.87805   286.6464   239.6623  
162.6108   206.7904   208.3202   5.309967   53.93861   46.90582   288.2809   241.2713  
162.7632   206.7904   208.3202   5.336975   55.43699   46.95822   289.0829   242.0217  
162.9156   206.7904   207.718    5.353149   54.64837   46.99979   289.1848   242.0815  
163.068    206.7904   208.3202   5.373047   51.55537   47.06497   290.7929   243.6277  
163.2204   208.9689   210.729    5.389374   50.62622   47.12119   294.2246   247.0123  
163.3728   211.5436   212.5356   5.401825   49.20657   47.15427   296.5911   249.3527  
163.5252   216.8909   217.3531   5.41095    48.75405   47.16043   294.1207   246.8679  
163.6776   218.0793   219.1597   5.417938   48.15048   47.13419   292.4635   245.2318  
163.83     218.0793   219.1597   5.423096   47.91386   47.07501   293.3913   246.2215  
163.9824   218.0793   219.1597   5.427734   49.04531   46.99121   293.3431   246.2572  
164.1348   219.8617   220.9663   5.431885   48.5276    46.89786   291.254    244.2556  
164.2872   224.6149   225.1816   5.436707   48.96989   46.80356   290.8163   243.9106  
164.4396   224.6149   226.386    5.442535   45.63355   46.72177   293.7587   246.9438  
164.592    224.6149   226.386    5.450531   45.69864   46.65247   295.6587   248.9192  
164.7444   224.6149   226.386    5.46167    48.94258   46.59503   294.8578   248.1731  
164.8968   224.6149   226.386    5.47699    56.35624   46.55148   297.9446   251.3136  
165.0492   224.6149   226.386    5.497772   60.50537   46.51675   297.4853   250.8869  
165.2016   224.6149   226.386    5.523529   57.84446   46.48666   295.2948   248.7181  
165.354    224.6149   226.386    5.553741   52.40924   46.4577    294.3785   247.8267  
165.5064   224.6149   226.0849   5.586853   46.4599    46.43088   293.1244   246.5944  
165.6588   223.4267   223.375    5.62146    47.15929   46.40771   293.7183   247.2122  
165.8112   215.7027   216.4498   5.654816   51.23308   46.39438   292.8763   246.3795  
165.9636   211.5436   212.5356   5.685303   54.76842   46.3923    293.627    247.1337  
166.116    213.029    212.5356   5.710999   55.17319   46.3963    293.3684   246.8691  
166.2684   211.8407   212.5356   5.731964   49.96787   46.40088   292.935    246.4291  
166.4208   215.7027   215.8476   5.748749   49.0351    46.3938    292.6524   246.1522  
166.5732   213.7222   214.6432   5.761505   48.10233   46.36829   292.2399   245.763   
166.7256   208.5728   210.1268   5.773041   50.01578   46.31464   293.3507   246.9311  
166.878    210.9494   212.5356   5.784393   50.26962   46.22955   297.0681   250.7478  
167.0304   206.7904   208.7217   5.796814   53.72612   46.12225   299.5068   253.3038  
167.1828   206.3943   207.1158   5.812225   59.43197   46.00372   300.3969   254.3165  
167.3352   206.7904   208.3202   5.823608   66.07056   45.93021   299.6396   253.6295  
167.4876   211.5436   212.8366   5.841827   69.61966   45.83426   300.6211   254.7112  
167.64     214.5144   214.7436   5.860596   71.8828    45.77499   301.3552   255.5078  
167.7924   215.7027   214.9443   5.877808   72.48298   45.75955   302.3622   256.5345  
167.9448   216.8909   217.3531   5.891754   73.39846   45.78671   302.8889   257.0359  
168.0972   218.0793   219.1597   5.90094    70.00375   45.85098   304.0334   258.1212  
168.2496   218.0793   219.1597   5.905151   62.38781   45.94043   302.5519   256.5427  
168.402    215.7027   216.4498   5.903992   56.1092    46.03992   301.1202   255.0042  
168.5544   211.8407   212.5356   5.897919   52.71455   46.13153   301.9206   255.7164  
168.7068   208.7709   210.5283   5.888458   53.99704   46.20523   301.4771   255.1973  
168.8592   216.5939   217.052    5.876892   53.60279   46.25604   299.6445   253.3055  
169.0116   222.2383   222.1706   5.865509   51.79227   46.28006   296.766    250.3912  
169.164    222.2383   222.7728   5.855621   52.54664   46.28461   293.6487   247.2575  
169.3164   222.2383   222.4717   5.84964    51.60016   46.27219   286.9571   240.5571  
169.4688   219.8617   220.9663   5.848755   53.18425   46.25446   286.3825   239.9988  
169.6212   218.0793   219.1597   5.85437    51.74402   46.24695   290.0822   243.7164  
169.7736   218.0793   219.1597   5.867157   48.95284   46.26111   290.9683   244.5907  
169.926    218.0793   219.4608   5.888184   46.73771   46.3093    287.4275   240.9899  
170.0784   219.8617   221.5685   5.916687   45.46215   46.39917   283.736    237.1977  
170.2308   219.0695   219.9626   5.951599   46.67596   46.5267    282.1232   235.4519  
170.3832   215.7027   216.4498   5.991364   46.02443   46.69006   283.1474   236.3124  
170.5356   210.9494   211.6323   6.033875   45.01278   46.88422   280.6205   233.5845  
170.688    206.7904   207.9187   6.076569   44.02522   47.09564   277.2008   229.9462  
