~Version
 VERS              .         2.0                           : CWLS LOG ASCII STANDARD - VERSION 2.0
 WRAP              .         NO                            : ONE LINE PER DEPTH STEP
 DLM               .         SPACE                         : DELIMITING CHARACTER(SPACE TAB OR COMMA)
~Well Information
#_______________________________________________________________________________
#
#PARAMETER_NAME    .UNIT     VALUE                         : DESCRIPTION
#_______________________________________________________________________________
STRT               .m        60.3504                       : First reference value
STOP               .m        357.378                       : Last reference value
STEP               .m        0.1524                        : Step increment
NULL               .         -9999                         : Missing value
COMP               .                                       : Company
WELL               .         E                             : Well name
FLD                .                                       : Field
LOC                .                                       : Location
CNTY               .                                       : County
STAT               .                                       : State
CTRY               .                                       : Country
SRVC               .                                       : Service Company
DATE               .                                       : Date
API                .                                       : API number
~Parameter Information Block
#_______________________________________________________________________________
#
#PARAMETER_NAME    .UNIT     VALUE                         : DESCRIPTION
#_______________________________________________________________________________
SET                .         Inclination                   : 
TLFamily_C13       .         Caliper 1                     : 
TLFamily_C24       .         Caliper 2                     : 
TLFamily_DEVI      .         Hole Deviation                : 
TLFamily_GR        .         Gamma Ray                     : 
TLFamily_HAZI      .         Hole Azimuth                  : 
TLFamily_MD        .         Measured Depth                : 
TLFamily_P1AZ      .         Pad A Azimuth                 : 
TLFamily_RB        .         Relative Bearing              : 
~Curve Information
#_______________________________________________________________________________
#
#LOGNAME           .UNIT     LOG_ID                        : DESCRIPTION
#_______________________________________________________________________________
MD                 .m                                      :  
C13                .mm                                     : Caliper 1-3 
C24                .mm                                     : Caliper 2-4 
DEVI               .deg                                    : Deviation 
GR                 .gAPI                                   : Gamma Ray 
HAZI               .deg                                    : Hole Azimuth 
P1AZ               .deg                                    : Pad 1 Azimuth 
RB                 .deg                                    : Relative Bearing 
~Ascii
# ...
170.8404   205.0079   206.5137   6.117554   45.15681   47.31055   275.4483   227.975   
170.9928   204.4138   206.5137   6.155396   47.4508    47.51959   273.8377   226.1527  
171.1452   204.4138   206.5137   6.189484   49.54261   47.71683   272.0795   224.1952  
171.2976   206.7904   207.718    6.219482   50.59885   47.9035    271.1592   223.0869  
171.45     206.7904   208.3202   6.245941   50.03991   48.07404   270.4477   222.2038  
171.6024   206.7904   209.2235   6.269104   50.96566   48.22974   270.2853   221.8848  
171.7548   206.7904   208.3202   6.290009   51.55883   48.36603   271.5733   223.0345  
171.9072   208.5728   210.1268   6.308838   52.41961   48.48331   273.145    224.4877  
172.0596   210.9494   211.3312   6.324829   53.3867    48.5766    274.6169   225.8656  
172.212    211.5436   211.6323   6.339478   53.77415   48.64343   273.7127   224.8936  
172.3644   211.5436   212.1341   6.351929   53.47228   48.67923   269.8494   220.9953  
172.5168   216.4949   217.3531   6.362427   48.50362   48.6879    270.9427   222.0788  
172.6692   218.9705   219.7619   6.372345   46.01414   48.67023   278.3483   229.5027  
172.8216   224.3179   223.9772   6.378235   46.79597   48.65149   279.9109   231.0856  
172.974    224.6149   223.9772   6.388641   48.60981   48.6221    281.0135   232.219   
173.1264   222.2383   222.7728   6.399719   50.9484    48.6001    281.5423   232.7699  
173.2788   222.2383   222.1706   6.412079   47.67717   48.59061   278.83     230.0625  
173.4312   222.2383   222.7728   6.425964   47.20402   48.60297   279.5228   230.7429  
173.5836   222.2383   222.7728   6.44104    45.99697   48.64432   278.6652   229.8424  
173.736    221.6442   221.5685   6.456299   43.2744    48.72079   278.2417   229.341   
173.8884   220.4559   221.5685   6.471222   42.01253   48.82559   278.8755   229.8694  
174.0408   220.7529   221.5685   6.484741   39.67058   48.9566    276.2429   227.103   
174.1932   221.8422   221.5685   6.496429   40.28083   49.1062    271.3061   222.0165  
174.3456   219.8617   221.5685   6.506592   37.79139   49.26831   269.7226   220.2715  
174.498    219.8617   219.7619   6.514069   37.49303   49.43304   267.9915   218.3776  
174.6504   219.8617   219.7619   6.520172   37.90798   49.58481   268.5284   218.762   
174.8028   219.8617   220.364    6.524872   39.19036   49.72067   270.3105   220.4059  
174.9552   218.0793   219.7619   6.529388   39.33086   49.82883   273.3573   223.3422  
175.1076   218.0793   219.1597   6.534241   40.80193   49.90067   273.839    223.7518  
175.26     218.0793   219.3604   6.539734   43.11325   49.93292   271.8839   221.765   
175.4124   218.0793   219.7619   6.546814   44.1798    49.94095   266.814    216.6933  
175.5648   218.0793   219.7619   6.555573   43.57629   49.9238    263.1826   213.0867  
175.7172   218.0793   219.7619   6.565338   43.22638   49.89481   264.4514   214.3807  
175.8696   218.0793   219.1597   6.576935   40.6614    49.86542   266.3083   216.2621  
176.022    218.0793   219.1597   6.589508   40.58248   49.84866   269.5071   219.4722  
176.1744   218.0793   219.1597   6.603149   39.90353   49.84625   270.5942   220.5595  
176.3268   218.0793   219.1597   6.616943   42.99652   49.8714    271.3558   221.2946  
176.4792   218.0793   219.1597   6.630341   43.37719   49.92642   270.6896   220.573   
176.6316   218.0793   219.1597   6.643158   42.74976   50.00821   270.011    219.8128  
176.784    218.0793   218.5575   6.654144   40.33577   50.10803   267.809    217.5139  
176.9364   218.0793   219.1597   6.662048   40.82272   50.21378   265.3224   214.9262  
177.0888   218.0793   219.1597   6.665588   40.92212   50.2825    264.6057   214.1423  
177.2412   219.8617   219.7619   6.66745    42.84573   50.37262   263.376    212.826   
177.3936   219.8617   221.5685   6.6651     42.05702   50.42633   261.7934   211.1946  
177.546    219.8617   221.5685   6.659454   42.90401   50.42392   260.6245   210.0322  
177.6984   220.6539   221.5685   6.650574   43.54526   50.36163   262.9979   212.4607  
177.8508   222.2383   222.1706   6.640472   44.29959   50.24109   266.0889   215.6649  
178.0032   222.2383   222.4717   6.630066   42.321     50.06314   269.8593   219.6071  
178.1556   219.8617   221.5685   6.620483   40.41799   49.84995   269.3035   219.2655  
178.308    219.6637   219.7619   6.612793   43.21275   49.62164   270.2984   220.4876  
178.4604   217.7822   219.1597   6.606506   45.92856   49.40192   271.2029   221.6114  
178.6128   215.7027   215.2454   6.601624   47.30357   49.20944   271.3106   221.9115  
178.7652   211.5436   212.5356   6.597107   46.04158   49.065     268.2126   218.9615  
178.9176   215.1085   214.9443   6.593048   46.94687   48.9646    264.4025   215.2585  
179.07     215.7027   216.1487   6.590057   49.59407   48.90378   259.9621   210.8906  
179.2224   214.9105   214.9443   6.588287   47.68418   48.87857   256.7876   207.7523  
179.3748   215.7027   215.2454   6.588013   45.80511   48.87347   254.694    205.6719  
179.5272   215.7027   215.1451   6.59198    44.6666    48.88251   256.6013   207.5625  
179.6796   215.7027   215.5465   6.601593   45.70901   48.89255   255.4167   206.3719  
179.832    215.1085   215.2454   6.617584   47.28627   48.90561   252.7249   203.678   
179.9844   215.1085   214.9443   6.639618   47.21091   48.92563   258.0486   208.9591  
180.1368   211.2465   211.9334   6.667145   46.50097   48.95502   266.6834   217.5405  
180.2892   206.3943   207.1158   6.698578   46.42555   48.99881   271.2699   222.0759  
180.4416   204.4138   206.2126   6.732025   47.70803   49.06088   269.8622   220.6054  
180.594    206.7904   206.5137   6.765411   49.75875   49.138     268.1074   218.7735  
180.7464   206.7904   208.0191   6.796967   50.21149   49.22757   267.7253   218.3011  
180.8988   206.7904   208.3202   6.82486    49.3816    49.32654   267.8538   218.3288  
181.0512   206.7904   208.3202   6.848816   47.88311   49.4274    268.1928   218.5651  
181.2036   206.7904   206.5137   6.86911    48.4111    49.52084   270.376    220.651   
181.356    206.7904   206.7144   6.886383   48.03393   49.59821   270.6554   220.8517  
181.5084   206.7904   208.3202   6.901978   47.90359   49.66144   270.2096   220.3425  
181.6608   206.7904   206.9151   6.916534   46.36732   49.70682   269.528    219.6155  
181.8132   206.7904   207.718    6.930817   47.80065   49.73569   270.9994   221.0554  
181.9656   206.7904   207.1158   6.946655   49.15854   49.74524   272.1652   222.2097  
182.118    208.8699   210.729    6.963989   51.67546   49.74243   274.7838   224.8293  
182.2704   211.3456   212.5356   6.982635   49.56658   49.7327    275.4488   225.5028  
182.4228   214.2173   214.6432   7.00235    51.30165   49.71713   277.8276   227.8973  
182.5752   214.5144   214.9443   7.022522   50.44101   49.69974   282.1519   232.2436  
182.7276   213.326    213.74     7.049561   52.02179   49.68826   284.1551   234.2611  
182.88     214.5144   214.9443   7.060516   48.92883   49.6915    284.0616   234.1633  
183.0324   217.2871   217.7546   7.082489   46.99832   49.71597   287.2125   237.2974  
183.1848   222.2383   223.0739   7.095459   44.28251   49.75052   288.7905   238.8452  
183.3372   222.2383   223.5757   7.106445   44.73515   49.80157   288.619    238.6214  
183.4896   222.2383   221.5685   7.115875   47.07369   49.86011   286.9628   236.9003  
183.642    219.8617   221.5685   7.124664   47.73549   49.91891   286.7281   236.6054  
183.7944   219.8617   220.7655   7.132782   45.77417   49.97314   287.1933   237.0172  
183.9468   219.8617   219.7619   7.141205   42.60569   50.01712   287.0277   236.8066  
184.0992   218.0793   219.1597   7.150177   42.68455   50.04846   287.3018   237.0493  
184.2516   218.0793   217.9553   7.15976    42.98631   50.06912   288.7279   238.4593  
184.404    218.0793   217.9553   7.170471   44.48483   50.08081   288.6134   238.332   
184.5564   216.8909   217.5538   7.181763   45.25297   50.09406   293.4276   243.1521  
