~Version
 VERS              .         2.0                           : CWLS LOG ASCII STANDARD - VERSION 2.0
 WRAP              .         NO                            : ONE LINE PER DEPTH STEP
 DLM               .         SPACE                         : DELIMITING CHARACTER(SPACE TAB OR COMMA)
~Well Information
#_______________________________________________________________________________
#
#PARAMETER_NAME    .UNIT     VALUE                         : DESCRIPTION
#_______________________________________________________________________________
STRT               .m        60.3504                       : First reference value
STOP               .m        357.378                       : Last reference value
STEP               .m        0.1524                        : Step increment
NULL               .         -9999                         : Missing value
COMP               .                                       : Company
WELL               .         E                             : Well name
FLD                .                                       : Field
LOC                .                                       : Location
CNTY               .                                       : County
STAT               .                                       : State
CTRY               .                                       : Country
SRVC               .                                       : Service Company
DATE               .                                       : Date
API                .                                       : API number
~Parameter Information Block
#_______________________________________________________________________________
#
#PARAMETER_NAME    .UNIT     VALUE                         : DESCRIPTION
#_______________________________________________________________________________
SET                .         Inclination                   : 
TLFamily_C13       .         Caliper 1                     : 
TLFamily_C24       .         Caliper 2                     : 
TLFamily_DEVI      .         Hole Deviation                : 
TLFamily_GR        .         Gamma Ray                     : 
TLFamily_HAZI      .         Hole Azimuth                  : 
TLFamily_MD        .         Measured Depth                : 
TLFamily_P1AZ      .         Pad A Azimuth                 : 
TLFamily_RB        .         Relative Bearing              : 
~Curve Information
#_______________________________________________________________________________
#
#LOGNAME           .UNIT     LOG_ID                        : DESCRIPTION
#_______________________________________________________________________________
MD                 .m                                      :  
C13                .mm                                     : Caliper 1-3 
C24                .mm                                     : Caliper 2-4 
DEVI               .deg                                    : Deviation 
GR                 .gAPI                                   : Gamma Ray 
HAZI               .deg                                    : Hole Azimuth 
P1AZ               .deg                                    : Pad 1 Azimuth 
RB                 .deg                                    : Relative Bearing 
~Ascii
# ...
267.9192   216.8909   217.6542   12.39926   75.56911   61.0957    245.228    184.0363  
268.0716   218.0793   220.0341   12.39001   78.30545   61.05014   241.7267   180.6608  
268.224    219.8617   220.364    12.38217   81.77541   60.99612   241.3652   180.3606  
268.3764   219.8617   221.5685   12.37476   75.28778   60.92352   242.4064   181.4486  
268.5288   219.8617   221.5685   12.37299   71.81767   60.87354   242.1942   181.2901  
268.6812   216.8909   217.3531   12.37418   67.59327   60.83664   240.6123   179.781   
268.8336   215.7027   215.8476   12.37943   68.80022   60.81244   238.6655   177.9028  
268.986    216.8909   217.5538   12.38742   67.64116   60.8046    237.9136   177.1762  
269.1384   217.4851   219.7619   12.39722   68.31997   60.80707   239.411    178.6365  
269.2908   217.089    217.5538   12.40765   68.92349   60.81854   240.0948   179.2933  
269.4432   216.8909   217.3531   12.41809   67.89465   60.83667   239.938    179.1225  
269.5956   216.8909   217.3531   12.42694   66.38599   60.85425   240.2386   179.3987  
269.748    217.4851   219.1597   12.43329   64.42459   60.87201   241.3114   180.4291  
269.9004   216.8909   217.3531   12.43704   70.81641   60.88309   242.6656   181.7406  
270.0528   215.7027   214.9443   12.43741   78.05843   60.88736   243.1656   182.2249  
270.2052   215.7027   214.9443   12.435     88.99062   60.88391   243.2585   182.319   
270.3576   215.7027   214.9443   12.43069   88.03062   60.87122   242.8836   181.9652  
270.51     215.7027   214.9443   12.4249    83.57297   60.85135   240.647    179.8004  
270.6624   214.1183   214.9443   12.41925   75.20553   60.82425   238.0244   177.2655  
270.8148   213.326    214.041    12.41443   72.26321   60.79239   236.779    176.0801  
270.9672   215.7027   215.5465   12.41129   68.19631   60.76044   236.0722   175.4209  
271.1196   214.5144   214.7436   12.41006   59.89817   60.73264   237.804    177.1397  
271.272    211.5436   212.5356   12.41077   54.46659   60.71069   237.5017   176.8659  
271.4244   210.9494   212.1341   12.41415   54.27472   60.69452   235.9064   175.3232  
271.5768   211.5436   212.5356   12.41763   59.80691   60.69232   237.6528   177.0314  
271.7292   210.3553   210.5283   12.42096   66.7749    60.69772   239.4911   178.8215  
271.8816   210.9494   211.3312   12.42294   76.1703    60.70938   241.0742   180.3562  
272.034    211.5436   212.5356   12.42328   79.84169   60.7215    242.472    181.7095  
272.1864   215.7027   215.2454   12.42175   77.02293   60.72864   242.8222   182.0446  
272.3388   216.8909   217.1524   12.4183    65.48077   60.7265    241.95     181.1949  
272.4912   216.8909   217.3531   12.41339   57.3334    60.71234   240.1298   179.4311  
272.6436   216.8909   217.3531   12.40771   57.18245   60.68506   238.2144   177.5871  
272.796    217.188    217.3531   12.40128   55.52286   60.64703   237.1644   176.5984  
272.9484   216.8909   217.3531   12.39578   53.55794   60.60001   237.3613   176.8365  
273.1008   216.8909   217.052    12.39209   49.10713   60.55109   237.1818   176.709   
273.2532   215.7027   215.2454   12.39096   52.12473   60.50397   235.3246   174.9406  
273.4056   216.8909   217.3531   12.39227   59.89841   60.46701   233.745    173.4332  
273.558    218.0793   219.1597   12.39667   61.40713   60.44138   233.0898   172.8179  
273.7104   217.7822   219.1597   12.4028    60.72816   60.42886   231.5613   171.3362  
273.8628   217.089    217.3531   12.40955   57.63518   60.43088   231.0321   170.8171  
274.0152   215.7027   216.7509   12.41635   58.08793   60.44034   233.0659   172.7962  
274.1676   215.7027   216.2613   12.42184   59.31893   60.45471   235.4418   175.1039  
274.32     213.326    214.3421   12.42462   56.30128   60.46899   236.6106   176.2316  
274.4724   211.5436   212.5356   12.42535   53.81173   60.47504   236.6493   176.2637  
274.6248   211.5436   212.5356   12.42398   54.16492   60.47064   236.8546   176.4684  
274.7772   212.1378   213.4389   12.4216    61.78434   60.44577   236.4755   176.1225  
274.9296   212.3358   212.5356   12.41895   71.21421   60.41705   234.8964   174.6078  
275.082    211.5436   212.5356   12.41669   80.64404   60.38409   233.3521   173.1307  
275.2344   213.326    213.74     12.41577   81.32304   60.35257   232.6714   172.4963  
275.3868   214.5144   214.9443   12.41605   75.66511   60.32968   232.8571   172.7003  
275.5392   215.3066   215.1451   12.41748   67.0652    60.31885   235.2032   175.0035  
275.6916   214.5144   215.3587   12.41931   66.76324   60.32495   237.3676   177.1117  
275.844    215.7027   214.9443   12.42114   73.4772    60.34735   237.2568   176.9816  
275.9964   214.5144   214.9443   12.42145   75.21227   60.38574   236.2923   176.002   
276.1488   212.1378   212.5356   12.42084   69.93167   60.42969   237.8866   177.5162  
276.3012   212.7319   212.937    12.418     63.89663   60.47549   238.6856   178.2519  
276.4536   212.9299   213.4389   12.41406   61.3317    60.51099   238.3087   177.8491  
276.606    210.9494   211.5319   12.4086    62.08615   60.52939   238.591    178.1069  
276.7584   213.326    214.1559   12.40204   59.82649   60.5238    239.9175   179.4078  
276.9108   214.5144   214.9443   12.39584   56.65802   60.49103   243.0726   182.5214  
277.0632   213.326    213.74     12.39026   52.73511   60.4361    244.2969   183.7712  
277.2156   214.1183   214.7436   12.38559   52.6563    60.36554   242.2701   181.8603  
277.368    214.5144   214.9443   12.38242   54.16508   60.28806   241.8798   181.5548  
277.5204   210.1572   211.8112   12.3819    58.31431   60.21338   245.3795   185.0466  
277.6728   208.5728   210.1268   12.38345   60.65277   60.15369   246.6927   186.3883  
277.8252   210.1572   210.729    12.39008   60.80371   60.10767   245.6435   185.4077  
277.9776   211.5436   212.5356   12.39722   54.6177    60.1059    244.2687   184.0659  
278.13     211.5436   212.5356   12.40631   46.77214   60.12866   243.1599   182.9606  
278.2824   212.4348   212.953    12.41614   39.68079   60.1702    244.1402   183.8775  
278.4348   213.326    213.74     12.42636   38.05574   60.21979   245.7351   185.3867  
278.5872   211.5436   212.2345   12.43524   36.09423   60.26926   245.9233   185.5221  
278.7396   210.9494   211.3312   12.44211   35.26445   60.30777   247.0059   186.5423  
278.892    213.326    212.8366   12.44601   34.24916   60.32959   246.1936   185.7272  
279.0444   213.326    213.5392   12.44724   39.98268   60.32858   246.9302   186.4477  
279.1968   213.326    213.4155   12.44571   46.84756   60.30637   249.8121   189.2863  
279.3492   211.5436   212.8366   12.44223   51.97738   60.26636   253.3463   192.783   
279.5016   211.5436   211.3312   12.43707   50.84566   60.21967   254.3771   193.8384  
279.654    213.326    213.74     12.43152   49.33688   60.17456   254.0626   193.5746  
279.8064   214.5144   214.9443   12.42755   51.82638   60.13879   253.5625   193.12    
279.9588   214.2173   214.9443   12.42468   53.18435   60.12366   254.0167   193.5798  
280.1112   213.326    212.937    12.42374   51.22293   60.13348   253.1813   192.7523  
280.2636   213.326    214.6432   12.42502   48.35615   60.16824   251.683    191.252   
280.416    215.5046   215.1451   12.42728   48.56361   60.22623   251.1866   190.7097  
280.5684   215.7027   215.2454   12.43076   52.71268   60.29822   250.2515   189.7244  
280.7208   214.5144   215.7731   12.43445   51.95839   60.40271   249.831    189.2112  
280.8732   215.7027   214.9443   12.43637   50.01574   60.47046   251.8983   191.1665  
281.0256   215.7027   214.9443   12.43536   49.18607   60.52237   254.0977   193.2683  
281.178    215.7027   214.9443   12.43219   49.56327   60.54926   255.095    194.2188  
281.3304   214.5144   214.9443   12.42603   52.50529   60.55444   255.28     194.3951  
281.4828   215.7027   214.9443   12.41852   52.7316    60.53647   256.4221   195.5321  
281.6352   214.5144   214.9443   12.41013   56.88078   60.50354   256.905    196.0381  
