~Version
 VERS              .         2.0                           : CWLS LOG ASCII STANDARD - VERSION 2.0
 WRAP              .         NO                            : ONE LINE PER DEPTH STEP
 DLM               .         SPACE                         : DELIMITING CHARACTER(SPACE TAB OR COMMA)
~Well Information
#_______________________________________________________________________________
#
#PARAMETER_NAME    .UNIT     VALUE                         : DESCRIPTION
#_______________________________________________________________________________
STRT               .m        60.3504                       : First reference value
STOP               .m        357.378                       : Last reference value
STEP               .m        0.1524                        : Step increment
NULL               .         -9999                         : Missing value
COMP               .                                       : Company
WELL               .         E                             : Well name
FLD                .                                       : Field
LOC                .                                       : Location
CNTY               .                                       : County
STAT               .                                       : State
CTRY               .                                       : Country
SRVC               .                                       : Service Company
DATE               .                                       : Date
API                .                                       : API number
~Parameter Information Block
#_______________________________________________________________________________
#
#PARAMETER_NAME    .UNIT     VALUE                         : DESCRIPTION
#_______________________________________________________________________________
SET                .         Inclination                   : 
TLFamily_C13       .         Caliper 1                     : 
TLFamily_C24       .         Caliper 2                     : 
TLFamily_DEVI      .         Hole Deviation                : 
TLFamily_GR        .         Gamma Ray                     : 
TLFamily_HAZI      .         Hole Azimuth                  : 
TLFamily_MD        .         Measured Depth                : 
TLFamily_P1AZ      .         Pad A Azimuth                 : 
TLFamily_RB        .         Relative Bearing              : 
~Curve Information
#_______________________________________________________________________________
#
#LOGNAME           .UNIT     LOG_ID                        : DESCRIPTION
#_______________________________________________________________________________
MD                 .m                                      :  
C13                .mm                                     : Caliper 1-3 
C24                .mm                                     : Caliper 2-4 
DEVI               .deg                                    : Deviation 
GR                 .gAPI                                   : Gamma Ray 
HAZI               .deg                                    : Hole Azimuth 
P1AZ               .deg                                    : Pad 1 Azimuth 
RB                 .deg                                    : Relative Bearing 
~Ascii
# ...
323.3928   219.8617   219.7619   12.57498   28.8175    62.78766   166.2059   103.7358  
323.5452   217.4851   219.1597   12.58133   27.53507   62.78046   166.6125   104.1588  
323.6976   217.4851   219.1597   12.58472   29.19464   62.79086   166.4689   104.0016  
323.85     217.4851   219.7619   12.58594   29.01246   62.81778   167.1273   104.6468  
324.0024   215.7027   216.7509   12.58569   32.1809    62.85565   167.4439   104.9316  
324.1548   213.326    214.9443   12.58472   38.14063   62.89862   165.6602   103.0651  
324.3072   211.5436   212.8138   12.5842    45.71597   62.94009   165.1801   102.5319  
324.4596   211.5436   212.7126   12.58429   52.30431   62.98468   164.0512   101.3319  
324.612    210.9494   211.3312   12.58698   54.79381   62.99857   162.8784   100.118   
324.7644   211.5436   212.2345   12.59201   56.75514   63.00131   163.7696   101.0273  
324.9168   213.326    213.74     12.59821   55.59841   62.98846   164.4413   101.7277  
325.0692   213.326    213.74     12.60522   50.09136   62.96564   163.8177   101.1136  
325.2216   213.326    214.1559   12.61212   45.18785   62.94067   163.616    100.9329  
325.374    213.326    214.0172   12.6188    44.81066   62.91925   163.8351   101.1794  
325.5264   214.5144   215.2206   12.62457   48.58259   62.90717   164.6156   101.9901  
325.6788   214.5144   214.9443   12.62933   48.80896   62.90561   165.952    103.3584  
325.8312   214.5144   215.2206   12.6326    50.3177    62.91754   167.3715   104.7969  
325.9836   214.5144   214.9443   12.63486   52.73174   62.94061   167.8124   105.2239  
326.136    213.5241   214.9443   12.63586   56.35281   62.97046   168.7421   106.143   
326.2884   214.5144   214.9443   12.63599   54.84394   63.00372   170.1314   107.5271  
326.4408   215.7027   216.5616   12.63474   50.75776   63.04413   172.9277   110.337   
326.5932   215.7027   216.7509   12.63562   48.04185   63.05957   175.187    112.6219  
326.7456   215.7027   216.7509   12.63687   46.68406   63.06464   175.8397   113.2808  
326.898    215.7027   217.0256   12.63855   46.62112   63.06137   176.8873   114.3496  
327.0504   215.7027   216.4498   12.64047   49.56333   63.05069   178.1514   115.6451  
327.2028   214.5144   215.3587   12.64212   53.71239   63.03757   177.4424   114.9383  
327.3552   213.7222   215.2206   12.64465   58.31412   63.02048   175.1054   112.5793  
327.5076   213.326    215.3587   12.64679   56.6922    63.00833   173.5414   110.9995  
327.66     212.3358   212.8366   12.6496    52.46765   63.00223   171.151    108.5695  
327.8124   213.326    213.74     12.65326   45.22545   63.00497   169.2787   106.6567  
327.9648   213.326    214.7573   12.6575    39.68068   63.01755   169.1887   106.5521  
328.1172   213.326    215.2206   12.66229   41.26489   63.04153   169.082    106.4191  
328.2696   211.2465   213.1377   12.66782   47.14923   63.07513   169.4918   106.8035  
328.422    208.5728   211.3312   12.6731    54.84392   63.11703   169.4963   106.7656  
328.5744   208.2758   210.4279   12.67725   54.39136   63.18472   167.5899   104.7496  
328.7268   208.1767   210.1268   12.68054   49.35128   63.2287    166.7967   103.8942  
328.8792   211.5436   212.5356   12.68283   44.07064   63.26337   167.1262   104.1956  
329.0316   213.326    213.2533   12.68396   41.44469   63.28519   167.9698   105.0357  
329.184    211.5436   212.5356   12.68362   39.39348   63.29327   167.674    104.7249  
329.3364   210.9494   212.5356   12.68317   37.52547   63.2869    167.7385   104.7973  
329.4888   210.9494   211.9334   12.68256   37.20935   63.26807   168.6862   105.7848  
329.6412   208.5728   211.1494   12.68292   46.50878   63.2403    170.1291   107.2862  
329.7936   206.4933   209.2235   12.68573   59.15764   63.20444   169.9856   107.1766  
329.946    204.4138   207.1158   12.68951   67.35291   63.17264   170.3927   107.6248  
330.0984   206.7904   208.4013   12.69568   65.37113   63.14618   170.0126   107.2642  
330.2508   208.5728   210.1268   12.70309   53.22542   63.13208   168.3364   105.5674  
330.4032   209.7612   211.1304   12.71017   44.1557    63.13333   166.1287   103.3103  
330.5556   211.2962   212.3336   12.71957   38.72403   63.15323   163.3818   100.4802  
330.708    213.326    214.9443   12.72327   43.69275   63.1861    162.507    99.55118  
330.8604   213.7222   214.9443   12.72446   54.18209   63.22632   162.2722   99.26971  
331.0128   215.7027   214.9443   12.72345   65.85464   63.2681    162.1786   99.13107  
331.1652   214.5144   214.9443   12.72025   72.16398   63.30646   163.3024   100.2422  
331.3176   214.5144   215.3587   12.71619   64.51386   63.33652   163.0451   99.94794  
331.47     215.5419   214.9443   12.71243   52.28935   63.35391   163.5861   100.4838  
331.6224   215.7027   215.7731   12.70996   48.71292   63.35703   164.6561   101.5754  
331.7748   215.7027   214.9443   12.70981   53.34363   63.34479   166.8051   103.7856  
331.9272   213.9202   214.9443   12.71216   54.95173   63.32327   166.5364   103.5332  
332.0796   213.326    213.8165   12.71692   51.90333   63.29474   164.204    101.1768  
332.232    206.7904   210.5473   12.72461   47.667     63.25861   160.6368   97.5618   
332.3844   210.1572   211.6105   12.73367   48.26701   63.22687   152.4238   89.17682  
332.5368   211.2465   211.9334   12.74896   45.11231   63.18747   149.0851   85.79431  
332.6892   210.9494   211.0301   12.75797   44.00812   63.17474   150.2911   87.04349  
332.8416   208.5728   210.6078   12.76501   44.24476   63.17197   151.9876   88.78571  
332.994    208.5728   210.4071   12.7695    47.08402   63.17694   150.7406   87.50208  
333.1464   209.7612   211.0301   12.77112   45.42783   63.1864    151.1088   87.86978  
333.2988   213.326    213.74     12.77051   44.89288   63.19421   155.6039   92.47067  
333.4512   214.5144   214.9443   12.76675   41.73818   63.20035   159.7886   96.75378  
333.6036   211.2465   212.953    12.76218   40.9495    63.19791   160.6277   97.61597  
333.756    208.5728   210.4071   12.75726   38.40861   63.18884   161.7872   98.8125   
333.9084   206.7904   209.2235   12.75311   38.89212   63.17236   161.6945   98.73453  
334.0608   206.1962   208.0191   12.74948   37.83678   63.15164   162.2336   99.30768  
334.2132   206.7904   208.9224   12.746     35.92682   63.12668   158.7213   95.73511  
334.3656   206.7904   209.2037   12.74701   32.52524   63.10532   157.9384   94.95477  
334.518    208.5728   210.5473   12.74994   31.76652   63.08768   157.0359   94.04767  
334.6704   208.5728   211.1487   12.755     32.57237   63.07779   153.4823   90.41476  
334.8228   208.5728   211.209    12.76053   33.20329   63.07962   152.768    89.68039  
334.9752   207.6816   210.8476   12.7662    35.56937   63.09277   152.5241   89.4169   
335.1276   206.1962   210.1268   12.77118   41.95778   63.11731   152.7985   89.67313  
335.28     204.4138   210.1268   12.77478   47.71502   63.14899   154.2938   91.1738   
335.4324   206.1962   210.2069   12.77682   49.21347   63.18518   153.7052   90.53314  
335.5848   206.1962   208.9224   12.77731   45.11227   63.22012   154.5501   91.36377  
335.7372   204.4138   210.1268   12.77606   40.84316   63.24564   155.0505   91.85062  
335.8896   204.0682   209.0904   12.77399   37.21534   63.25717   155.2256   92.01828  
336.042    204.4138   209.6042   12.77209   34.45495   63.25333   155.9942   92.8103   
336.1944   207.3845   210.4071   12.76938   32.41468   63.22684   158.0894   94.98523  
336.3468   210.9494   213.0921   12.76947   32.73014   63.19009   159.0728   96.03079  
336.4992   208.5728   210.5473   12.77148   35.88482   63.14572   157.8311   94.80365  
336.6516   214.5144   215.2206   12.77396   39.67052   63.10657   156.0696   93.03809  
336.804    211.5436   212.5356   12.77716   41.09015   63.07523   151.1091   87.98413  
336.9564   208.5728   210.5473   12.78088   38.3572    63.05533   149.0128   85.8551   
337.1088   207.0875   210.1268   12.78336   35.7546    63.05356   148.613    85.4469   
