~Version
 VERS              .         2.0                           : CWLS LOG ASCII STANDARD - VERSION 2.0
 WRAP              .         NO                            : ONE LINE PER DEPTH STEP
 DLM               .         SPACE                         : DELIMITING CHARACTER(SPACE TAB OR COMMA)
~Well Information
#_______________________________________________________________________________
#
#PARAMETER_NAME    .UNIT     VALUE                         : DESCRIPTION
#_______________________________________________________________________________
STRT               .m        60.3504                       : First reference value
STOP               .m        357.378                       : Last reference value
STEP               .m        0.1524                        : Step increment
NULL               .         -9999                         : Missing value
COMP               .                                       : Company
WELL               .         E                             : Well name
FLD                .                                       : Field
LOC                .                                       : Location
CNTY               .                                       : County
STAT               .                                       : State
CTRY               .                                       : Country
SRVC               .                                       : Service Company
DATE               .                                       : Date
API                .                                       : API number
~Parameter Information Block
#_______________________________________________________________________________
#
#PARAMETER_NAME    .UNIT     VALUE                         : DESCRIPTION
#_______________________________________________________________________________
SET                .         Inclination                   : 
TLFamily_C13       .         Caliper 1                     : 
TLFamily_C24       .         Caliper 2                     : 
TLFamily_DEVI      .         Hole Deviation                : 
TLFamily_GR        .         Gamma Ray                     : 
TLFamily_HAZI      .         Hole Azimuth                  : 
TLFamily_MD        .         Measured Depth                : 
TLFamily_P1AZ      .         Pad A Azimuth                 : 
TLFamily_RB        .         Relative Bearing              : 
~Curve Information
#_______________________________________________________________________________
#
#LOGNAME           .UNIT     LOG_ID                        : DESCRIPTION
#_______________________________________________________________________________
MD                 .m                                      :  
C13                .mm                                     : Caliper 1-3 
C24                .mm                                     : Caliper 2-4 
DEVI               .deg                                    : Deviation 
GR                 .gAPI                                   : Gamma Ray 
HAZI               .deg                                    : Hole Azimuth 
P1AZ               .deg                                    : Pad 1 Azimuth 
RB                 .deg                                    : Relative Bearing 
~Ascii
# ...
337.2612   204.4138   209.3239   12.78458   33.704     63.0697    150.7165   87.58694  
337.4136   203.8196   209.2235   12.78391   34.76013   63.1022    152.2002   89.07513  
337.566    203.8196   208.3202   12.78229   35.1545    63.14099   152.294    89.13153  
337.7184   206.1962   208.0191   12.77945   38.3881    63.18326   153.1364   89.952    
337.8708   206.7904   208.3202   12.77679   35.56947   63.2182    151.018    87.74402  
338.0232   210.9494   212.5356   12.77454   35.35334   63.24078   147.8731   84.49686  
338.1756   206.7904   210.4279   12.77518   31.64648   63.23718   146.5799   83.17542  
338.328    206.7904   210.6874   12.77789   30.24051   63.21478   148.8549   85.52985  
338.4804   206.1962   208.743    12.78226   27.30182   63.17798   151.9807   88.77225  
338.6328   206.7904   210.1268   12.78769   24.93586   63.13232   152.8208   89.68057  
338.7852   206.7904   210.5283   12.79297   24.3324    63.08762   152.2328   89.12347  
338.9376   206.5923   208.7217   12.79767   23.30718   63.05099   151.8716   88.79065  
339.09     209.7612   211.449    12.80078   22.28877   63.03156   153.6879   90.67297  
339.2424   208.5728   210.5283   12.80215   22.72078   63.03409   154.2442   91.241    
339.3948   208.5728   210.4071   12.80234   22.2339    63.05667   152.3083   89.23254  
339.5472   211.5436   212.953    12.80148   23.17346   63.10007   150.0976   86.92102  
339.6996   212.3358   213.74     12.80145   24.40107   63.17062   153.4893   90.32669  
339.852    210.9494   211.3312   12.80051   27.96379   63.23041   154.4869   91.28839  
340.0044   210.9494   211.6895   12.79984   31.77686   63.28488   155.5466   92.31918  
340.1568   214.8114   214.9443   12.7988    33.58745   63.32941   154.682    91.38696  
340.3092   215.7027   215.4969   12.79727   31.53339   63.35669   152.862    89.49268  
340.4616   216.8909   217.6273   12.79504   24.83507   63.366     149.4482   85.98276  
340.614    216.8909   217.7644   12.79364   21.3303    63.35266   146.8573   83.34073  
340.7664   216.8909   217.3531   12.7934    21.97784   63.3205    149.2402   85.81613  
340.9188   217.4851   219.1597   12.79449   25.32368   63.27924   152.0808   88.77118  
341.0712   217.287    219.1597   12.79779   24.40447   63.23236   153.8779   90.66208  
341.2236   215.7027   216.7509   12.80362   21.30381   63.18716   154.3178   91.15936  
341.376    216.8909   217.3531   12.81128   19.9306    63.15927   152.965    89.80084  
341.5284   215.7027   216.5502   12.81973   20.25469   63.15601   152.881    89.71811  
341.6808   215.7027   215.8476   12.82715   20.09174   63.17657   152.7271   89.53888  
341.8332   215.7027   215.4208   12.83209   20.7298    63.21915   151.81     88.55481  
341.9856   214.5144   215.3587   12.83347   20.70314   63.27402   150.1862   86.83325  
342.138    214.5144   214.9443   12.83041   21.35564   63.33301   146.0401   82.52246  
342.2904   214.7124   215.2206   12.82343   21.1885    63.38693   142.0481   78.37885  
342.4428   211.2465   212.953    12.8136    21.50782   63.42456   140.6956   76.95688  
342.5952   210.9494   211.3312   12.80154   21.80378   63.43976   139.5003   75.71964  
342.7476   211.1475   212.1341   12.78976   22.05547   63.42819   138.1559   74.35776  
342.9      213.326    213.74     12.77972   21.69456   63.39462   136.2026   72.39801  
343.0524   213.326    214.5718   12.77295   21.81243   63.31741   133.0066   69.21744  
343.2048   211.1475   212.5356   12.77286   21.89184   63.25418   131.3243   67.56824  
343.3572   211.5436   212.5356   12.77713   22.1401    63.19778   129.1566   65.41989  
343.5096   213.326    214.041    12.78497   22.14401   63.15598   128.1227   64.41068  
343.662    213.128    213.74     12.79446   21.61508   63.13748   126.0629   62.33719  
343.8144   211.5436   212.5356   12.80399   21.5024    63.14761   125.3323   61.58508  
343.9668   213.326    214.1969   12.81149   21.36122   63.18326   124.1414   60.34109  
344.1192   213.326    214.4947   12.81546   21.36122   63.23682   123.4364   59.5723   
344.2716   211.5436   212.5356   12.81519   21.36122   63.29929   121.1249   57.17084  
344.424    213.326    213.74     12.81186   21.36122   63.35529   120.4706   56.45322  
344.5764   214.5144   214.9443   12.80502   21.36122   63.40106   121.1499   57.09424  
344.7288   215.7027   215.5465   12.7962    21.36122   63.42618   119.5579   55.46182  
344.8812   214.5144   214.9443   12.78598   21.36122   63.42899   116.1321   52.00739  
345.0336   211.4169   212.8916   12.77667   21.36122   63.40863   111.9725   47.85013  
345.186    209.7612   211.9334   12.76944   21.36122   63.37317   109.5202   45.4299   
345.3384   208.5728   210.729    12.76392   21.36122   63.33145   108.5116   44.46338  
345.4908   208.5728   210.729    12.76108   21.36122   63.29028   107.8387   43.83224  
345.6432   208.5728   211.449    12.76019   21.36122   63.25546   106.9836   43.013    
345.7956   210.3857   212.0812   12.76028   21.36122   63.23416   105.9753   42.02771  
345.948    210.9494   212.8138   12.76205   21.36122   63.22192   104.8076   40.87527  
346.1004   210.9494   213.3704   12.76337   21.36122   63.22049   104.0916   40.16318  
346.2528   210.9494   212.5356   12.76443   21.36122   63.22638   103.897    39.96323  
346.4052   210.9494   212.5356   12.76373   21.36122   63.23517   102.8419   38.90424  
346.5576   210.9494   211.7326   12.76035   21.36122   63.24402   101.9875   38.04605  
346.71     210.9494   212.5356   12.75504   21.36122   63.24762   101.6665   37.72394  
346.8624   210.9494   212.953    12.7475    21.36122   63.24283   101.0415   37.10855  
347.0148   208.5728   211.0301   12.73694   21.36122   63.23029   98.81      34.90695  
347.1672   210.9494   212.1341   12.72601   21.36122   63.20258   98.1944    34.32526  
347.3196   211.3456   212.8138   12.715     21.36122   63.1651    97.59003   33.76468  
347.472    211.5436   212.5356   12.70541   21.36122   63.11826   96.51822   32.75058  
347.6244   211.2465   212.5356   12.69867   21.36122   63.06677   93.80212   30.11581  
347.7768   208.5728   211.1487   12.698     21.36122   63.02621   93.60959   29.96576  
347.9292   208.5728   210.8476   12.69907   21.36122   62.974     93.47763   29.88687  
348.0816   208.5728   210.729    12.70392   21.36122   62.93112   92.17355   28.64108  
348.234    206.7904   209.3444   12.71133   21.36122   62.9032    91.96893   28.46597  
348.3864   208.5728   211.168    12.72      21.36122   62.89227   91.89371   28.40173  
348.5388   211.5436   212.5356   12.72784   21.36122   62.89587   91.64362   28.1506   
348.6912   213.326    213.74     12.73257   21.36122   62.91354   91.0387    27.53616  
348.8436   213.326    214.1559   12.73459   21.36122   62.93121   90.34903   26.83896  
348.996    213.326    214.1559   12.73218   21.36122   62.9472    88.70731   25.20609  
349.1484   212.1378   212.953    12.72614   21.36122   62.9534    87.47672   23.98953  
349.3008   213.326    214.4947   12.7168    21.36122   62.9458    86.8103    23.3425   
349.4532   213.326    213.74     12.7059    21.36122   62.9209    84.75003   21.34335  
349.6056   213.326    213.9216   12.6954    21.36122   62.87958   82.40262   19.08051  
349.758    211.5436   212.6859   12.68628   21.36122   62.82513   80.38544   17.15714  
349.9104   213.326    214.6432   12.68063   21.36122   62.76016   78.97562   15.8399   
350.0628   213.326    214.3421   12.67865   21.36122   62.69244   77.74652   14.70306  
350.2152   214.5144   214.9443   12.67911   21.36122   62.63174   76.87164   13.90619  
350.3676   214.5144   215.3587   12.68158   21.36122   62.58435   76.41574   13.50635  
350.52     214.5144   215.4969   12.68457   21.36122   62.55209   74.84265   11.99933  
350.6724   214.5144   215.3587   12.68683   21.36122   62.53745   73.19348   10.40152  
350.8248   215.1085   215.3587   12.68747   21.36122   62.53827   71.75452   8.994904  
350.9772   214.5144   214.9443   12.68552   21.36122   62.55048   71.19705   8.438599  
