~Version
 VERS              .         2.0                           : CWLS LOG ASCII STANDARD - VERSION 2.0
 WRAP              .         NO                            : ONE LINE PER DEPTH STEP
 DLM               .         SPACE                         : DELIMITING CHARACTER(SPACE TAB OR COMMA)
~Well Information
#_______________________________________________________________________________
#
#PARAMETER_NAME    .UNIT     VALUE                         : DESCRIPTION
#_______________________________________________________________________________
STRT               .m        60.3504                       : First reference value
STOP               .m        357.378                       : Last reference value
STEP               .m        0.1524                        : Step increment
NULL               .         -9999                         : Missing value
COMP               .                                       : Company
WELL               .         E                             : Well name
FLD                .                                       : Field
LOC                .                                       : Location
CNTY               .                                       : County
STAT               .                                       : State
CTRY               .                                       : Country
SRVC               .                                       : Service Company
DATE               .                                       : Date
API                .                                       : API number
~Parameter Information Block
#_______________________________________________________________________________
#
#PARAMETER_NAME    .UNIT     VALUE                         : DESCRIPTION
#_______________________________________________________________________________
SET                .         Inclination                   : 
TLFamily_C13       .         Caliper 1                     : 
TLFamily_C24       .         Caliper 2                     : 
TLFamily_DEVI      .         Hole Deviation                : 
TLFamily_GR        .         Gamma Ray                     : 
TLFamily_HAZI      .         Hole Azimuth                  : 
TLFamily_MD        .         Measured Depth                : 
TLFamily_P1AZ      .         Pad A Azimuth                 : 
TLFamily_RB        .         Relative Bearing              : 
~Curve Information
#_______________________________________________________________________________
#
#LOGNAME           .UNIT     LOG_ID                        : DESCRIPTION
#_______________________________________________________________________________
MD                 .m                                      :  
C13                .mm                                     : Caliper 1-3 
C24                .mm                                     : Caliper 2-4 
DEVI               .deg                                    : Deviation 
GR                 .gAPI                                   : Gamma Ray 
HAZI               .deg                                    : Hole Azimuth 
P1AZ               .deg                                    : Pad 1 Azimuth 
RB                 .deg                                    : Relative Bearing 
~Ascii
# ...
281.7876   214.5144   214.9443   12.40295   60.02189   60.46182   256.812    195.9882  
281.94     213.326    214.041    12.39795   61.60619   60.42224   257.5275   196.729   
282.0924   211.8407   213.5392   12.3967    57.45697   60.39108   256.4328   195.6862  
282.2448   212.1378   212.8366   12.39963   50.544     60.37689   255.4538   194.7407  
282.3972   213.326    213.6158   12.4064    45.56492   60.38394   254.8042   194.0972  
282.5496   213.326    213.74     12.41635   45.1878    60.41177   254.3508   193.6255  
282.702    215.7027   215.3458   12.4281    47.6841    60.4549    254.6183   193.8442  
282.8544   215.7027   216.7509   12.44269   52.81404   60.52802   255.8606   194.9888  
283.0068   215.7027   216.7509   12.45111   56.58596   60.57959   255.8434   194.9211  
283.1592   215.7027   216.3495   12.45554   57.40899   60.62067   255.0396   194.0933  
283.3116   216.2968   216.7509   12.45486   59.52121   60.64392   251.5316   190.6373  
283.464    216.2968   216.7509   12.44955   60.5773    60.64297   249.441    188.5943  
283.6164   214.5144   214.9443   12.44049   62.99134   60.61868   250.4329   189.5881  
283.7688   213.326    214.1414   12.42969   55.4475    60.57285   252.1721   191.3346  
283.9212   213.326    214.4562   12.41815   48.50724   60.51627   251.8533   191.0785  
284.0736   214.5144   214.9443   12.40918   41.26523   60.45584   251.1189   190.4194  
284.226    215.7027   214.9443   12.40417   39.90721   60.40106   250.0393   189.4174  
284.3784   214.3163   214.9443   12.40405   40.96338   60.36035   247.5186   186.9929  
284.5308   213.326    214.6432   12.40854   44.50887   60.33542   246.2134   185.7416  
284.6832   213.326    213.1377   12.41727   48.50721   60.32803   246.4188   185.9494  
284.8356   215.7027   215.2206   12.42877   49.18606   60.33118   245.8112   185.3524  
284.988    214.5144   214.9443   12.44009   47.52652   60.33774   246.7459   186.2589  
285.1404   215.7027   214.9443   12.45041   50.01594   60.33374   247.6578   187.1537  
285.2928   215.7027   214.9443   12.45761   48.80893   60.31131   248.4279   187.9281  
285.4452   215.7027   214.9443   12.46121   49.4878    60.26279   249.2391   188.7682  
285.5976   208.5728   210.729    12.46109   46.9572    60.14966   252.8299   192.391   
285.75     206.7904   207.9187   12.4584    45.70307   60.03128   254.2259   193.8735  
285.9024   206.7904   208.6213   12.45471   43.89252   59.89493   254.2711   194.0515  
286.0548   206.7904   208.6213   12.45218   42.9462    59.74689   255.4123   195.3144  
286.2072   206.7904   207.718    12.45126   43.67223   59.59848   257.6344   197.6383  
286.3596   206.7904   206.5137   12.45438   45.40727   59.45602   257.6845   197.8271  
286.512    206.7904   208.8023   12.46039   45.79124   59.32919   257.4309   197.7022  
286.6644   208.5728   210.1268   12.4704    47.45091   59.21667   259.5332   199.8752  
286.8168   206.7904   208.9224   12.48282   47.97906   59.11835   260.1236   200.5505  
286.9692   208.5728   209.5246   12.49673   51.2983    59.03165   258.6359   199.1741  
287.1216   211.1475   211.3312   12.51111   54.54219   58.95319   258.0106   198.6365  
287.274    213.326    213.9407   12.52475   55.44737   58.87552   258.4393   199.1325  
287.4264   211.5436   212.5356   12.53607   47.90363   58.7966    257.3726   198.1625  
287.5788   215.7027   214.9443   12.54498   39.52993   58.71051   254.1747   195.1121  
287.7312   215.7027   214.9443   12.55154   34.09841   58.61456   250.7813   191.8843  
287.8836   215.7027   215.7473   12.55511   37.38676   58.51117   251.1338   192.3302  
288.036    215.7027   215.5465   12.55679   40.32881   58.40414   254.3206   195.5543  
288.1884   215.1085   214.9443   12.55792   41.38494   58.2692    255.5602   196.9013  
288.3408   215.7027   214.9443   12.55807   40.43509   58.18066   256.782    198.1859  
288.4932   215.7027   214.9443   12.55981   45.41401   58.1041    256.894    198.3708  
288.6456   214.5144   214.9443   12.56378   51.97708   58.04526   260.6693   202.1352  
288.798    215.7027   217.163    12.57068   57.10696   58.00262   262.96     204.4298  
288.9504   215.7027   216.3495   12.58057   55.0702    57.9722    259.1043   200.6681  
289.1028   215.7027   215.5465   12.59229   52.2036    57.94888   257.7926   199.4025  
289.2552   213.326    213.9407   12.6051    51.97726   57.92355   258.2094   199.8355  
289.4076   211.5436   212.5356   12.61722   51.82634   57.89322   259.4421   201.0748  
289.56     213.326    212.8366   12.62753   51.90174   57.85318   261.0464   202.6897  
289.7124   215.7027   214.9443   12.63443   49.94041   57.80093   260.7772   202.4758  
289.8648   215.7027   216.4498   12.63736   49.11063   57.73654   260.9167   202.6761  
290.0172   215.1085   214.9443   12.63641   44.58427   57.65793   260.3189   202.1658  
290.1696   214.5144   214.9443   12.63275   42.39639   57.56491   256.9085   198.9089  
290.322    214.5144   215.2206   12.62732   40.51051   57.46631   251.7472   193.9492  
290.4744   213.6231   214.9443   12.6217    40.35975   57.36279   250.6171   192.9449  
290.6268   210.9494   211.7326   12.61774   36.21073   57.26111   253.0195   195.3961  
290.7792   210.9494   212.5356   12.61688   33.57031   57.13318   257.5134   199.9273  
290.9316   208.6725   210.1268   12.62183   33.72118   57.04538   261.214    203.6492  
291.084    211.2465   211.7326   12.6315    37.19821   56.96692   265.876    208.319   
291.2364   213.326    214.7565   12.64478   40.44209   56.89667   268.3736   210.8541  
291.3888   215.7027   214.9443   12.66064   41.12105   56.83188   269.0792   211.6142  
291.5412   215.7027   216.4498   12.67749   41.34048   56.76962   270.0171   212.6022  
291.6936   215.7027   214.9443   12.69318   46.92294   56.70972   269.7068   212.3529  
291.846    214.5144   215.3587   12.70575   56.4248    56.64813   268.2098   210.9318  
291.9984   215.7027   216.4498   12.71283   60.67464   56.5885    267.6342   210.421   
292.1508   215.7027   216.7509   12.71521   58.80923   56.53012   267.5781   210.4229  
292.3032   216.8909   217.3531   12.71329   51.79677   56.47559   268.3048   211.1955  
292.4556   216.8909   216.7509   12.70737   46.41541   56.43152   268.0608   210.9985  
292.608    215.7027   216.7509   12.69983   43.30176   56.4003    268.5635   211.5272  
292.7604   216.8909   216.9516   12.69296   43.679     56.38229   267.5139   210.508   
292.9128   216.8909   217.4641   12.68808   45.48946   56.38095   265.8215   208.838   
293.0652   215.7027   216.5502   12.689     48.43172   56.39642   266.9874   209.9742  
293.2176   215.1085   214.9443   12.69147   50.4685    56.42563   266.1177   209.086   
293.37     215.7027   216.3495   12.69751   48.43165   56.45642   265.2568   208.2054  
293.5224   216.8909   217.052    12.70544   42.17017   56.48526   264.5656   207.4944  
293.6748   216.8909   216.7509   12.71442   40.06475   56.50531   262.871    205.804   
293.8272   215.7027   216.7509   12.72272   48.66481   56.51486   259.9075   202.8781  
293.9796   216.8909   217.052    12.7291    60.84192   56.51465   256.251    199.2876  
294.132    216.8909   216.9516   12.73309   67.77544   56.50446   251.7713   194.9084  
294.2844   216.8909   216.7509   12.73441   66.71923   56.4881    251.0086   194.1778  
294.4368   215.7027   216.4498   12.73309   60.04913   56.47449   250.7092   193.8983  
294.5892   216.8909   216.7509   12.72943   52.73161   56.46667   250.3065   193.5124  
294.7416   216.8909   217.3531   12.72549   46.47023   56.46643   251.1405   194.3287  
294.894    216.2968   216.7509   12.72125   46.39487   56.47913   251.7463   194.9093  
295.0464   215.7027   215.1451   12.71722   48.35637   56.51166   250.8711   194.0212  
295.1988   215.7027   215.8476   12.71686   50.61952   56.54272   251.6598   194.7627  
295.3512   215.7027   216.1487   12.71774   52.27913   56.57816   255.5669   198.5552  
295.5036   215.7027   215.3458   12.72015   56.65442   56.60919   255.8544   198.8064  
