~Version
 VERS              .         2.0                           : CWLS LOG ASCII STANDARD - VERSION 2.0
 WRAP              .         NO                            : ONE LINE PER DEPTH STEP
 DLM               .         SPACE                         : DELIMITING CHARACTER(SPACE TAB OR COMMA)
~Well Information
#_______________________________________________________________________________
#
#PARAMETER_NAME    .UNIT     VALUE                         : DESCRIPTION
#_______________________________________________________________________________
STRT               .m        60.3504                       : First reference value
STOP               .m        357.378                       : Last reference value
STEP               .m        0.1524                        : Step increment
NULL               .         -9999                         : Missing value
COMP               .                                       : Company
WELL               .         E                             : Well name
FLD                .                                       : Field
LOC                .                                       : Location
CNTY               .                                       : County
STAT               .                                       : State
CTRY               .                                       : Country
SRVC               .                                       : Service Company
DATE               .                                       : Date
API                .                                       : API number
~Parameter Information Block
#_______________________________________________________________________________
#
#PARAMETER_NAME    .UNIT     VALUE                         : DESCRIPTION
#_______________________________________________________________________________
SET                .         Inclination                   : 
TLFamily_C13       .         Caliper 1                     : 
TLFamily_C24       .         Caliper 2                     : 
TLFamily_DEVI      .         Hole Deviation                : 
TLFamily_GR        .         Gamma Ray                     : 
TLFamily_HAZI      .         Hole Azimuth                  : 
TLFamily_MD        .         Measured Depth                : 
TLFamily_P1AZ      .         Pad A Azimuth                 : 
TLFamily_RB        .         Relative Bearing              : 
~Curve Information
#_______________________________________________________________________________
#
#LOGNAME           .UNIT     LOG_ID                        : DESCRIPTION
#_______________________________________________________________________________
MD                 .m                                      :  
C13                .mm                                     : Caliper 1-3 
C24                .mm                                     : Caliper 2-4 
DEVI               .deg                                    : Deviation 
GR                 .gAPI                                   : Gamma Ray 
HAZI               .deg                                    : Hole Azimuth 
P1AZ               .deg                                    : Pad 1 Azimuth 
RB                 .deg                                    : Relative Bearing 
~Ascii
# ...
295.656    215.7027   214.9443   12.72363   61.33165   56.62845   252.391    195.3941  
295.8084   214.5144   215.2206   12.72726   65.10356   56.63361   249.7321   192.7873  
295.9608   214.5144   215.3587   12.72989   68.42297   56.62442   248.0115   191.1142  
296.1132   214.5144   214.9443   12.73083   69.47903   56.6015    247.6456   190.779   
296.2656   213.326    214.6189   12.72888   66.76337   56.57126   250.0185   193.1282  
296.418    214.5144   214.9443   12.72424   54.9948    56.53885   252.2093   195.3039  
296.5704   215.7027   214.9443   12.71646   45.48955   56.51245   252.1559   195.2778  
296.7228   215.7027   214.9443   12.70657   38.39824   56.49792   250.3047   193.481   
296.8752   213.326    214.6432   12.6915    42.54746   56.50745   244.2076   187.5142  
297.0276   211.5436   212.5356   12.67996   49.94057   56.53729   239.8174   183.2002  
297.18     214.5144   214.9443   12.66949   58.69149   56.58737   237.7733   181.1571  
297.3324   215.7027   214.9443   12.6622    60.20009   56.64716   237.1995   180.5389  
297.4848   215.7027   214.9443   12.65906   60.04918   56.71262   238.0055   181.2615  
297.6372   214.5144   214.9443   12.65952   56.72978   56.77893   238.0611   181.2509  
297.7896   215.7027   215.8476   12.66324   53.78777   56.83801   237.5155   180.6611  
297.942    215.1085   214.9443   12.66922   44.43331   56.88065   233.2107   176.4193  
298.0944   213.326    214.041    12.6767    37.64384   56.90079   229.3217   172.6036  
298.2468   210.9494   211.4942   12.68384   33.872     56.89954   226.9047   170.2444  
298.3992   212.7319   212.5356   12.68976   35.30532   56.87537   225.4062   168.804   
298.5516   214.5144   214.9443   12.69266   34.92812   56.83447   225.6421   169.0744  
298.704    214.5144   214.9443   12.69376   33.11753   56.77701   225.522    169.0133  
298.8564   213.326    214.6432   12.69205   31.30698   56.71609   225.3779   168.9319  
299.0088   213.326    213.5392   12.68842   33.57014   56.6394    225.2516   168.8832  
299.1612   213.326    213.74     12.68243   38.63083   56.60468   225.5886   169.2463  
299.3136   213.326    214.0172   12.67697   48.95222   56.5882    225.8318   169.4999  
299.466    211.5436   212.5356   12.67236   63.30448   56.5946    225.9737   169.6321  
299.6184   213.326    214.041    12.67029   81.85616   56.61731   225.1637   168.8182  
299.7708   213.326    213.74     12.67087   89.48919   56.65091   224.7946   168.4246  
299.9232   211.5436   212.5356   12.67462   86.07552   56.68869   224.984    168.573   
300.0756   211.5436   211.9334   12.68079   73.77904   56.72131   223.689    167.275   
300.228    213.9202   214.9443   12.68851   68.87566   56.74121   222.7219   166.3101  
300.3804   216.8909   217.3531   12.69632   66.46165   56.74377   220.3026   163.9398  
300.5328   216.8909   217.5415   12.70316   67.2914    56.72864   217.4637   161.1731  
300.6852   216.8909   217.3531   12.70779   63.97203   56.70105   215.16     158.9398  
300.8376   216.8909   217.9553   12.70905   60.72806   56.66681   213.7641   157.6025  
300.99     217.188    218.8586   12.70627   57.9369    56.63574   211.0956   155.0081  
301.1424   218.0793   219.1597   12.70041   57.03159   56.61426   206.4364   150.4351  
301.2948   217.089    217.9553   12.68738   52.88262   56.61545   200.9281   144.981   
301.4472   218.0793   219.1597   12.67679   47.52633   56.63687   198.6805   142.7273  
301.5996   218.0793   219.1597   12.66733   42.69833   56.6741    197.8111   141.825   
301.752    218.0793   219.1597   12.66019   42.77374   56.72324   198.4281   142.3886  
301.9044   218.0793   219.1597   12.65671   38.70015   56.77545   197.8966   141.808   
302.0568   219.8617   221.5685   12.65686   34.32468   56.8244    197.2964   141.1624  
302.2092   217.4851   219.7619   12.66064   30.85452   56.86197   197.274    141.103   
302.3616   217.4851   219.1597   12.66647   33.1711    56.88705   197.7061   141.5086  
302.514    215.7027   216.7509   12.6723    33.61686   56.90039   197.0072   140.8004  
302.6664   215.7027   216.3494   12.67676   34.47174   56.90216   196.2919   140.0872  
302.8188   215.7027   215.1451   12.67844   33.43754   56.89694   193.2149   137.024   
302.9712   212.1378   212.5356   12.6763    34.95317   56.89075   189.1274   132.9411  
303.1236   214.5144   214.9443   12.66974   38.32272   56.89072   185.3711   129.1702  
303.276    215.3066   214.9443   12.66025   47.67723   56.89786   182.5517   126.3244  
303.4284   215.7027   216.8254   12.64832   61.61961   56.92114   179.725    123.4481  
303.5808   215.7027   214.9443   12.63599   71.11869   56.95889   175.9772   119.6182  
303.7332   215.7027   214.9443   12.62469   73.8345    57.02325   173.9783   117.5257  
303.8856   215.7027   216.4498   12.61658   72.49031   57.09882   174.04     117.511   
304.038    215.7027   216.7509   12.61139   70.98782   57.19162   173.5681   116.9376  
304.1904   215.7027   214.9443   12.60995   73.47722   57.29654   172.7003   115.95    
304.3428   215.7027   216.5616   12.61215   72.04382   57.41162   173.2642   116.406   
304.4952   215.7027   215.5465   12.61682   69.40351   57.53473   172.8259   115.8364  
304.6476   213.326    214.4562   12.6232    60.42643   57.66122   174.3046   117.2095  
304.8      206.7904   208.521    12.63013   55.44764   57.79144   174.3952   117.1698  
304.9524   206.7904   210.1268   12.63708   55.07043   57.92178   173.1163   115.74    
305.1048   206.7904   209.3444   12.64236   52.20361   58.05386   172.7153   115.1991  
305.2572   206.7904   209.1231   12.64563   46.84748   58.18634   171.9427   114.2794  
305.4096   210.9494   212.5356   12.64587   39.90718   58.32269   169.5378   111.6942  
305.562    211.5436   212.7363   12.64365   36.51248   58.45743   168.2973   110.2932  
305.7144   210.9494   211.3312   12.63907   39.98259   58.59467   169.8286   111.7129  
305.8668   210.3553   211.6105   12.6322    43.90517   58.73282   174.231    116.0479  
306.0192   209.167    211.3312   12.62057   45.86655   58.9129    178.4147   120.1063  
306.1716   209.167    210.729    12.61179   44.9613    59.03964   180.2555   121.8396  
306.324    210.0582   211.6323   12.60358   43.75442   59.15671   179.4373   120.8928  
306.4764   209.167    211.1494   12.59695   46.5457    59.25769   180.1296   121.4903  
306.6288   211.5436   212.5356   12.59161   43.22635   59.3425    182.5665   123.8664  
306.7812   212.7319   213.3385   12.58823   37.71936   59.40796   184.4063   125.656   
306.9336   213.326    214.3421   12.58539   31.53337   59.46094   184.7277   125.9263  
307.086    217.4851   218.5575   12.5838    28.8931    59.49878   185.6721   126.8393  
307.2384   217.7822   218.5575   12.58264   32.96673   59.52652   190.3749   131.5386  
307.3908   216.8909   217.3531   12.58157   36.73873   59.54889   189.1152   130.2516  
307.5432   215.7027   216.7509   12.57983   39.52991   59.57135   189.8172   130.9337  
307.6956   216.8909   217.3531   12.57785   35.46574   59.59702   192.1855   133.2825  
307.848    218.6734   220.0629   12.57434   30.86381   59.63516   193.7884   134.8487  
308.0004   224.6149   223.9772   12.57059   26.75584   59.68579   197.4962   138.5014  
308.1528   224.6149   223.9772   12.5665    27.55103   59.75381   197.377    138.3141  
308.3052   222.2383   222.5721   12.56284   29.04955   59.84137   198.982    139.8264  
308.4576   219.8617   221.5685   12.56046   32.25232   59.94229   200.4299   141.1673  
308.61     219.8617   221.5685   12.55951   32.68607   60.10004   203.0252   143.5902  
308.7624   219.8617   221.8391   12.56195   34.97337   60.22525   203.3384   143.7773  
308.9148   217.4851   219.7619   12.56531   37.25846   60.3519    203.1034   143.4185  
309.0672   216.0988   217.2264   12.57013   38.88673   60.46832   203.086    143.286   
309.2196   214.5144   215.2206   12.57465   40.53257   60.5723    200.5719   140.6831  
309.372    213.9202   214.9443   12.5777    43.37724   60.66296   199.7454   139.7699  
