~Version
 VERS              .         2.0                           : CWLS LOG ASCII STANDARD - VERSION 2.0
 WRAP              .         NO                            : ONE LINE PER DEPTH STEP
 DLM               .         SPACE                         : DELIMITING CHARACTER(SPACE TAB OR COMMA)
~Well Information
#_______________________________________________________________________________
#
#PARAMETER_NAME    .UNIT     VALUE                         : DESCRIPTION
#_______________________________________________________________________________
STRT               .m        60.3504                       : First reference value
STOP               .m        357.378                       : Last reference value
STEP               .m        0.1524                        : Step increment
NULL               .         -9999                         : Missing value
COMP               .                                       : Company
WELL               .         E                             : Well name
FLD                .                                       : Field
LOC                .                                       : Location
CNTY               .                                       : County
STAT               .                                       : State
CTRY               .                                       : Country
SRVC               .                                       : Service Company
DATE               .                                       : Date
API                .                                       : API number
~Parameter Information Block
#_______________________________________________________________________________
#
#PARAMETER_NAME    .UNIT     VALUE                         : DESCRIPTION
#_______________________________________________________________________________
SET                .         Inclination                   : 
TLFamily_C13       .         Caliper 1                     : 
TLFamily_C24       .         Caliper 2                     : 
TLFamily_DEVI      .         Hole Deviation                : 
TLFamily_GR        .         Gamma Ray                     : 
TLFamily_HAZI      .         Hole Azimuth                  : 
TLFamily_MD        .         Measured Depth                : 
TLFamily_P1AZ      .         Pad A Azimuth                 : 
TLFamily_RB        .         Relative Bearing              : 
~Curve Information
#_______________________________________________________________________________
#
#LOGNAME           .UNIT     LOG_ID                        : DESCRIPTION
#_______________________________________________________________________________
MD                 .m                                      :  
C13                .mm                                     : Caliper 1-3 
C24                .mm                                     : Caliper 2-4 
DEVI               .deg                                    : Deviation 
GR                 .gAPI                                   : Gamma Ray 
HAZI               .deg                                    : Hole Azimuth 
P1AZ               .deg                                    : Pad 1 Azimuth 
RB                 .deg                                    : Relative Bearing 
~Ascii
# ...
115.3668   206.7904   210.1268   0.7122192  45.66434   52.87976   245.5575   192.6785  
115.5192   208.8699   209.5246   0.7378845  48.03048   51.81509   243.4218   191.6059  
115.6716   216.0988   216.5502   0.761261   48.26025   51.05264   243.4164   192.3637  
115.824    220.1588   220.9663   0.7813721  50.57745   50.63553   245.8306   195.1933  
115.9764   222.2383   222.7728   0.7921143  52.47034   50.57547   245.0613   194.4834  
116.1288   224.6149   225.1816   0.8044128  52.95031   50.68912   244.4361   193.7478  
116.2812   224.6149   226.386    0.8120422  45.0335    51.02023   243.6261   192.6055  
116.4336   224.6149   226.1852   0.8158264  34.78059   51.50504   240.8103   189.3047  
116.586    224.6149   226.386    0.8172607  28.94453   52.04077   238.014    185.9727  
116.7384   224.6149   226.386    0.8174438  30.66458   52.48886   239.0841   186.594   
116.8908   224.6149   225.1816   0.8188782  32.03271   52.82309   242.4142   189.5911  
117.0432   224.6149   226.386    0.8220215  32.82129   52.96078   249.9395   196.9777  
117.1956   226.1003   227.8914   0.8299255  29.36611   52.87494   255.0666   202.1888  
117.348    226.9915   228.1925   0.8430481  26.89382   52.59418   257.3136   204.716   
117.5004   226.9915   228.1925   0.8617859  25.07996   52.25842   255.1953   202.9333  
117.6528   226.7935   228.1925   0.8859253  30.4429    51.94055   250.9999   199.0574  
117.8052   224.6149   226.386    0.9142456  36.67343   51.68964   246.4297   194.7396  
117.9576   224.6149   225.4827   0.9456177  38.40851   51.59097   242.8023   191.2112  
118.11     219.8617   221.5685   0.978363   33.88915   51.66037   242.4844   190.8222  
118.2624   221.6442   222.7728   1.010986   31.56065   51.84122   237.7181   185.8748  
118.4148   224.6149   225.1816   1.042053   35.98065   52.14697   235.2729   183.1247  
118.5672   220.1588   221.5685   1.062195   39.99689   52.39764   236.2501   183.8526  
118.7196   216.8909   217.3531   1.088989   51.16551   52.78354   234.4642   181.6799  
118.872    216.8909   217.052    1.11145    62.36118   53.08237   238.1202   185.0365  
119.0244   212.9299   213.7399   1.130188   77.29721   53.3136    240.398    187.0834  
119.1768   210.1572   211.1304   1.144836   81.23364   53.45621   239.407    185.9493  
119.3292   208.5728   210.1268   1.156525   75.79185   53.52139   238.06     184.538   
119.4816   210.9494   211.3312   1.165344   64.35603   53.53323   237.0523   183.5185  
119.634    210.9494   211.3312   1.171997   54.02436   53.53043   235.9327   182.4012  
119.7864   209.9592   211.3312   1.177887   48.97684   53.55109   236.7995   183.2475  
119.9388   212.4348   212.5356   1.182159   48.10925   53.65958   240.0034   186.3424  
120.0912   216.8909   217.3531   1.185333   49.84438   53.92456   240.9118   186.9852  
120.2436   218.0793   218.5575   1.186798   53.39361   54.35754   240.9375   186.5788  
120.396    217.188    217.9553   1.185883   58.21141   54.9361    240.9734   186.036   
120.5484   216.8909   217.3531   1.182495   61.05067   55.63626   241.936    186.2988  
120.7008   217.8812   219.1597   1.175812   62.39121   56.34738   244.2961   187.9474  
120.8532   220.7529   221.5685   1.167542   61.83226   57.05835   243.2074   186.1472  
121.0056   223.4267   223.9772   1.157806   63.17302   57.63824   238.9474   181.3087  
121.158    224.6149   226.386    1.151642   64.75047   57.90283   237.5876   179.6844  
121.3104   224.6149   226.0849   1.141327   65.53577   58.15155   238.2604   180.1084  
121.4628   222.2383   222.1706   1.132324   60.48816   58.1944    236.0647   177.8704  
121.6152   218.0793   219.7619   1.124939   56.70242   58.11542   235.8088   177.6948  
121.7676   222.2383   222.4717   1.120361   52.99904   57.97119   238.9064   180.9341  
121.92     224.6149   223.9772   1.117554   53.94555   57.93167   244.1706   186.2378  
122.0724   222.2383   222.1706   1.117523   55.46114   58.12631   249.0554   190.9267  
122.2248   222.2383   222.7728   1.12085    60.66648   58.64175   253.5471   194.9027  
122.3772   222.5354   223.9772   1.126984   67.13359   59.47672   255.4092   195.9305  
122.5296   222.2383   222.7728   1.136749   69.56137   60.56055   256.8289   196.2651  
122.682    221.05     221.3677   1.150604   70.74422   61.80603   254.7517   192.9442  
122.8344   213.326    214.6432   1.169495   71.61176   63.05029   253.891    190.8397  
122.9868   209.7612   210.4279   1.192596   77.13258   64.14319   253.832    189.6871  
123.1392   206.7904   207.4169   1.218781   82.33791   64.94177   253.8934   188.9496  
123.2916   206.7904   207.718    1.248047   87.30653   65.3588    253.4855   188.1263  
123.444    206.7904   208.3202   1.279449   88.03343   65.39499   254.2891   188.8914  
123.5964   206.7904   208.3202   1.312531   88.11253   65.08392   256.9453   191.8575  
123.7488   208.5728   210.1268   1.346802   89.05898   64.53369   258.6217   194.0848  
123.9012   207.6816   210.1268   1.382141   91.56567   63.83218   259.9209   196.0851  
124.0536   206.7904   208.521    1.405975   91.80212   63.34131   260.2952   196.9495  
124.206    206.7904   207.1158   1.441681   88.56847   62.65814   261.5567   198.8924  
124.3584   206.7904   206.5137   1.475952   85.3074    62.0881    261.2576   199.1628  
124.5108   204.7108   207.1158   1.508911   87.76743   61.72275   260.3846   198.6551  
124.6632   204.4138   206.8147   1.540466   88.51851   61.56601   261.9812   200.4083  
124.8156   204.4138   206.5137   1.570129   90.3936    61.64685   263.2426   201.5886  
124.968    203.6216   205.9114   1.597015   87.12096   61.89902   266.8359   204.9292  
125.1204   202.0372   205.0082   1.622314   86.04329   62.30795   269.8907   207.5736  
125.2728   202.0372   205.3093   1.646271   80.3963    62.80005   270.9482   208.1394  
125.4252   202.9284   205.9114   1.668304   74.41497   63.30862   274.1021   210.7811  
125.5776   206.7904   207.718    1.688416   68.47686   63.77243   279.6995   215.9155  
125.73     215.7027   215.5465   1.706573   65.88796   64.12161   285.8795   221.7457  
125.8824   217.4851   219.1597   1.722748   65.8203    64.32343   287.7679   223.4322  
126.0348   218.0793   219.1597   1.736511   64.59264   64.34103   287.1199   222.7666  
126.1872   216.8909   218.8586   1.748413   60.96458   64.19116   287.4689   223.2642  
126.3396   217.8812   218.7582   1.759247   54.02435   63.88733   289.0694   225.1694  
126.492    224.6149   225.4827   1.770142   49.92327   63.4639    290.9302   227.4529  
126.6444   225.8033   227.5903   1.782013   43.37729   63.00555   293.6974   230.6778  
126.7968   226.7935   227.9918   1.789581   41.12785   62.71191   294.8371   232.1124  
126.9492   226.5954   227.5903   1.804993   37.18448   62.32611   294.1112   231.7711  
127.1016   226.9915   227.8914   1.824005   39.06991   62.02936   291.9782   229.9342  
127.254    226.9915   228.1925   1.84549    40.05049   61.86746   290.3407   228.4584  
127.4064   226.9915   228.1925   1.869324   41.62782   61.81268   292.4737   230.6464  
127.5588   226.3974   227.2892   1.89502    42.18726   61.84      294.3405   232.4851  
127.7112   224.6149   226.386    1.920776   41.56326   61.93671   292.93     230.9774  
127.8636   224.6149   226.386    1.946503   40.9323    62.05215   292.379    230.3105  
128.016    224.6149   226.386    1.970673   41.32672   62.1778    293.4126   231.2188  
128.1684   224.6149   225.4492   1.99411    41.12097   62.2757    293.7064   231.413   
128.3208   223.8227   223.7765   2.016235   41.43644   62.36743   293.0764   230.6916  
128.4732   218.0793   219.7619   2.037811   40.5689    62.46667   291.7689   229.2843  
128.6256   218.0793   219.1597   2.060486   40.93238   62.55649   292.0329   229.4583  
128.778    216.8909   217.9553   2.084778   40.38028   62.69022   291.0923   228.3832  
128.9304   215.7027   216.1487   2.110046   40.14359   62.8187    287.8817   225.043   
129.0828   215.7027   216.1487   2.135742   42.11526   62.94302   285.3853   222.4221  
