~Version
 VERS              .         2.0                           : CWLS LOG ASCII STANDARD - VERSION 2.0
 WRAP              .         NO                            : ONE LINE PER DEPTH STEP
 DLM               .         SPACE                         : DELIMITING CHARACTER(SPACE TAB OR COMMA)
~Well Information
#_______________________________________________________________________________
#
#PARAMETER_NAME    .UNIT     VALUE                         : DESCRIPTION
#_______________________________________________________________________________
STRT               .m        60.3504                       : First reference value
STOP               .m        357.378                       : Last reference value
STEP               .m        0.1524                        : Step increment
NULL               .         -9999                         : Missing value
COMP               .                                       : Company
WELL               .         E                             : Well name
FLD                .                                       : Field
LOC                .                                       : Location
CNTY               .                                       : County
STAT               .                                       : State
CTRY               .                                       : Country
SRVC               .                                       : Service Company
DATE               .                                       : Date
API                .                                       : API number
~Parameter Information Block
#_______________________________________________________________________________
#
#PARAMETER_NAME    .UNIT     VALUE                         : DESCRIPTION
#_______________________________________________________________________________
SET                .         Inclination                   : 
TLFamily_C13       .         Caliper 1                     : 
TLFamily_C24       .         Caliper 2                     : 
TLFamily_DEVI      .         Hole Deviation                : 
TLFamily_GR        .         Gamma Ray                     : 
TLFamily_HAZI      .         Hole Azimuth                  : 
TLFamily_MD        .         Measured Depth                : 
TLFamily_P1AZ      .         Pad A Azimuth                 : 
TLFamily_RB        .         Relative Bearing              : 
~Curve Information
#_______________________________________________________________________________
#
#LOGNAME           .UNIT     LOG_ID                        : DESCRIPTION
#_______________________________________________________________________________
MD                 .m                                      :  
C13                .mm                                     : Caliper 1-3 
C24                .mm                                     : Caliper 2-4 
DEVI               .deg                                    : Deviation 
GR                 .gAPI                                   : Gamma Ray 
HAZI               .deg                                    : Hole Azimuth 
P1AZ               .deg                                    : Pad 1 Azimuth 
RB                 .deg                                    : Relative Bearing 
~Ascii
# ...
226.314    224.6149   223.9772   10.09103   80.31151   61.66888   241.7167   180.0472  
226.4664   222.2383   223.0739   10.08755   80.26413   61.66196   241.6078   179.9467  
226.6188   222.2383   222.7728   10.08795   79.08453   61.65659   241.522    179.8675  
226.7712   222.2383   221.8696   10.09048   77.98385   61.6539    242.0503   180.3902  
226.9236   222.2383   222.7728   10.09412   77.3521    61.65414   241.5248   179.8725  
227.076    219.0695   219.7619   10.09802   77.02283   61.65741   239.0924   177.4747  
227.2284   218.6734   219.7619   10.10184   77.65034   61.66199   239.8832   178.2488  
227.3808   217.4851   219.1597   10.10571   76.54714   61.66763   240.3603   178.713   
227.5332   216.8909   216.7509   10.10974   82.79138   61.67334   239.5813   177.9406  
227.6856   215.7027   215.5465   10.11414   84.04985   61.67633   239.1531   177.5159  
227.838    214.5144   214.9443   10.11935   90.81099   61.67725   239.1466   177.5087  
227.9904   213.326    212.937    10.12558   92.71399   61.67682   238.6487   177.019   
228.1428   211.5436   212.5356   10.1329    92.95392   61.67303   238.0607   176.4438  
228.2952   211.5436   211.9334   10.14078   94.46288   61.67081   237.8149   176.2042  
228.4476   210.9494   211.6323   10.14935   93.02953   61.66855   237.5231   175.9192  
228.6      211.5436   212.3348   10.159     99.72999   61.67172   239.1833   177.5505  
228.7524   210.9494   211.9334   10.16925   100.7859   61.6817    239.6588   178.0088  
228.9048   210.9494   211.1304   10.18112   105.0108   61.69458   238.5619   176.9165  
229.0572   210.9494   211.9334   10.20029   99.95615   61.71652   238.6892   177.0206  
229.2096   211.5436   212.3516   10.21722   97.66893   61.73715   239.6068   177.9034  
229.362    211.5436   211.9334   10.23709   97.4426    61.76022   239.4816   177.7575  
229.5144   211.5436   212.5356   10.26019   99.32876   61.78366   241.0195   179.2479  
229.6668   211.5436   211.9334   10.28659   99.01335   61.80496   243.8346   181.997   
229.8192   208.5728   210.1268   10.31601   92.07295   61.82455   247.0057   185.0978  
229.9716   208.5728   209.5246   10.34814   91.46948   61.84302   249.1006   187.1407  
230.124    208.5728   210.1268   10.38202   92.33703   61.85663   249.3521   187.3743  
230.2764   206.7904   208.3202   10.41684   92.99533   61.86511   249.8874   187.8917  
230.4288   206.7904   207.1158   10.45187   94.12695   61.86722   250.2423   188.238   
230.5812   206.7904   205.9114   10.4855    94.57965   61.86417   249.5014   187.5113  
230.7336   206.7904   206.5137   10.51657   95.27908   61.85645   251.0332   189.0251  
230.886    206.7904   206.5137   10.54523   91.35619   61.85278   251.8107   189.7931  
231.0384   207.3845   208.9224   10.57059   84.8684    61.85632   251.8391   189.8168  
231.1908   211.8407   212.5356   10.59247   83.35975   61.86658   250.3677   188.3584  
231.3432   215.7027   216.7509   10.61121   84.4056    61.89075   249.3611   187.3439  
231.4956   215.7027   215.5465   10.62759   84.02853   61.92911   247.8259   185.7962  
231.648    212.4348   212.5356   10.64157   81.31257   61.97556   246.2407   184.1921  
231.8004   210.9494   211.3312   10.65454   79.13534   62.02158   243.5922   181.5435  
231.9528   210.9494   211.3312   10.66718   79.36148   62.05838   240.3456   178.3169  
232.1052   214.5144   214.9443   10.68027   79.5125    62.08038   241.2622   179.1959  
232.2576   219.8617   220.9663   10.70023   79.43705   62.07953   245.4278   183.2901  
232.41     224.6149   224.9809   10.71652   79.21077   62.0582    251.8367   189.6111  
232.5624   224.6149   226.0849   10.7348    79.28616   62.01855   254.4471   192.2176  
232.7148   224.6149   226.386    10.75479   79.81405   61.97635   256.7593   194.5344  
232.8672   224.6149   226.386    10.776     77.15654   61.93674   260.2249   197.9864  
233.0196   224.6149   225.1816   10.79797   77.83544   61.90753   263.3103   201.0574  
233.172    222.2383   223.9772   10.81934   73.53562   61.89966   262.8183   200.5782  
233.3244   222.2383   222.7728   10.8403    76.6457    61.91653   258.1979   196.0057  
233.4768   222.2383   222.7728   10.86066   74.77016   61.95401   252.6795   190.5376  
233.6292   219.8617   221.5685   10.88071   76.88219   62.01117   251.5294   189.3501  
233.7816   219.5647   220.6651   10.90048   74.54378   62.08444   249.1078   186.898   
233.934    217.4851   219.1597   10.9202    78.68255   62.15973   245.1824   182.9679  
234.0864   215.7027   215.2454   10.93982   78.23      62.22842   243.2219   180.9754  
234.2388   208.1767   209.9261   10.9592    79.13525   62.28287   242.5493   180.2617  
234.3912   203.5225   196.8786   10.97781   79.73875   62.31757   242.1274   179.8134  
234.5436   199.9576   192.0611   10.99481   83.58609   62.33133   240.9133   178.608   
234.696    200.8488   192.0611   11.00937   86.30183   62.32217   242.3854   180.0621  
234.8484   201.443    196.8786   11.02136   86.68581   62.29431   244.0209   181.6949  
235.0008   203.6216   205.9114   11.0304    89.32623   62.25491   244.6467   182.3476  
235.1532   210.9494   211.9334   11.03799   89.32625   62.2019    243.9762   181.7416  
235.3056   213.7222   214.9443   11.0423    89.99851   62.16501   244.931    182.715   
235.458    211.5436   212.5356   11.04416   86.69294   62.14078   242.9621   180.8062  
235.6104   212.5339   213.1377   11.04529   87.07014   62.12674   240.6504   178.551   
235.7628   213.326    213.74     11.04507   87.67351   62.12704   239.595    177.5148  
235.9152   212.3358   212.8366   11.0444    88.4896    62.13666   239.995    177.8979  
236.0676   213.326    212.5356   11.04291   87.58437   62.15762   238.2207   176.1356  
236.22     214.7124   214.9443   11.04193   83.43534   62.17981   236.8413   174.7596  
236.3724   215.7027   216.4498   11.04163   82.61932   62.20352   235.8986   173.811   
236.5248   216.8909   217.052    11.04349   79.14902   62.22418   233.6875   171.619   
236.6772   216.8909   217.3531   11.04922   77.56491   62.23907   233.2081   171.1337  
236.8296   219.8617   220.6651   11.06058   76.85487   62.24478   235.4334   173.3139  
236.982    223.8227   223.9772   11.07855   79.16836   62.24048   237.8673   175.7079  
237.1344   224.6149   225.1816   11.10306   81.49654   62.22427   239.8889   177.7084  
237.2868   222.2383   222.7728   11.13361   81.0611    62.1955    238.6418   176.5131  
237.4392   214.5144   214.9443   11.16824   83.95285   62.15717   240.0143   177.8978  
237.5916   208.5728   211.0301   11.20599   87.81057   62.11029   244.2968   182.145   
237.744    206.7904   207.5173   11.24408   93.09125   62.06204   244.5407   182.4312  
237.8964   208.2758   209.5246   11.28009   95.27914   62.01773   243.8705   181.8169  
238.0488   210.9494   211.9334   11.31351   94.49745   61.9798    242.3802   180.3928  
238.2012   211.5436   212.8138   11.34274   93.74313   61.9563    239.4643   177.5566  
238.3536   208.5728   210.1268   11.36902   92.08332   61.94531   238.3339   176.4592  
238.506    206.7904   208.1195   11.39337   91.05452   61.95074   236.4944   174.6505  
238.6584   208.5728   210.729    11.418     89.88171   61.9631    231.2365   169.481   
238.8108   211.5436   212.5356   11.44318   88.44849   61.98514   228.5031   166.7765  
238.9632   206.7904   208.0191   11.47983   84.45013   62.01547   226.0787   164.3663  
239.1156   206.7904   207.718    11.51236   84.26514   62.02969   226.1104   164.3853  
239.268    205.305    206.5137   11.54816   85.84924   62.03662   226.8061   165.0637  
239.4204   206.7904   206.7144   11.58569   90.52637   62.03632   227.4734   165.7215  
239.5728   206.7904   206.5137   11.62436   92.36765   62.02734   227.1081   165.3735  
239.7252   206.7904   205.9114   11.66248   91.8398    62.01382   228.5061   166.761   
239.8776   206.7904   205.9114   11.6983    90.93462   62.00061   227.4185   165.7081  
240.03     206.7904   205.9114   11.7319    86.99108   61.98718   226.5638   164.8839  
