~Version
 VERS              .         2.0                           : CWLS LOG ASCII STANDARD - VERSION 2.0
 WRAP              .         NO                            : ONE LINE PER DEPTH STEP
 DLM               .         SPACE                         : DELIMITING CHARACTER(SPACE TAB OR COMMA)
~Well Information
#_______________________________________________________________________________
#
#PARAMETER_NAME    .UNIT     VALUE                         : DESCRIPTION
#_______________________________________________________________________________
STRT               .m        60.3504                       : First reference value
STOP               .m        357.378                       : Last reference value
STEP               .m        0.1524                        : Step increment
NULL               .         -9999                         : Missing value
COMP               .                                       : Company
WELL               .         E                             : Well name
FLD                .                                       : Field
LOC                .                                       : Location
CNTY               .                                       : County
STAT               .                                       : State
CTRY               .                                       : Country
SRVC               .                                       : Service Company
DATE               .                                       : Date
API                .                                       : API number
~Parameter Information Block
#_______________________________________________________________________________
#
#PARAMETER_NAME    .UNIT     VALUE                         : DESCRIPTION
#_______________________________________________________________________________
SET                .         Inclination                   : 
TLFamily_C13       .         Caliper 1                     : 
TLFamily_C24       .         Caliper 2                     : 
TLFamily_DEVI      .         Hole Deviation                : 
TLFamily_GR        .         Gamma Ray                     : 
TLFamily_HAZI      .         Hole Azimuth                  : 
TLFamily_MD        .         Measured Depth                : 
TLFamily_P1AZ      .         Pad A Azimuth                 : 
TLFamily_RB        .         Relative Bearing              : 
~Curve Information
#_______________________________________________________________________________
#
#LOGNAME           .UNIT     LOG_ID                        : DESCRIPTION
#_______________________________________________________________________________
MD                 .m                                      :  
C13                .mm                                     : Caliper 1-3 
C24                .mm                                     : Caliper 2-4 
DEVI               .deg                                    : Deviation 
GR                 .gAPI                                   : Gamma Ray 
HAZI               .deg                                    : Hole Azimuth 
P1AZ               .deg                                    : Pad 1 Azimuth 
RB                 .deg                                    : Relative Bearing 
~Ascii
60.3504    220.5549   221.5685   0.2502441  85.49257   51.58633   146.1088   94.526    
60.5028    219.8617   221.2243   0.2393799  85.25593   44.18753   142.3008   98.11401  
60.6552    215.7027   216.3495   0.2232361  88.96269   39.50061   142.3552   102.8522  
60.8076    215.7027   215.2454   0.2281494  88.96264   32.77432   143.7428   110.9677  
60.96      214.5144   214.9443   0.2523193  88.48941   27.01913   145.5874   118.5693  
61.1124    213.029    213.74     0.1918945  83.75744   44.50412   147.8244   103.3159  
61.2648    209.167    211.3312   0.1829834  80.2874    47.39978   148.9635   101.5584  
61.4172    206.7904   208.6213   0.174408   77.6059    48.18408   150.9165   102.734   
61.5696    206.7904   208.3202   0.1627197  80.2874    52.43268   154.0211   101.5821  
61.722     206.7904   209.7254   0.1575928  84.30965   61.18665   156.1049   94.92062  
61.8744    202.0372   210.1268   0.158905   92.4329    70.91592   157.2821   86.36569  
62.0268    200.8488   210.1268   0.163269   95.56355   76.97336   158.7548   81.78079  
62.1792    200.8488   210.1268   0.1746521  98.40652   85.12329   160.9131   75.79178  
62.3316    199.6606   210.1268   0.1896667  97.53912   91.28735   161.618    70.32779  
62.484     201.6411   211.7326   0.2052307  95.67028   95.43402   161.9032   66.45636  
62.6364    206.7904   214.9443   0.2191162  98.19037   97.88226   161.2451   63.3717   
62.7888    206.7904   215.5465   0.2297363  101.8184   99.08578   160.9158   61.83212  
62.9412    205.0079   214.9443   0.2356567  108.7417   99.52631   159.1221   59.58649  
63.0936    203.5225   214.3421   0.2365723  107.7914   99.43478   158.7694   59.33688  
63.246     200.8488   212.3348   0.2321472  107.1157   99.07895   159.8759   60.79132  
63.3984    202.0372   211.0301   0.2234802  106.8961   98.77863   160.0931   61.30606  
63.5508    202.0372   209.5246   0.2113342  105.7957   98.44077   160.2888   61.84894  
63.7032    203.2255   208.3202   0.1966248  101.5815   98.09073   160.3618   62.27716  
63.8556    202.0372   207.718    0.1812439  97.00722   97.8237    159.1049   61.27792  
64.008     202.0372   206.5137   0.1660767  98.60342   97.1955    157.9636   60.75275  
64.1604    202.0372   206.5137   0.1531982  99.046     96.14951   158.1185   61.96713  
64.3128    202.0372   205.9114   0.142334   100.8598   94.57349   158.3762   63.80096  
64.4652    199.2645   204.7071   0.1340027  99.42143   92.46243   158.22     65.74619  
64.6176    197.284    203.5027   0.1280212  103.7897   89.87073   158.7194   68.83942  
64.77      198.4723   203.5027   0.1235657  105.0517   87.32523   159.2995   71.9675   
64.9224    200.8488   203.5027   0.119812   108.7584   85.13962   160.0522   74.90042  
65.0748    205.206    206.9151   0.1152344  106.7081   83.70624   159.9202   76.20929  
65.2272    211.2465   212.5356   0.1091309  104.4999   83.41174   159.401    75.98148  
65.3796    211.5436   212.8366   0.1011353  103.9477   84.83243   160.9336   76.10486  
65.532     212.4348   212.8366   0.09475708 105.1307   86.69714   161.8528   75.16745  
65.6844    211.5436   212.5356   0.08514404 104.894    92.03592   162.7513   70.71902  
65.8368    206.7904   209.1231   0.07592773 99.45227   100.577    164.571    63.98218  
65.9892    205.0079   207.718    0.06860352 94.01045   112.4513   165.9677   53.52899  
66.1416    207.6816   210.1268   0.06387329 90.93446   125.901    163.872    37.99738  
66.294     217.7822   219.1597   0.06085205 87.30651   138.8734   166.6824   27.79947  
66.4464    224.6149   223.9772   0.05685425 88.25291   150.7978   174.0238   23.21634  
66.5988    224.6149   225.1816   0.05050659 90.06688   161.4996   178.2311   16.72284  
66.7512    223.4267   223.9772   0.04083252 93.69473   173.4057   178.3185   4.93576   
66.9036    219.8617   220.9663   0.02764893 93.85239   190.5316   178.7669   348.2392  
67.056     216.8909   217.9553   0.01550293 93.61601   232.3098   178.6754   306.3351  
67.2084    214.8114   214.9443   0.01977539 94.48356   302.6194   179.5391   236.9683  
67.3608    213.326    214.5429   0.03622437 96.37646   330.5871   183.8949   213.2993  
67.5132    214.5144   214.9443   0.05358887 97.95357   343.2627   186.0696   202.7812  
67.6656    214.5144   214.9443   0.06878662 97.0073    351.7012   184.6883   192.979   
67.818     214.5144   214.9443   0.08157349 96.29749   358.7414   180.1393   181.3913  
67.9704    213.326    215.1451   0.09143066 96.21868   5.096893   177.2118   172.1135  
68.1228    208.5728   212.5356   0.09597778 98.70466   9.123657   177.7616   168.6391  
68.2752    208.5728   212.5356   0.1008606  98.23125   15.15335   176.9409   161.7875  
68.4276    206.7904   210.1268   0.1032104  99.41439   21.0563    177.1739   156.1174  
68.58      206.7904   207.718    0.1039734  100.6352   26.67145   178.4825   151.8097  
68.7324    204.4138   206.2126   0.1037598  104.6575   31.97971   178.7695   146.7901  
68.8848    204.4138   206.2126   0.102478   107.97     36.20517   178.5547   142.3444  
69.0372    204.4138   205.9114   0.1007385  107.6544   39.55972   177.3785   137.818   
69.1896    204.1167   205.9114   0.09909058 107.339    41.58615   176.2327   134.6539  
69.342     203.8196   205.9114   0.09796143 104.9729   42.0538    176.4064   134.3498  
69.4944    203.8196   205.9114   0.09762573 107.2601   41.39383   178.6181   137.2263  
69.6468    203.8196   205.9114   0.09780884 108.8374   39.9744    182.0008   142.029   
69.7992    202.6313   204.1049   0.09973145 111.6766   38.37537   183.8019   145.4257  
69.9516    202.0372   203.5027   0.1032104  111.4401   37.15036   184.6597   147.5056  
70.104     202.0372   203.5027   0.1078796  109.7839   36.48819   184.6086   148.1193  
70.2564    200.8488   203.5027   0.1138306  107.2601   36.44537   185.8445   149.4013  
70.4088    199.0664   202.9005   0.1206055  102.2913   36.819     189.672    152.8538  
70.5612    199.6606   203.5027   0.1282043  103.3166   37.38931   192.7864   155.3936  
70.7136    202.0372   205.9114   0.1361694  100.7929   37.77863   194.3754   156.5938  
70.866     202.3342   206.5137   0.1437988  101.2661   37.75122   195.3245   157.5712  
71.0184    202.9284   206.5137   0.150116   99.5312    37.21646   199.1937   161.9695  
71.1708    206.7904   208.9224   0.1551819  101.5028   36.35513   205.3697   169.0127  
71.3232    213.326    213.3385   0.1578674  102.6069   35.09119   209.0123   173.9225  
71.4756    213.326    212.5356   0.1586914  97.87469   33.6691    210.664    176.9896  
71.628     213.9202   214.6432   0.1585999  85.09816   32.80246   211.398    178.5942  
71.7804    214.5144   214.9443   0.1565247  69.40363   31.51199   213.3833   181.8761  
71.9328    211.2465   212.5356   0.1533508  59.07194   30.4447    214.2938   183.8467  
72.0852    206.7904   208.3202   0.1490784  60.72822   29.64096   211.1168   181.4772  
72.2376    213.9202   214.041    0.1443787  62.62093   29.26883   208.172    178.9044  
72.39      217.7822   219.1597   0.1398926  63.40961   29.33981   208.8031   179.4625  
72.5424    215.7027   215.8476   0.137207   59.6239    30.04919   209.4537   179.4022  
72.6948    213.128    213.5392   0.1367798  60.35778   31.29382   210.6368   179.3455  
72.8472    211.5436   212.5356   0.1397095  56.17771   33.29971   211.262    177.96    
72.9996    210.9494   212.5356   0.1472473  56.49314   36.11929   209.6344   173.516   
73.152     214.5144   214.9443   0.1601563  65.22354   39.5549    208.338    168.7856  
73.3044    213.326    214.041    0.1775208  81.86813   43.38116   208.8516   165.4727  
73.4568    211.7417   212.5356   0.1999512  92.04211   47.35916   209.4394   162.0762  
73.6092    208.5728   210.1268   0.224823   89.91262   51.53946   207.3901   155.8489  
73.7616    206.7904   208.3202   0.2498169  75.00314   55.75272   206.0701   150.3194  
73.914     206.7904   207.718    0.2724609  57.25792   60.00757   205.0967   145.091   
74.0664    211.5436   212.5356   0.2913513  41.32668   64.4082    202.9182   138.5078  
