~Version
 VERS              .         2.0                           : CWLS LOG ASCII STANDARD - VERSION 2.0
 WRAP              .         NO                            : ONE LINE PER DEPTH STEP
 DLM               .         SPACE                         : DELIMITING CHARACTER(SPACE TAB OR COMMA)
~Well Information
#_______________________________________________________________________________
#
#PARAMETER_NAME    .UNIT     VALUE                         : DESCRIPTION
#_______________________________________________________________________________
STRT               .m        60.3504                       : First reference value
STOP               .m        357.378                       : Last reference value
STEP               .m        0.1524                        : Step increment
NULL               .         -9999                         : Missing value
COMP               .                                       : Company
WELL               .         E                             : Well name
FLD                .                                       : Field
LOC                .                                       : Location
CNTY               .                                       : County
STAT               .                                       : State
CTRY               .                                       : Country
SRVC               .                                       : Service Company
DATE               .                                       : Date
API                .                                       : API number
~Parameter Information Block
#_______________________________________________________________________________
#
#PARAMETER_NAME    .UNIT     VALUE                         : DESCRIPTION
#_______________________________________________________________________________
SET                .         Inclination                   : 
TLFamily_C13       .         Caliper 1                     : 
TLFamily_C24       .         Caliper 2                     : 
TLFamily_DEVI      .         Hole Deviation                : 
TLFamily_GR        .         Gamma Ray                     : 
TLFamily_HAZI      .         Hole Azimuth                  : 
TLFamily_MD        .         Measured Depth                : 
TLFamily_P1AZ      .         Pad A Azimuth                 : 
TLFamily_RB        .         Relative Bearing              : 
~Curve Information
#_______________________________________________________________________________
#
#LOGNAME           .UNIT     LOG_ID                        : DESCRIPTION
#_______________________________________________________________________________
MD                 .m                                      :  
C13                .mm                                     : Caliper 1-3 
C24                .mm                                     : Caliper 2-4 
DEVI               .deg                                    : Deviation 
GR                 .gAPI                                   : Gamma Ray 
HAZI               .deg                                    : Hole Azimuth 
P1AZ               .deg                                    : Pad 1 Azimuth 
RB                 .deg                                    : Relative Bearing 
~Ascii
# ...
74.2188    211.2465   212.5356   0.3044434  39.11157   68.88229   203.4778   134.5955  
74.3712    198.7693   204.406    0.3108521  45.34214   73.34912   207.9134   134.5625  
74.5236    194.6103   202.2983   0.3101501  54.33299   77.81125   211.8717   134.0581  
74.676     200.8489   206.1122   0.3032227  58.28326   82.19989   213.1979   130.9982  
74.8284    213.326    213.4389   0.2916565  55.28638   86.32098   211.8027   125.4812  
74.9808    214.5144   214.9443   0.2767639  53.06091   89.9278    212.8364   122.9116  
75.1332    211.2465   212.1341   0.2663574  51.01038   91.79584   215.9297   124.1298  
75.2856    205.6021   208.1195   0.2485962  57.16199   94.06271   221.6464   127.5814  
75.438     204.8099   208.0191   0.2313843  64.19846   95.4054    222.8916   127.4773  
75.5904    208.5728   210.1268   0.2150879  72.87379   95.47989   228.6853   133.2001  
75.7428    208.5728   209.8257   0.2009277  80.99714   94.47943   230.7961   136.317   
75.8952    210.9494   212.3348   0.1899109  86.28139   92.12808   229.8601   137.7223  
76.0476    211.5436   212.5356   0.1824951  91.56554   88.91418   229.5579   140.6639  
76.2       213.326    213.4389   0.1783447  87.78371   85.22864   227.5869   142.3565  
76.3524    215.4056   215.5465   0.1776428  89.56999   81.54254   228.7415   147.2016  
76.5048    214.5144   214.9443   0.1800842  86.96751   78.34277   228.1557   149.8245  
76.6572    213.326    214.6432   0.1838989  90.82809   75.82266   223.9424   148.1228  
76.8096    210.3553   211.5319   0.1875     91.56552   74.0289    222.8712   148.8503  
76.962     206.7904   208.6213   0.1893311  91.95985   72.98859   223.6485   150.653   
77.1144    206.7904   210.1268   0.1877441  94.24717   72.59338   225.9763   153.3815  
77.2668    210.9494   211.0301   0.1819458  90.46131   72.84988   228.1147   155.2622  
77.4192    211.5436   212.5356   0.1710205  94.56248   73.75909   230.924    157.1721  
77.5716    210.9494   212.5356   0.1558838  93.04133   75.36273   232.2847   156.9233  
77.724     206.9884   210.1268   0.1380005  91.41257   78.0831    231.5019   153.4208  
77.8764    206.7904   208.3202   0.1251831  89.04638   80.61948   229.3463   148.7242  
78.0288    206.7904   208.9224   0.107605   89.69986   85.87674   229.7185   143.8486  
78.1812    206.7904   208.9224   0.09338379 92.98495   93.04977   229.703    136.651   
78.3336    206.7904   208.3202   0.08517456 92.5116    101.3183   229.7506   128.4573  
78.486     206.7904   208.3202   0.08267212 89.27826   108.81     231.0663   122.2337  
78.6384    208.5728   210.4279   0.08517456 88.48962   113.9059   231.722    117.8362  
78.7908    214.2173   214.9443   0.08810425 87.22803   114.837    230.5191   115.6921  
78.9432    215.7027   215.2454   0.09103394 88.80528   115.7735   229.3093   113.5355  
79.0956    215.7027   215.1451   0.09890747 90.61921   115.4339   227.882    112.4477  
79.248     215.7027   215.5465   0.1074829  91.4482    113.813    228.6198   114.8217  
79.4004    211.8407   212.5356   0.1157837  92.28203   111.7725   230.5707   118.8056  
79.5528    207.6816   210.1268   0.1230774  93.36724   109.4306   229.8075   120.374   
79.7052    206.7904   207.718    0.1283264  92.81526   107.154    228.2843   121.1315  
79.85760000000001 206.7904   207.3166   0.1315918  95.80551   104.5704   226.7688   122.1976  
80.01000000000001 204.4138   207.718    0.1329956  96.29749   101.6736   226.4319   124.7447  
80.16240000000001 206.7904   208.3202   0.1328125  97.55937   98.28571   226.6716   128.3854  
80.31480000000001 208.5728   210.4279   0.131958   94.08908   94.49387   226.3142   131.7914  
80.46720000000001 215.7027   215.2454   0.1303406  92.82728   90.5824    224.7573   134.1589  
80.61960000000001 215.7027   216.7509   0.1288452  88.48952   88.1951    224.7502   136.5554  
80.77200000000001 215.7027   216.1487   0.1260681  87.14875   84.65289   227.1796   142.528   
80.92440000000001 215.7027   216.1487   0.1221313  85.27478   81.89645   226.2173   144.3139  
81.07680000000001 215.7027   216.1487   0.1166382  86.06316   80.33301   223.3361   142.9874  
81.22920000000001 215.7027   214.9443   0.1092529  84.18771   80.16647   220.4819   140.3232  
81.38160000000001 215.7027   216.7509   0.1001892  84.43549   81.81998   219.2278   137.3881  
81.53400000000001 216.8909   217.5538   0.09112549 83.48935   85.73328   218.8378   133.1071  
81.68640000000001 216.8909   217.3531   0.08285522 82.68343   91.55026   220.959    129.4017  
81.83880000000001 216.8909   217.3531   0.07763672 82.96885   98.85562   221.2912   122.4429  
81.99120000000001 216.8909   218.2564   0.07583618 84.07294   105.7886   219.4516   113.6672  
82.14360000000001 218.0793   219.1597   0.07641602 85.80806   110.8962   218.8433   107.9497  
82.29600000000001 217.6832   219.1597   0.07946777 86.04468   112.8169   218.9421   106.1109  
82.44840000000001 218.0793   217.3531   0.08456421 86.43911   111.8674   218.3282   106.4788  
82.60080000000001 216.8909   217.3531   0.09155273 85.49258   108.5977   215.4287   106.806   
82.75320000000001 217.7822   218.8586   0.1010132  85.57142   104.4005   214.6649   110.277   
82.90560000000001 218.0793   219.1597   0.1127319  85.96575   100.3571   216.3432   115.9898  
83.05800000000001 219.0695   219.7619   0.1256104  88.41073   96.95517   219.2464   122.2945  
83.21039999999999 218.0793   219.4608   0.1398315  91.01351   94.77084   221.212    126.4371  
83.36279999999999 216.2968   216.7509   0.1530762  92.35412   93.63995   221.9324   128.2933  
83.51519999999999 215.7027   214.9443   0.1618042  91.80215   93.37082   222.0304   128.6422  
83.66759999999999 214.5144   214.9443   0.1707458  88.48962   93.42743   223.2702   129.8415  
83.81999999999999 215.7027   215.1451   0.1761475  90.61906   94.13431   223.9484   129.8141  
83.97239999999999 215.7027   215.5465   0.1786194  90.78011   95.39285   226.3874   131.0049  
84.12479999999999 215.7027   214.9443   0.1789551  95.84644   96.98114   228.758    131.7856  
84.27719999999999 210.9494   211.9334   0.1784668  96.29575   99.12222   229.4767   130.3507  
84.42959999999999 206.7904   210.1268   0.1785278  99.67605   101.7586   229.093    127.338   
84.58199999999999 208.5728   210.1268   0.1813354  98.73481   104.5233   230.942    126.4125  
84.73439999999999 206.7904   210.1268   0.1879883  97.18147   106.9916   230.3873   123.3938  
84.88679999999999 206.7904   208.3202   0.1988831  103.8139   108.7278   227.3449   118.6049  
85.03919999999999 206.7904   207.718    0.2132874  103.4746   109.5992   226.5067   116.8998  
85.19159999999999 204.4138   205.9114   0.2305603  107.97     109.624    229.3835   119.7686  
85.34399999999999 204.4138   206.5137   0.2486572  104.6575   109.1778   230.2032   121.0353  
85.49639999999999 204.4138   206.1122   0.2666321  105.4461   108.274    230.426    122.1499  
85.64879999999999 204.4138   205.9114   0.2825012  102.8434   107.348    229.2162   121.8669  
85.80119999999999 204.4138   205.9114   0.2949219  100.1415   106.5843   227.3015   120.7153  
85.95359999999999 206.7904   206.5137   0.3026428  97.6965    106.1582   223.4129   117.249   
86.10599999999999 210.3553   211.3312   0.3049316  94.46292   106.049    223.5837   117.5318  
86.25839999999999 213.7222   214.3421   0.303772   92.59063   106.08     224.0727   117.9913  
86.41079999999999 217.4851   218.5575   0.2969666  92.51171   106.3753   225.0678   118.6965  
86.56319999999999 223.4267   223.9772   0.2852783  94.87798   106.7534   226.4214   119.6658  
86.71559999999999 224.6149   226.386    0.2700195  91.72321   106.9284   227.4762   120.5429  
86.86799999999999 224.912    226.386    0.2524719  91.48666   106.7724   228.1544   121.3741  
87.0204    225.8033   228.1925   0.2344971  86.12339   106.088    230.348    124.2566  
87.1728    225.8033   228.1925   0.2182312  84.07279   104.6902   230.7843   126.0889  
87.3252    224.6149   226.386    0.2055054  81.37628   102.9605   228.8661   125.9133  
87.4776    224.6149   226.386    0.1978455  81.76064   101.2529   223.4677   122.2137  
