~Version
 VERS              .         2.0                           : CWLS LOG ASCII STANDARD - VERSION 2.0
 WRAP              .         NO                            : ONE LINE PER DEPTH STEP
 DLM               .         SPACE                         : DELIMITING CHARACTER(SPACE TAB OR COMMA)
~Well Information
#_______________________________________________________________________________
#
#PARAMETER_NAME    .UNIT     VALUE                         : DESCRIPTION
#_______________________________________________________________________________
STRT               .m        60.3504                       : First reference value
STOP               .m        357.378                       : Last reference value
STEP               .m        0.1524                        : Step increment
NULL               .         -9999                         : Missing value
COMP               .                                       : Company
WELL               .         E                             : Well name
FLD                .                                       : Field
LOC                .                                       : Location
CNTY               .                                       : County
STAT               .                                       : State
CTRY               .                                       : Country
SRVC               .                                       : Service Company
DATE               .                                       : Date
API                .                                       : API number
~Parameter Information Block
#_______________________________________________________________________________
#
#PARAMETER_NAME    .UNIT     VALUE                         : DESCRIPTION
#_______________________________________________________________________________
SET                .         Inclination                   : 
TLFamily_C13       .         Caliper 1                     : 
TLFamily_C24       .         Caliper 2                     : 
TLFamily_DEVI      .         Hole Deviation                : 
TLFamily_GR        .         Gamma Ray                     : 
TLFamily_HAZI      .         Hole Azimuth                  : 
TLFamily_MD        .         Measured Depth                : 
TLFamily_P1AZ      .         Pad A Azimuth                 : 
TLFamily_RB        .         Relative Bearing              : 
~Curve Information
#_______________________________________________________________________________
#
#LOGNAME           .UNIT     LOG_ID                        : DESCRIPTION
#_______________________________________________________________________________
MD                 .m                                      :  
C13                .mm                                     : Caliper 1-3 
C24                .mm                                     : Caliper 2-4 
DEVI               .deg                                    : Deviation 
GR                 .gAPI                                   : Gamma Ray 
HAZI               .deg                                    : Hole Azimuth 
P1AZ               .deg                                    : Pad 1 Azimuth 
RB                 .deg                                    : Relative Bearing 
~Ascii
# ...
240.1824   206.7904   207.718    11.76215   85.40681   61.97891   227.8713   166.1772  
240.3348   212.7319   212.937    11.79022   82.99284   61.97098   230.9069   169.1638  
240.4872   215.7027   215.3587   11.81631   85.84936   61.9614    235.4671   173.642   
240.6396   215.7027   216.7509   11.84109   89.31944   61.94907   236.6952   174.8572  
240.792    215.7027   216.4498   11.86533   92.18613   61.92834   236.6296   174.8137  
240.9444   215.7027   215.1451   11.88934   90.22474   61.89728   241.1728   179.2911  
241.0968   214.5144   214.9443   11.91296   89.99851   61.85507   245.5251   183.5911  
241.2492   215.7027   216.7509   11.93616   90.22478   61.8038    245.9953   184.1012  
241.4016   218.0793   219.5611   11.95923   88.03709   61.74887   246.3073   184.4599  
241.554    222.2383   222.7728   11.98303   82.91412   61.69415   246.8132   185.008   
241.7064   222.2383   222.7728   12.00732   79.51936   61.6485    244.6543   182.9402  
241.8588   222.2383   223.6761   12.03323   81.02808   61.61646   243.2134   181.5619  
242.0112   222.2383   223.9772   12.07086   80.04048   61.60452   244.4919   182.8237  
242.1636   222.2383   223.9772   12.10309   82.45449   61.61423   247.8634   186.1114  
242.316    220.0598   221.5685   12.13785   82.07731   61.64175   254.172    192.2588  
242.4684   219.8617   221.5685   12.17529   85.98296   61.68176   256.2998   194.3028  
242.6208   217.6832   219.1597   12.21478   84.9897    61.72821   255.1841   193.162   
242.7732   217.4851   218.5575   12.25467   84.3108    61.77661   253.0071   190.9809  
242.9256   216.4949   216.9516   12.29437   79.34225   61.82303   251.1078   189.0754  
243.078    214.5144   214.9443   12.33435   75.96012   61.85974   249.8223   187.7809  
243.2304   211.1475   212.1341   12.37332   75.13011   61.88666   248.2884   186.2543  
243.3828   206.7904   207.718    12.41144   77.62614   61.90118   247.6931   185.6574  
243.5352   208.5728   210.729    12.4473    79.81381   61.905     247.0559   185.0303  
243.6876   210.9494   212.5356   12.48065   77.54055   61.89798   245.5696   183.5851  
243.84     211.5436   212.5356   12.5101    76.25827   61.88504   246.2679   184.2792  
243.9924   210.9494   211.3312   12.53549   73.24076   61.8627    247.8827   185.8775  
244.1448   208.5728   211.0301   12.55508   75.5896    61.83563   248.7817   186.7817  
244.2972   208.5728   210.1268   12.56799   77.70195   61.80594   249.7858   187.791   
244.4496   210.9494   211.3312   12.57358   84.34045   61.77621   250.9373   188.9449  
244.602    208.8699   211.3312   12.57266   85.47198   61.74863   250.724    188.7635  
244.7544   208.5728   210.1268   12.5668    85.85256   61.7247    250.8815   188.9411  
244.9068   206.7904   208.9224   12.55743   84.26853   61.70734   252.0773   190.127   
245.0592   208.5728   208.9224   12.54672   87.73872   61.69766   252.4664   190.5173  
245.2116   210.3553   211.0083   12.53375   86.90552   61.69962   253.0331   191.0702  
245.364    211.5436   212.5356   12.52756   90.42699   61.70969   254.2049   192.2066  
245.5164   213.326    213.74     12.52597   85.52354   61.72571   254.3589   192.3418  
245.6688   214.5144   214.9443   12.52856   83.71299   61.74295   251.8786   189.8991  
245.8212   214.5144   214.9443   12.5358    76.87207   61.76047   249.6629   187.7162  
245.9736   213.326    213.74     12.54486   76.41956   61.77713   250.9662   188.9735  
246.126    213.5241   214.7436   12.55472   76.04234   61.78983   253.3767   191.317   
246.2784   215.7027   214.9443   12.56372   73.49796   61.79654   253.4171   191.3496  
246.4308   215.3066   214.9443   12.57013   68.06625   61.79822   255.0444   192.9396  
246.5832   215.1085   214.9443   12.57263   61.88014   61.79663   255.1096   193.0048  
246.7356   213.326    214.9443   12.57095   54.46658   61.79285   252.9647   190.9106  
246.888    211.5436   212.5356   12.56525   50.25923   61.78973   248.7004   186.7467  
247.0404   211.5436   212.5356   12.55655   48.83228   61.78903   247.021    185.1075  
247.1928   211.5436   212.5356   12.54648   50.01531   61.79083   246.2301   184.3337  
247.3452   211.5436   212.5356   12.53653   57.84381   61.79239   244.9678   183.0999  
247.4976   208.5728   210.5283   12.52719   63.87264   61.80469   244.4143   182.5474  
247.65     205.0079   206.5137   12.52127   70.9125    61.81543   245.4406   183.539   
247.8024   206.7904   207.718    12.51666   70.91248   61.83456   248.8437   186.8441  
247.9548   207.6816   210.2064   12.51517   70.38435   61.85406   252.7427   190.6359  
248.1072   210.9494   212.5356   12.51541   65.17914   61.87289   253.9668   191.8146  
248.2596   208.8699   210.729    12.51889   56.95632   61.8949    256.1366   193.9165  
248.412    206.7904   209.2368   12.52151   47.22477   61.90872   258.0714   195.7978  
248.5644   208.5728   210.1268   12.52383   41.84104   61.91556   258.5163   196.2267  
248.7168   208.5728   210.1268   12.52551   37.64789   61.91769   258.758    196.4615  
248.8692   208.5728   210.1268   12.52673   38.55317   61.91071   257.7592   195.4896  
249.0216   208.5728   210.1268   12.52655   38.27886   61.89923   257.0038   194.7608  
249.174    208.5728   210.1268   12.52548   40.05792   61.88153   256.4522   194.2382  
249.3264   208.5728   210.1268   12.52353   46.1685    61.86053   256.1762   193.9886  
249.4788   208.5728   210.1268   12.52057   54.39139   61.83722   254.4723   192.3438  
249.6312   206.1962   206.9151   12.51688   64.87732   61.81409   255.3096   193.1861  
249.7836   206.7904   208.0191   12.51306   66.6124    61.78583   257.7777   195.6308  
249.936    212.3358   212.5356   12.50912   68.12109   61.7558    258.455    196.3242  
250.0884   213.326    215.3587   12.50595   67.66852   61.72287   258.3981   196.3007  
250.2408   216.4949   217.052    12.50293   67.3667    61.68881   258.2278   196.1675  
250.3932   217.4851   218.5575   12.50092   66.26948   61.65457   257.5203   195.5079  
250.5456   218.9705   219.7619   12.50031   63.42163   61.62198   257.8362   195.8495  
250.698    222.2383   222.7728   12.50064   62.42383   61.59396   256.4887   194.5568  
250.8504   219.8617   221.5685   12.50201   64.50182   61.57199   252.8737   191.0405  
251.0028   218.0793   219.1597   12.50491   66.97249   61.55353   250.666    188.8997  
251.1552   216.8909   217.6542   12.50687   70.53512   61.54971   251.1143   189.3417  
251.3076   218.0793   219.5611   12.50842   73.40189   61.55096   250.4724   188.7128  
251.46     222.2383   222.7728   12.50894   76.19304   61.55951   248.0031   186.2919  
251.6124   222.2383   223.1743   12.50897   80.41773   61.56943   248.5163   186.7837  
251.7648   222.2383   222.7728   12.50763   81.92632   61.58472   253.0903   191.2395  
251.9172   217.4851   219.7619   12.50565   84.79312   61.60333   254.1623   192.2703  
252.0696   215.7027   215.8476   12.50336   85.99663   61.62128   254.2997   192.3872  
252.222    214.5144   214.9443   12.50098   86.223     61.63724   255.0629   193.1184  
252.3744   213.326    214.3421   12.49863   88.1843    61.65292   255.3515   193.3857  
252.5268   211.5436   212.953    12.49649   88.41408   61.6651    254.567    192.606   
252.6792   211.5436   212.5356   12.49356   89.46334   61.67288   253.2422   191.3026  
252.8316   210.9494   210.1268   12.49048   85.23877   61.67429   251.8335   189.9235  
252.984    206.7904   205.9114   12.4863    86.37035   61.67154   250.7063   188.8245  
253.1364   207.3845   207.718    12.48135   88.56495   61.66193   250.2995   188.4366  
253.2888   213.326    213.4389   12.47552   89.44288   61.64774   251.3507   189.4779  
253.4412   213.326    214.9443   12.46878   91.47964   61.63168   247.6248   185.8527  
253.5936   211.5436   213.0921   12.46161   91.17805   61.6116    246.3479   184.6252  
253.746    208.5728   209.5246   12.45477   92.63874   61.58908   247.3317   185.6083  
253.8984   206.7904   208.3202   12.4487    89.31944   61.56714   248.611    186.8799  
