~Version
 VERS              .         2.0                           : CWLS LOG ASCII STANDARD - VERSION 2.0
 WRAP              .         NO                            : ONE LINE PER DEPTH STEP
 DLM               .         SPACE                         : DELIMITING CHARACTER(SPACE TAB OR COMMA)
~Well Information
#_______________________________________________________________________________
#
#PARAMETER_NAME    .UNIT     VALUE                         : DESCRIPTION
#_______________________________________________________________________________
STRT               .m        60.3504                       : First reference value
STOP               .m        357.378                       : Last reference value
STEP               .m        0.1524                        : Step increment
NULL               .         -9999                         : Missing value
COMP               .                                       : Company
WELL               .         E                             : Well name
FLD                .                                       : Field
LOC                .                                       : Location
CNTY               .                                       : County
STAT               .                                       : State
CTRY               .                                       : Country
SRVC               .                                       : Service Company
DATE               .                                       : Date
API                .                                       : API number
~Parameter Information Block
#_______________________________________________________________________________
#
#PARAMETER_NAME    .UNIT     VALUE                         : DESCRIPTION
#_______________________________________________________________________________
SET                .         Inclination                   : 
TLFamily_C13       .         Caliper 1                     : 
TLFamily_C24       .         Caliper 2                     : 
TLFamily_DEVI      .         Hole Deviation                : 
TLFamily_GR        .         Gamma Ray                     : 
TLFamily_HAZI      .         Hole Azimuth                  : 
TLFamily_MD        .         Measured Depth                : 
TLFamily_P1AZ      .         Pad A Azimuth                 : 
TLFamily_RB        .         Relative Bearing              : 
~Curve Information
#_______________________________________________________________________________
#
#LOGNAME           .UNIT     LOG_ID                        : DESCRIPTION
#_______________________________________________________________________________
MD                 .m                                      :  
C13                .mm                                     : Caliper 1-3 
C24                .mm                                     : Caliper 2-4 
DEVI               .deg                                    : Deviation 
GR                 .gAPI                                   : Gamma Ray 
HAZI               .deg                                    : Hole Azimuth 
P1AZ               .deg                                    : Pad 1 Azimuth 
RB                 .deg                                    : Relative Bearing 
~Ascii
# ...
212.4456   224.6149   225.1816   9.410614   52.48137   62.02908   221.6895   159.912   
212.598    224.6149   225.1816   9.433929   53.68838   62.07349   221.1958   159.3807  
212.7504   224.6149   224.2783   9.459747   53.76735   62.12698   223.2214   161.3337  
212.9028   222.2383   222.7728   9.485413   54.37085   62.18796   222.2439   160.3074  
213.0552   216.0988   216.7509   9.509338   56.42834   62.24759   219.9983   158.0272  
213.2076   213.326    214.9443   9.529327   60.29631   62.30893   219.3607   157.3361  
213.36     211.5436   212.1341   9.545197   61.27692   62.3689    220.7961   158.6989  
213.5124   207.6816   208.9224   9.556824   60.04929   62.42731   220.1046   157.9572  
213.6648   206.7904   206.5137   9.564758   63.21764   62.48383   216.8683   154.6957  
213.8172   204.4138   205.9114   9.569794   63.2176    62.53918   215.8163   153.5982  
213.9696   204.4138   205.9114   9.572845   64.83961   62.59238   216.0275   153.7551  
214.122    204.4138   205.9114   9.57547    62.8027    62.63913   215.3565   153.0435  
214.2744   202.0372   203.7034   9.577362   62.6519    62.68216   212.9474   150.6104  
214.4268   202.0372   203.8038   9.580261   63.44386   62.71213   212.0722   149.7118  
214.5792   204.1167   205.9114   9.584167   62.53865   62.72968   212.5973   150.2162  
214.7316   203.2255   204.7071   9.588776   62.3877    62.73495   213.3329   150.9415  
214.884    203.5225   204.7071   9.593628   63.8039    62.72647   215.6041   153.2037  
215.0364   203.8196   204.406    9.598328   66.25574   62.70242   218.1321   155.7338  
215.1888   202.0372   203.5027   9.602417   67.03761   62.66299   220.6124   158.2292  
215.3412   203.5225   204.1049   9.605225   64.48994   62.61304   224.4562   162.0812  
215.4936   205.9982   207.1158   9.60611    61.66086   62.55554   227.989    165.6293  
215.646    215.7027   215.8476   9.604248   58.69129   62.4971    234.1009   171.7198  
215.7984   220.6539   221.3677   9.599854   60.35104   62.4408    234.6282   172.2955  
215.9508   224.6149   223.9772   9.592682   60.34076   62.39255   230.4905   168.2598  
216.1032   224.6149   223.9772   9.58313    60.3407    62.35486   226.4549   164.311   
216.2556   224.6149   224.5794   9.571625   61.01953   62.33209   224.5508   162.4512  
216.408    224.6149   225.1816   9.554779   58.84208   62.3223    224.4391   162.3493  
216.5604   224.6149   224.2783   9.543091   62.60029   62.32416   224.939    162.8411  
216.7128   224.6149   225.1816   9.532959   60.9407    62.33139   225.3649   163.2543  
216.8652   224.6149   224.5794   9.526123   61.99694   62.33615   227.593    165.4512  
217.0176   224.6149   224.9809   9.523163   59.63103   62.33618   229.3044   167.1419  
217.17     224.6149   225.1816   9.525146   59.63093   62.32803   231.5411   169.3583  
217.3224   224.6149   225.1816   9.531708   60.3098    62.31036   231.3052   169.1432  
217.4748   222.2383   223.9772   9.542877   59.97374   62.28012   229.1619   167.0573  
217.6272   220.1588   221.5685   9.558441   59.39778   62.24124   229.3842   167.3156  
217.7796   217.4851   219.1597   9.577484   62.03813   62.19751   232.6892   170.6218  
217.932    215.7027   215.948    9.599823   63.62225   62.15115   236.444    174.3723  
218.0844   213.326    214.9443   9.624725   64.12281   62.10916   238.4511   176.3931  
218.2368   208.5728   210.1268   9.651855   63.36853   62.07129   239.6402   177.6032  
218.3892   204.8099   205.9114   9.680328   63.82114   62.04321   241.6975   179.6591  
218.5416   204.4138   205.9114   9.709717   65.70715   62.02646   242.8564   180.8181  
218.694    206.7904   206.9151   9.740112   65.78263   62.02277   246.3624   184.2774  
218.8464   206.7904   207.1158   9.769684   67.06505   62.03421   250.0433   187.8945  
218.9988   206.7904   207.718    9.798401   67.29126   62.05756   252.2612   190.0579  
219.1512   206.7904   207.1158   9.825562   67.97018   62.08871   253.2768   191.0282  
219.3036   206.7904   208.1195   9.849792   63.44395   62.12509   253.9745   191.6795  
219.456    206.7904   207.718    9.870544   59.096     62.16132   253.7328   191.4048  
219.6084   206.7904   207.718    9.887543   55.92747   62.19077   252.0106   189.6767  
219.7608   206.7904   207.9187   9.900085   59.39764   62.21017   251.347    189.0029  
219.9132   207.6816   208.9224   9.909241   64.27361   62.21194   254.2567   191.8701  
220.0656   213.326    213.1377   9.915558   64.84974   62.1991    254.7081   192.3279  
220.218    215.7027   214.9443   9.920319   63.7182    62.16925   256.1533   193.7831  
220.3704   216.2968   217.052    9.925385   61.83231   62.12503   256.5767   194.2441  
220.5228   216.8909   217.3531   9.935272   59.67197   62.04849   250.3765   188.2049  
220.6752   215.7027   216.7509   9.941742   58.08772   62.00775   248.3499   186.2476  
220.8276   216.8909   217.5538   9.960327   55.25534   61.91879   250.5648   188.5176  
220.98     217.7822   218.8586   9.977905   59.10276   61.8555    253.4008   191.3753  
221.1324   219.8617   220.5648   9.997955   61.59227   61.79663   254.4708   192.4879  
221.2848   222.2383   221.5685   10.01886   64.90479   61.74545   250.29     188.4161  
221.4372   222.2383   223.9772   10.04044   61.96272   61.70184   244.8971   183.1463  
221.5896   222.5354   223.9772   10.06116   58.64341   61.66589   242.9577   181.2721  
221.742    224.6149   223.9772   10.08115   56.57908   61.63602   242.3734   180.7259  
221.8944   223.7237   223.9772   10.0994    58.91759   61.61459   242.332    180.7062  
222.0468   220.4559   221.7692   10.11563   64.65091   61.59863   243.5169   181.8884  
222.1992   216.8909   217.6542   10.13037   67.50403   61.5853    242.6272   181.0256  
222.3516   215.7027   215.5465   10.14252   67.4286    61.5773    243.8266   182.2143  
222.504    214.8114   214.9443   10.15302   62.52516   61.57242   245.0612   183.4343  
222.6564   213.326    214.3421   10.16095   60.71095   61.57352   245.8567   184.2163  
222.8088   213.5241   214.9443   10.16736   60.18295   61.57864   249.3048   187.6063  
222.9612   211.5436   212.2345   10.17239   63.27593   61.58801   251.2946   189.5567  
223.1136   208.5728   210.1268   10.17722   67.97025   61.59952   250.8934   189.1501  
223.266    207.6816   208.6213   10.1828    70.3843    61.60971   248.5763   186.8578  
223.4184   206.7904   205.9114   10.19037   71.47128   61.61929   245.2386   183.5623  
223.5708   206.7904   205.9114   10.20041   69.66071   61.62549   244.716    183.0418  
223.7232   205.206    205.1085   10.21329   70.94321   61.62793   244.8358   183.1573  
223.8756   204.4138   203.8038   10.22858   73.02457   61.62793   245.42     183.7318  
224.028    204.4138   202.0976   10.245     76.34394   61.62695   245.0535   183.3722  
224.1804   204.1167   199.8895   10.2612    80.11578   61.62653   246.3368   184.6352  
224.3328   204.4138   201.3818   10.27478   84.7381    61.63123   247.1363   185.4172  
224.4852   206.7904   201.0939   10.28436   86.39777   61.63913   246.1653   184.4537  
224.6376   206.7904   204.1049   10.28839   85.56792   61.65018   245.2043   183.4973  
224.79     208.5728   209.1231   10.28333   84.64205   61.66544   245.6845   183.9547  
224.9424   211.5436   212.5356   10.27249   86.75447   61.67603   246.1105   184.3636  
225.0948   214.5144   214.9443   10.25549   86.83001   61.68515   247.3179   185.5432  
225.2472   216.8909   217.3531   10.23331   82.94503   61.6926    246.8204   185.0467  
225.3996   216.8909   217.3531   10.20807   79.17307   61.69452   246.6147   184.8426  
225.552    218.9705   219.7619   10.18109   78.49398   61.69537   244.9048   183.1591  
225.7044   224.6149   223.9772   10.15543   79.96509   61.6922    240.5405   178.8664  
225.8568   224.6149   225.1816   10.13226   79.04591   61.68881   238.5719   176.9318  
226.0092   224.6149   225.1816   10.11322   79.49873   61.68375   239.2269   177.5814  
226.1616   224.6149   224.2458   10.09961   78.97061   61.67529   239.8902   178.2426  
