~Version
 VERS              .         2.0                           : CWLS LOG ASCII STANDARD - VERSION 2.0
 WRAP              .         NO                            : ONE LINE PER DEPTH STEP
 DLM               .         SPACE                         : DELIMITING CHARACTER(SPACE TAB OR COMMA)
~Well Information
#_______________________________________________________________________________
#
#PARAMETER_NAME    .UNIT     VALUE                         : DESCRIPTION
#_______________________________________________________________________________
STRT               .M        0.2376                        : First reference value
STOP               .M        360.9684                      : Last reference value
STEP               .M        0.1524                        : Step increment
NULL               .         -9999                         : Missing value
COMP               .                                       : Company
WELL               .         E                             : Well name
FLD                .                                       : Field
LOC                .                                       : Location
CNTY               .                                       : County
STAT               .                                       : State
CTRY               .                                       : Country
SRVC               .                                       : Service Company
DATE               .                                       : Date
API                .                                       : API number
~Parameter Information Block
#_______________________________________________________________________________
#
#PARAMETER_NAME    .UNIT     VALUE                         : DESCRIPTION
#_______________________________________________________________________________
SET                .         Logs                          : 
TLFamily_DEPT      .         Measured Depth                : 
TLFamily_DT        .         Compressional Slowness        : 
TLFamily_GR        .         Gamma Ray                     : 
TLFamily_ILD       .         Resistivity - Deep            : 
TLFamily_NPOR_LIM  .         Thermal Neutron Porosity Limestone: 
TLFamily_PEF       .         Photoelectric Factor          : 
TLFamily_RHO       .         Bulk Density                  : 
~Curve Information
#_______________________________________________________________________________
#
#LOGNAME           .UNIT     LOG_ID                        : DESCRIPTION
#_______________________________________________________________________________
DEPT               .M                                      : 1 Depth Index 
DT                 .US/M                                   : 6 DELTA-T (ALSO CALLED SLOWNESS OR INTERVAL TRANSIT TIME) **MERGED** 
GR                 .GAPI                                   : 60 GAMMA RAY (F14.5) **MERGED** 
ILD                .OHMM                                   : 30 ARRAY INDUCTION ONE FOOT RESISTIVITY A90 (F14.5) **MERGED** 
NPOR_LIM           .V/V                                    : 92 ENHANCED THERMAL NEUTRON POROSITY (MATRIX LIMESTONE) (F14.5) **MERGED** 
PEF                .B/E                                    : 94 HIGH RESOLUTION FORMATION PHOTOELECTRIC FACTOR (F14.5) **MERGED** 
RHO                .K/M3                                   : 103 3 3 3 STANDARD RESOLUTION FORMATION DENSITY (F14.5) **MERGED** 
~Ascii
# ...
308.6952   420.134    36.1997    140.4015960693359 0.382099986076355 1.9955     2049.2158 
308.8476   421.4223   37.3504    120.2401962280273 0.376800000667572 2.0356     2052.0979 
309        422.7107   38.5012    100.0789031982422 0.3716000020503998 2.0757     2054.9801 
309.1524   416.382    40.601     56.94760131835938 0.3668999969959259 1.7372     2067.4601 
309.3048   415.1447   42.4678    36.34659957885742 0.3413999974727631 1.8374     2100.1909 
309.4572   409.6623   48.1235    19.63089942932129 0.3366000056266785 1.9872     2143.7907 
309.6096   402.8054   53.4658    15.95800018310547 0.3021000027656555 1.981      2182.741  
309.762    406.0133   56.2072    12.50580024719238 0.3190000057220459 1.9666     2188.1807 
309.9144   410.1655   51.0315    13.02200031280518 0.3465999960899353 1.877      2154.3555 
310.0668   419.3119   44.9451    20.93020057678223 0.3240000009536743 1.6735     2100.3871 
310.2192   426.7533   39.1049    39.1885986328125 0.3434999883174896 1.73       2059.3466 
310.3716   430.6818   34.9535    76.00319671630859 0.3729999959468842 1.7165     2036.7425 
310.524    433.5035   32.4684    140.7014007568359 0.3612000048160553 1.5931     2030.1224 
310.6764   432.1562   30.3049    182.2752990722656 0.3404000103473663 1.6375     2025.0223 
310.8288   430.8323   29.853     135.4102935791016 0.335099995136261 1.6959     2023.8493 
310.9812   430.5634   29.569     126.9997024536133 0.3576000034809113 1.6348     2019.7255 
311.1336   430.3921   29.3059    136.8899993896484 0.3686999976634979 1.5992     2016.894  
311.286    434.6894   31.6164    161.1587982177734 0.3612000048160553 1.7396     2017.9686 
311.4384   437.1444   33.5244    192.9651947021484 0.3625999987125397 1.8551     2021.8539 
311.5908   442.9994   36.7521    192.1065979003906 0.388700008392334 1.8448     2034.2926 
311.7432   444.0319   39.1984    112.3790969848633 0.4205999970436096 1.97       2047.5002 
311.8956   440.942    43.153     61.97579956054688 0.4086000025272369 2.143      2068.7555 
312.048    431.6086   47.8754    43.83219909667969 0.3657999932765961 1.9279     2099.0776 
312.2004   423.7387   52.9124    21.05500030517578 0.3222000002861023 2.0294     2132.5012 
312.3528   421.1704   53.0089    20.27379989624023 0.3418999910354614 2.0126     2141.4945 
312.5052   426.5205   47.1363    17.36109924316406 0.3910000026226044 2.0077     2112.1893 
312.6576   435.3501   36.6284    36.43719863891602 0.4106000065803528 1.8456     2065.2718 
312.81     440.0392   27.6702    94.46880340576172 0.3797000050544739 1.9208     2031.6937 
312.9624   441.1654   23.5987    122.1317977905273 0.3490000069141388 1.8774     2016.0768 
313.1148   437.1451   23.3561    160.3099975585938 0.3346999883651733 1.7739     2017.2052 
313.2672   433.6032   24.7015    172.1645965576172 0.3364000022411346 1.7929     2022.728  
313.4196   430.1359   25.7135    139.3361053466797 0.3463000059127808 1.8116     2032.4929 
313.572    426.5639   26.3672    106.8028030395508 0.3555000126361847 1.9072     2036.2436 
313.7244   422.5158   27.4298    104.9344024658203 0.36039999127388 1.7172     2040.8974 
313.8768   418.9658   28.4792    125.4627990722656 0.3388999998569489 1.6946     2045.048  
314.0292   417.7582   29.1902    153.3253936767578 0.33160001039505 1.844      2049.5093 
314.1816   416.7286   28.8813    143.8489990234375 0.3616000115871429 2.0254     2050.6155 
314.334    415.9209   28.1778    145.5166931152344 0.3705999851226807 1.6613     2049.9593 
314.4864   414.9731   27.8084    164.6849975585938 0.3334999978542328 1.6982     2049.5335 
314.6388   411.5015   29.3276    159.2017059326172 0.3156000077724457 1.6647     2056.6249 
314.7912   408.6693   32.9814    126.1392974853516 0.3183000087738037 1.6367     2073.7336 
314.9436   407.8274   36.8445    79.38349914550781 0.3208000063896179 1.728      2093.4527 
315.096    408.1925   40.0649    38.80979919433594 0.3407999873161316 1.8386     2103.0669 
315.2484   410.8603   42.2301    49.37760162353516 0.3362999856472015 1.7008     2108.0037 
315.4008   406.9898   44.5735    56.29850006103516 0.3048999905586243 1.712      2127.6819 
315.5532   406.3764   47.651     34.27669906616211 0.3100000023841858 1.8352     2153.7618 
315.7056   408.4109   49.7236    24.51119995117188 0.3355000019073486 1.8581     2166.8111 
315.858    410.7572   50.8231    30.11490058898926 0.3355000019073486 1.7536     2168.5244 
316.0104   411.4046   53.2317    26.52980041503906 0.3240000009536743 1.8274     2176.9095 
316.1628   413.3114   56.4801    14.62979984283447 0.3643999993801117 2.0633     2184.2725 
316.3152   409.6472   58.2422    17.37409973144531 0.3797000050544739 2.076      2180.0868 
316.4676   411.2426   56.1942    22.57379913330078 0.3343999981880188 1.7144     2168.1157 
316.62     423.0041   52.7435    21.66180038452148 0.3409000039100647 1.9574     2160.2094 
316.7724   427.6185   48.9409    28.13310050964355 0.3883000016212463 1.9361     2137.4821 
316.9248   428.6633   46.5303    45.76750183105469 0.3776000142097473 1.8013     2118.1132 
317.0772   432.8478   46.0248    51.89550018310547 0.3429000079631805 1.7643     2104.6662 
317.2296   430.8153   44.274     35.47679901123047 0.3560999929904938 1.9243     2093.4593 
317.382    428.7118   38.7434    50.4838981628418 0.3621000051498413 1.6531     2054.5207 
317.5344   433.3862   31.8096    85.33200073242188 0.3664000034332275 1.715      2017.3204 
317.6868   428.7995   26.8877    122.0915985107422 0.3991000056266785 1.5247     2008.1606 
317.8392   422.2286   26.1282    160.5850067138672 0.3826000094413757 1.5378     2024.1413 
317.9916   415.6306   25.6464    275.6319885253906 0.3465999960899353 1.5703     2040.7346 
318.144    410.9713   26.1643    248.7201995849609 0.3458000123500824 1.5428     2047.7037 
318.2964   407.9128   24.7975    199.9299011230469 0.3443000018596649 1.6047     2048.7307 
318.4488   408.2538   23.7178    139.4459075927734 0.3361000120639801 1.6057     2048.3827 
318.6012   408.8876   24.269     91.78910064697266 0.3325000107288361 1.5969     2044.0749 
318.7536   412.1312   27.1476    90.42340087890625 0.320499986410141 1.5571     2047.202  
318.906    415.9564   31.9277    92.28379821777344 0.3077999949455261 1.5953     2059.604  
319.0584   413.691    35.2272    99.36440277099609 0.3212999999523163 1.5975     2079.9534 
319.2108   408.9013   35.9388    116.1837005615234 0.363999992609024 1.861      2092.4017 
319.3632   407.5833   32.0277    96.78730010986328 0.3434000015258789 1.6505     2082.6134 
319.5156   406.3278   28.0358    45.57279968261719 0.3025999963283539 1.57       2061.9105 
319.668    408.3452   25.0521    38.74660110473633 0.3068000078201294 1.6371     2043.0464 
319.8204   411.5337   24.2602    43.2593994140625 0.3607999980449677 1.6072     2041.2214 
319.9728   410.1133   23.3862    44.60250091552734 0.363099992275238 1.583      2048.4014 
320.1252   408.7949   23.4848    45.67279815673828 0.3330000042915344 1.5506     2056.5438 
320.2776   408.8218   24.3383    57.24069976806641 0.3260999917984009 1.5921     2060.5278 
320.43     409.1957   26.6651    102.1212005615234 0.3361999988555908 1.5765     2062.7887 
320.5824   408.6368   28.0608    180.9530029296875 0.3273000121116638 1.598      2063.8966 
320.7348   406.2795   29.584     176.9241943359375 0.3276999890804291 1.641      2062.4869 
320.8872   406.3149   28.3697    331.3221130371094 0.3400000035762787 1.6447     2056.6204 
321.0396   408.4798   28.0088    243.3251037597656 0.3416000008583069 1.6154     2045.0416 
321.192    408.0572   27.6867    193.6573944091797 0.3452999889850616 1.5824     2044.7858 
321.3444   403.7457   28.9658    156.4868011474609 0.3454000055789948 1.637      2056.0122 
321.4968   399.4593   30.2429    133.3448944091797 0.3492999970912933 1.6443     2081.3931 
321.6492   393.5678   31.6408    125.5737991333008 0.3474999964237213 1.7054     2093.8206 
321.8016   393.0322   31.1668    131.7664947509766 0.3506999909877777 1.6875     2100.5908 
321.954    400.37     30.122     176.35400390625 0.3416999876499176 1.7382     2098.7938 
