~Version
 VERS              .         2.0                           : CWLS LOG ASCII STANDARD - VERSION 2.0
 WRAP              .         NO                            : ONE LINE PER DEPTH STEP
 DLM               .         SPACE                         : DELIMITING CHARACTER(SPACE TAB OR COMMA)
~Well Information
#_______________________________________________________________________________
#
#PARAMETER_NAME    .UNIT     VALUE                         : DESCRIPTION
#_______________________________________________________________________________
STRT               .M        0.2376                        : First reference value
STOP               .M        360.9684                      : Last reference value
STEP               .M        0.1524                        : Step increment
NULL               .         -9999                         : Missing value
COMP               .                                       : Company
WELL               .         E                             : Well name
FLD                .                                       : Field
LOC                .                                       : Location
CNTY               .                                       : County
STAT               .                                       : State
CTRY               .                                       : Country
SRVC               .                                       : Service Company
DATE               .                                       : Date
API                .                                       : API number
~Parameter Information Block
#_______________________________________________________________________________
#
#PARAMETER_NAME    .UNIT     VALUE                         : DESCRIPTION
#_______________________________________________________________________________
SET                .         Logs                          : 
TLFamily_DEPT      .         Measured Depth                : 
TLFamily_DT        .         Compressional Slowness        : 
TLFamily_GR        .         Gamma Ray                     : 
TLFamily_ILD       .         Resistivity - Deep            : 
TLFamily_NPOR_LIM  .         Thermal Neutron Porosity Limestone: 
TLFamily_PEF       .         Photoelectric Factor          : 
TLFamily_RHO       .         Bulk Density                  : 
~Curve Information
#_______________________________________________________________________________
#
#LOGNAME           .UNIT     LOG_ID                        : DESCRIPTION
#_______________________________________________________________________________
DEPT               .M                                      : 1 Depth Index 
DT                 .US/M                                   : 6 DELTA-T (ALSO CALLED SLOWNESS OR INTERVAL TRANSIT TIME) **MERGED** 
GR                 .GAPI                                   : 60 GAMMA RAY (F14.5) **MERGED** 
ILD                .OHMM                                   : 30 ARRAY INDUCTION ONE FOOT RESISTIVITY A90 (F14.5) **MERGED** 
NPOR_LIM           .V/V                                    : 92 ENHANCED THERMAL NEUTRON POROSITY (MATRIX LIMESTONE) (F14.5) **MERGED** 
PEF                .B/E                                    : 94 HIGH RESOLUTION FORMATION PHOTOELECTRIC FACTOR (F14.5) **MERGED** 
RHO                .K/M3                                   : 103 3 3 3 STANDARD RESOLUTION FORMATION DENSITY (F14.5) **MERGED** 
~Ascii
# ...
67.9032    563.6032   93.8615    3.052500009536743 0.5619999766349792 2.2664     1951.586  
68.0556    566.554    95.7723    3.056699991226196 0.5769000053405762 2.457      1973.9245 
68.208     563.3726   96.3476    2.939500093460083 0.5770999789237976 2.465      1992.1549 
68.3604    561.071    95.8667    2.889699935913086 0.5509999990463257 2.4896     2005.1964 
68.5128    554.3052   95.7335    3.005399942398071 0.5102999806404114 2.5509     2038.1333 
68.6652    550.4019   97.9738    3.150799989700317 0.4805000126361847 2.6171     2076.328  
68.8176    549.4869   99.219     3.016599893569946 0.5162000060081482 2.6516     2096.2803 
68.97      550.2304   101.1544   2.989700078964233 0.5281000137329102 2.6781     2098.8148 
69.1224    552.3352   102.0006   3.036900043487549 0.5361999869346619 2.6331     2097.041  
69.2748    549.6638   101.6563   3.087800025939941 0.5346999764442444 2.582      2091.4776 
69.4272    549.0045   101.2135   3.189800024032593 0.5008999705314636 2.5842     2087.844  
69.5796    548.9933   101.4621   3.287699937820435 0.491100013256073 2.5758     2088.42   
69.732     546.6323   101.621    3.161099910736084 0.490200012922287 2.6183     2095.546  
69.8844    546.9725   101.1396   3.175699949264526 0.4896000027656555 2.585      2105.171  
70.0368    543.3628   102.7894   3.265500068664551 0.5033000111579895 2.6222     2109.7548 
70.1892    538.5688   103.9778   3.380199909210205 0.4898999929428101 2.6402     2114.313  
70.3416    536.9589   104.4672   3.599100112915039 0.4654000103473663 2.5649     2120.7393 
70.494     540.4828   100.7693   3.736700057983398 0.4492000043392181 2.4978     2116.7543 
70.6464    543.4102   97.6601    3.202600002288818 0.5030999779701233 2.6312     2099.192  
70.7988    550.3799   99.2228    2.924000024795532 0.5375000238418579 2.5497     2074.0644 
70.9512    563.5644   99.9997    2.84060001373291 0.5309000015258789 2.534      2059.9281 
71.1036    568.1386   104.0637   2.747600078582764 0.5475999712944031 2.5465     2058.2976 
71.256     561.3426   102.2308   2.823699951171875 0.5659999847412109 2.5053     2056.9465 
71.4084    550.3117   97.6138    2.970599889755249 0.5314000248908997 2.4158     2065.2858 
71.5608    558.1822   84.6211    4.145699977874756 0.5343000292778015 2.4289     2064.2869 
71.7132    571.4501   69.8844    8.781200408935547 0.5102999806404114 3.2084     2052.4077 
71.8656    580.1447   57.5962    16.80459976196289 0.446399986743927 2.4352     2057.7681 
72.018     588.121    54.7341    17.5659008026123 0.3916999995708466 2.676      2192.5245 
72.1704    554.5153   56.4752    14.71539974212646 0.4257000088691711 3.7511     2396.2744 
72.3228    520.3817   59.0717    17.21100044250488 0.4277999997138977 4.3571     2517.0602 
72.4752    492.9211   56.5205    25.53420066833496 0.3479999899864197 3.7561     2491.1895 
72.6276    489.5942   53.7787    36.21310043334961 0.3194999992847443 3.7574     2386.2783 
72.78      527.9744   52.4294    40.15470123291016 0.324400007724762 3.6948     2297.8054 
72.9324    559.8517   54.1937    23.63719940185547 0.3930000066757202 3.0776     2194.6872 
73.0848    560.2698   58.2373    12.40380001068115 0.4327999949455261 2.1235     2142.7866 
73.2372    552.7018   71.5477    9.691800117492676 0.4171000123023987 2.3506     2166.0065 
73.3896    497.6553   83.1558    7.321100234985352 0.3777999877929688 2.6294     2217.5022 
73.542     512.8744   87.3111    5.961699962615967 0.36039999127388 2.5028     2214.2964 
73.6944    540.8588   76.6711    6.569900035858154 0.3774999976158142 2.5357     2150.3974 
73.8468    560.325    59.8797    8.891799926757813 0.453000009059906 2.2028     2078.1898 
73.9992    590.8931   46.9069    11.81579971313477 0.4638999998569489 2.0405     2034.2465 
74.1516    599.5013   44.7815    16.38579940795898 0.4214999973773956 2.0325     2024.1324 
74.304     608.1096   42.6561    20.9557991027832 0.3790000081062317 2.0245     2014.0183 
74.4564    580.6988   46.1226    20.26079940795898 0.3436999917030334 2.2313     2027.9431 
74.6088    591.2579   50.4728    20.75309944152832 0.3680000007152557 2.3622     2059.7205 
74.7612    581.0143   52.267     14.1899995803833 0.380299985408783 2.2703     2098.8194 
74.9136    578.7889   54.0522    18.61280059814453 0.3564999997615814 2.0153     2107.7506 
75.066     578.6417   52.6702    18.32640075683594 0.3571999967098236 2.1993     2082.4805 
75.2184    579.6716   51.8053    19.24300003051758 0.3361999988555908 2.177      2038.9015 
75.3708    580.2638   53.4441    14.87870025634766 0.3731000125408173 2.2224     2019.0923 
75.5232    570.915    61.7732    8.171799659729004 0.3966000080108643 2.3733     2035.4544 
75.6756    558.404    70.9789    5.276400089263916 0.3989999890327454 2.5372     2067.8787 
75.828     543.3904   78.8151    4.669099807739258 0.3991000056266785 2.3883     2088.1198 
75.9804    513.5745   82.8676    4.454599857330322 0.4476999938488007 2.4057     2090.6862 
76.1328    511.7952   84.6032    4.333799839019775 0.4251999855041504 2.4552     2100.2806 
76.2852    512.9182   81.8716    4.314099788665771 0.4205000102519989 2.3589     2120.764  
76.4376    515.7055   82.3422    4.478499889373779 0.4235000014305115 2.3812     2138.6773 
76.59      516.6425   84.1093    4.659200191497803 0.412200003862381 2.425      2142.4669 
76.7424    514.52     87.4312    4.739399909973145 0.4273999929428101 2.4195     2144.4755 
76.8948    510.1142   89.1117    4.779699802398682 0.4523999989032745 2.4686     2152.1861 
77.0472    507.7512   88.4729    4.831399917602539 0.4442000091075897 2.4955     2163.2647 
77.1996    509.307    89.1318    4.814499855041504 0.4160999953746796 2.4427     2154.1932 
77.352     511.6174   87.2026    4.848999977111816 0.4266999959945679 2.4019     2131.0348 
77.5044    512.7974   86.9966    4.825399875640869 0.4693000018596649 2.4114     2106.5544 
77.6568    510.7834   87.0916    4.803400039672852 0.4476000070571899 2.3148     2100.355  
77.8092    507.8463   87.6054    4.904500007629395 0.4041999876499176 2.4089     2115.3915 
77.9616    506.7206   88.678     4.824699878692627 0.4050000011920929 2.4035     2134.4106 
78.114     508.5054   89.2594    4.384699821472168 0.4284999966621399 2.4882     2144.237  
78.2664    512.4169   92.3122    3.996200084686279 0.4361000061035156 2.4789     2139.3845 
78.4188    517.4812   94.1232    3.911200046539307 0.4217000007629395 2.475      2132.9156 
78.5712    521.0621   91.3471    3.872499942779541 0.4273000061511993 2.4936     2130.5939 
78.7236    521.8372   88.4092    3.90310001373291 0.4429000020027161 2.4318     2135.131  
78.876     522.4987   87.3963    3.990000009536743 0.4591000080108643 2.448      2132.6733 
79.0284    521.307    89.2794    4.14769983291626 0.4515999853610992 2.3845     2133.9525 
79.1808    519.7716   90.0956    4.235899925231934 0.4305999875068665 2.2431     2134.4905 
79.33320000000001 518.1612   90.3909    4.136600017547607 0.4262999892234802 2.5099     2144.7875 
79.48560000000001 516.7134   92.2555    4.183800220489502 0.426499992609024 2.4705     2151.2401 
79.63800000000001 515.5104   94.1104    4.27299976348877 0.4352000057697296 2.4612     2154.4383 
79.79040000000001 512.7417   94.69      4.178599834442139 0.4323999881744385 2.5014     2149.2392 
79.94280000000001 509.5861   94.829     4.144599914550781 0.4189999997615814 2.508      2140.3264 
80.09520000000001 507.8682   93.4912    4.155900001525879 0.4262999892234802 2.404      2119.6097 
80.24760000000001 511.4984   91.743     4.14769983291626 0.4496999979019165 2.341      2093.0746 
80.40000000000001 516.1721   89.5952    4.240399837493896 0.4659999907016754 2.2563     2063.8865 
80.55240000000001 521.9346   86.8953    4.145999908447266 0.4805999994277954 2.4037     2043.0179 
80.70480000000001 528.3507   85.3389    4.144899845123291 0.5307000279426575 2.4        2037.7416 
80.85720000000001 526.7683   85.0007    4.213099956512451 0.5468000173568726 2.3348     2044.0676 
81.00960000000001 528.0012   86.7944    4.202899932861328 0.5098000168800354 2.3893     2056.2177 
