~Version
 VERS              .         2.0                           : CWLS LOG ASCII STANDARD - VERSION 2.0
 WRAP              .         NO                            : ONE LINE PER DEPTH STEP
 DLM               .         SPACE                         : DELIMITING CHARACTER(SPACE TAB OR COMMA)
~Well Information
#_______________________________________________________________________________
#
#PARAMETER_NAME    .UNIT     VALUE                         : DESCRIPTION
#_______________________________________________________________________________
STRT               .M        0.2376                        : First reference value
STOP               .M        360.9684                      : Last reference value
STEP               .M        0.1524                        : Step increment
NULL               .         -9999                         : Missing value
COMP               .                                       : Company
WELL               .         E                             : Well name
FLD                .                                       : Field
LOC                .                                       : Location
CNTY               .                                       : County
STAT               .                                       : State
CTRY               .                                       : Country
SRVC               .                                       : Service Company
DATE               .                                       : Date
API                .                                       : API number
~Parameter Information Block
#_______________________________________________________________________________
#
#PARAMETER_NAME    .UNIT     VALUE                         : DESCRIPTION
#_______________________________________________________________________________
SET                .         Logs                          : 
TLFamily_DEPT      .         Measured Depth                : 
TLFamily_DT        .         Compressional Slowness        : 
TLFamily_GR        .         Gamma Ray                     : 
TLFamily_ILD       .         Resistivity - Deep            : 
TLFamily_NPOR_LIM  .         Thermal Neutron Porosity Limestone: 
TLFamily_PEF       .         Photoelectric Factor          : 
TLFamily_RHO       .         Bulk Density                  : 
~Curve Information
#_______________________________________________________________________________
#
#LOGNAME           .UNIT     LOG_ID                        : DESCRIPTION
#_______________________________________________________________________________
DEPT               .M                                      : 1 Depth Index 
DT                 .US/M                                   : 6 DELTA-T (ALSO CALLED SLOWNESS OR INTERVAL TRANSIT TIME) **MERGED** 
GR                 .GAPI                                   : 60 GAMMA RAY (F14.5) **MERGED** 
ILD                .OHMM                                   : 30 ARRAY INDUCTION ONE FOOT RESISTIVITY A90 (F14.5) **MERGED** 
NPOR_LIM           .V/V                                    : 92 ENHANCED THERMAL NEUTRON POROSITY (MATRIX LIMESTONE) (F14.5) **MERGED** 
PEF                .B/E                                    : 94 HIGH RESOLUTION FORMATION PHOTOELECTRIC FACTOR (F14.5) **MERGED** 
RHO                .K/M3                                   : 103 3 3 3 STANDARD RESOLUTION FORMATION DENSITY (F14.5) **MERGED** 
~Ascii
# ...
187.9944   485.8236   80.6273    3.940299987792969 0.4781999886035919 2.5982     2160.5957 
188.1468   486.0667   84.1615    3.895699977874756 0.464599996805191 2.5793     2160.339  
188.2992   489.8665   84.2201    3.353699922561646 0.4638999998569489 2.8036     2163.7096 
188.4516   496.9034   83.4209    2.9899001121521 0.4945000112056732 2.9811     2171.204  
188.604    501.8308   81.6382    3.131200075149536 0.4979999959468842 2.8735     2166.7645 
188.7564   500.9716   82.1597    3.113399982452393 0.4821000099182129 2.6662     2151.2444 
188.9088   498.9456   82.1879    2.68339991569519 0.4659000039100647 2.5408     2138.0657 
189.0612   498.7487   84.0675    1.71969997882843 0.489300012588501 2.6261     2133.3635 
189.2136   497.8469   84.47      2.959399938583374 0.4948000013828278 2.6152     2135.622  
189.366    481.5066   82.8469    3.459000110626221 0.5432000160217285 2.5481     2136.0203 
189.5184   467.3321   77.041     3.961699962615967 0.4909999966621399 2.5242     2140.6556 
189.6708   461.7446   73.9889    5.808599948883057 0.4248999953269958 2.7421     2148.8166 
189.8232   418.685    68.4228    6.334700107574463 0.435699999332428 3.0966     2232.9738 
189.9756   412.2745   66.241     5.612800121307373 0.3995000123977661 3.1956     2366.465  
190.128    427.8321   68.9519    5.579599857330322 0.4070000052452087 5.3487     2460.2953 
190.2804   435.6472   80.0621    2.917099952697754 0.4614000022411346 2.998      2385.547  
190.4328   488.4059   90.3896    2.559799909591675 0.5116000175476074 2.7925     2258.4411 
190.5852   508.0516   93.5411    2.552999973297119 0.5009999871253967 2.7465     2167.021  
190.7376   509.2747   92.695     2.573600053787231 0.487500011920929 2.7078     2160.442  
190.89     507.6804   92.0492    2.665199995040894 0.5202999711036682 2.6634     2162.9443 
191.0424   506.5606   91.9657    2.801700115203857 0.4787999987602234 2.7012     2173.9794 
191.1948   504.514    93.3605    2.510699987411499 0.4814999997615814 3.0203     2187.2305 
191.3472   503.0416   92.2969    2.910200119018555 0.5187000036239624 2.9718     2194.9939 
191.4996   503.3624   92.0598    2.953399896621704 0.5346999764442444 3.0179     2195.8652 
191.652    503.6832   91.8226    2.996500015258789 0.5507000088691711 3.064      2196.7364 
191.8044   504.0102   89.5664    3.051500082015991 0.5192999839782715 3.1066     2203.007  
191.9568   506.1226   90.3449    3.193599939346313 0.5098000168800354 3.0525     2210.57   
192.1092   506.1978   93.3394    3.265799999237061 0.4894999861717224 2.8621     2210.6551 
192.2616   505.9984   97.9305    3.176399946212769 0.5080999732017517 2.6678     2200.9654 
192.414    507.088    100.6354   3.118799924850464 0.4973999857902527 2.6154     2190.964  
192.5664   505.905    99.2172    3.071199893951416 0.5333999991416931 2.6832     2186.0228 
192.7188   502.9923   96.1227    3.065299987792969 0.5027999877929688 2.6744     2180.154  
192.8712   498.874    92.6126    3.065900087356567 0.5292999744415283 2.6792     2174.4155 
193.0236   494.4313   88.6836    3.271899938583374 0.5045999884605408 2.6747     2174.1782 
193.176    491.4602   88.7914    3.977099895477295 0.4672999978065491 2.6786     2181.1698 
193.3284   493.4406   91.7065    3.441299915313721 0.4632000029087067 2.5938     2184.4205 
193.4808   498.3584   91.0858    3.179199934005737 0.5432000160217285 2.67       2180.7201 
193.6332   499.3972   89.3316    2.991699934005737 0.503600001335144 2.6227     2169.5044 
193.7856   500.0048   84.6162    2.884999990463257 0.5065000057220459 2.5923     2156.3464 
193.938    499.2539   82.8066    3.063100099563599 0.5428000092506409 2.6771     2148.9582 
194.0904   497.8017   77.4002    3.555900096893311 0.4979999959468842 2.6496     2143.8635 
194.2428   497.3408   75.3882    3.983000040054321 0.4713999927043915 2.6264     2145.232  
194.3952   493.3125   73.657     4.129700183868408 0.487500011920929 2.6373     2151.8937 
194.5476   489.5368   75.2126    4.223700046539307 0.4792999923229218 2.6417     2159.3512 
194.7      485.6406   74.3378    4.395100116729736 0.4806999862194061 2.7135     2158.7308 
194.8524   483.6703   76.721     4.345699787139893 0.4898000061511993 2.7653     2151.4657 
195.0048   485.6184   77.0038    3.790199995040894 0.5184999704360962 2.8491     2151.2935 
195.1572   484.2181   77.0602    3.684799909591675 0.5275999903678894 2.793      2145.2782 
195.3096   482.1797   74.4293    4.649700164794922 0.5171999931335449 2.7252     2131.184  
195.462    472.3094   70.6232    6.03439998626709 0.478300005197525 2.631      2105.7414 
195.6144   466.3108   65.6517    10.61200046539307 0.4395000040531158 2.4833     2090.032  
195.7668   445.2993   60.2986    13.97430038452148 0.4156999886035919 2.6105     2074.1551 
195.9192   440.6272   54.864     16.77050018310547 0.4032000005245209 2.8436     2059.5869 
196.0716   446.8257   52.0994    20.68729972839355 0.4025999903678894 3.0986     2046.8624 
196.224    455.6315   49.4379    20.47500038146973 0.4221999943256378 2.4259     2034.7196 
196.3764   469.8931   48.1546    19.35950088500977 0.4093999862670898 2.2482     2027.2838 
196.5288   469.6515   46.8607    18.68840026855469 0.391400009393692 2.2771     2042.7521 
196.6812   449.0334   46.5576    19.81389999389648 0.3912999927997589 2.4123     2079.4364 
196.8336   440.0929   46.3098    24.54380035400391 0.3716999888420105 3.4574     2117.2696 
196.986    438.5322   45.7258    27.25250053405762 0.3880999982357025 3.488      2110.2775 
197.1384   441.0334   45.8992    20.56480026245117 0.4101999998092651 2.4561     2074.4215 
197.2908   462.6767   45.9128    19.21859931945801 0.4307999908924103 2.3454     2036.8614 
197.4432   468.9452   44.4055    18.6555004119873 0.445499986410141 2.2426     2023.6615 
197.5956   468.1586   43.7435    18.65110015869141 0.4422000050544739 2.2424     2024.7661 
197.748    469.5173   44.2907    19.3125    0.4381999969482422 2.3072     2022.0791 
197.9004   469.0279   45.4752    19.45549964904785 0.4305999875068665 2.2924     2015.7182 
198.0528   472.5678   45.4645    18.6830005645752 0.4289000034332275 2.3566     2012.4686 
198.2052   468.9195   45.2176    18.41189956665039 0.4363999962806702 2.333      2017.0054 
198.3576   468.6103   45.5298    17.91419982910156 0.4559000134468079 2.2866     2019.141  
198.51     468.5095   44.5242    18.07399940490723 0.4476999938488007 2.1727     2016.8141 
198.6624   469.2023   43.2113    18.35199928283691 0.4235999882221222 2.2535     2018.4698 
198.8148   473.4689   42.5716    18.63899993896484 0.4343000054359436 2.2129     2013.557  
198.9672   476.8023   43.5532    18.74090003967285 0.4555000066757202 2.3495     1998.21   
199.1196   474.2708   46.1643    18.85919952392578 0.4487999975681305 2.2972     1974.917  
199.272    472.9934   48.6375    18.5049991607666 0.4153999984264374 2.1418     1971.1223 
199.4244   469.3815   50.5948    19.1569995880127 0.3833000063896179 2.2778     1991.836  
199.5768   463.9715   51.5991    18.38269996643066 0.391400009393692 2.2412     2012.5043 
199.7292   463.9183   50.7961    17.60689926147461 0.3880999982357025 2.3468     2023.7594 
199.8816   461.992    50.1629    16.98800086975098 0.3858000040054321 2.3354     2026.3728 
200.034    458.5382   48.6962    16.90579986572266 0.4022000133991241 2.2588     2033.5655 
200.1864   456.2192   48.1485    17.07270050048828 0.4065000116825104 2.2469     2038.3082 
200.3388   454.766    46.7909    18.14520072937012 0.4138000011444092 2.3948     2037.112  
200.4912   455.7596   47.5794    19.07789993286133 0.4043999910354614 2.3424     2030.6237 
200.6436   456.1872   49.156     19.56030082702637 0.4081999957561493 2.3269     2025.5541 
200.796    450.9716   50.8219    19.71579933166504 0.4277999997138977 2.2838     2024.2775 
200.9484   419.1081   50.7485    19.84040069580078 0.4180999994277954 2.2418     2025.1085 
201.1008   412.9749   49.4629    20.58200073242188 0.3914999961853027 2.2749     2025.4292 
201.2532   406.7131   48.4962    23.16869926452637 0.3937999904155731 2.206      2027.6666 
