~Version
 VERS              .         2.0                           : CWLS LOG ASCII STANDARD - VERSION 2.0
 WRAP              .         NO                            : ONE LINE PER DEPTH STEP
 DLM               .         SPACE                         : DELIMITING CHARACTER(SPACE TAB OR COMMA)
~Well Information
#_______________________________________________________________________________
#
#PARAMETER_NAME    .UNIT     VALUE                         : DESCRIPTION
#_______________________________________________________________________________
STRT               .M        0.2376                        : First reference value
STOP               .M        360.9684                      : Last reference value
STEP               .M        0.1524                        : Step increment
NULL               .         -9999                         : Missing value
COMP               .                                       : Company
WELL               .         E                             : Well name
FLD                .                                       : Field
LOC                .                                       : Location
CNTY               .                                       : County
STAT               .                                       : State
CTRY               .                                       : Country
SRVC               .                                       : Service Company
DATE               .                                       : Date
API                .                                       : API number
~Parameter Information Block
#_______________________________________________________________________________
#
#PARAMETER_NAME    .UNIT     VALUE                         : DESCRIPTION
#_______________________________________________________________________________
SET                .         Logs                          : 
TLFamily_DEPT      .         Measured Depth                : 
TLFamily_DT        .         Compressional Slowness        : 
TLFamily_GR        .         Gamma Ray                     : 
TLFamily_ILD       .         Resistivity - Deep            : 
TLFamily_NPOR_LIM  .         Thermal Neutron Porosity Limestone: 
TLFamily_PEF       .         Photoelectric Factor          : 
TLFamily_RHO       .         Bulk Density                  : 
~Curve Information
#_______________________________________________________________________________
#
#LOGNAME           .UNIT     LOG_ID                        : DESCRIPTION
#_______________________________________________________________________________
DEPT               .M                                      : 1 Depth Index 
DT                 .US/M                                   : 6 DELTA-T (ALSO CALLED SLOWNESS OR INTERVAL TRANSIT TIME) **MERGED** 
GR                 .GAPI                                   : 60 GAMMA RAY (F14.5) **MERGED** 
ILD                .OHMM                                   : 30 ARRAY INDUCTION ONE FOOT RESISTIVITY A90 (F14.5) **MERGED** 
NPOR_LIM           .V/V                                    : 92 ENHANCED THERMAL NEUTRON POROSITY (MATRIX LIMESTONE) (F14.5) **MERGED** 
PEF                .B/E                                    : 94 HIGH RESOLUTION FORMATION PHOTOELECTRIC FACTOR (F14.5) **MERGED** 
RHO                .K/M3                                   : 103 3 3 3 STANDARD RESOLUTION FORMATION DENSITY (F14.5) **MERGED** 
~Ascii
# ...
281.8728   412.4541   57.809     12.02110004425049 0.2908999919891357 1.8748     2177.3247 
282.0252   416.577    54.1605    9.746500015258789 0.3084999918937683 1.8721     2163.6318 
282.1776   421.9947   48.1634    8.107500076293945 0.3267999887466431 1.85       2134.1094 
282.33     431.8508   46.1639    7.592999935150146 0.3163000047206879 1.7826     2115.1142 
282.4824   432.3198   46.5838    8.171099662780762 0.3154000043869019 1.797      2120.1025 
282.6348   422.3957   49.5338    8.339099884033203 0.3246999979019165 1.872      2138.1659 
282.7872   420.764    51.5416    9.233400344848633 0.3048000037670135 1.8138     2149.8399 
282.9396   422.0428   52.5586    9.958800315856934 0.3050000071525574 1.8568     2156.0041 
283.092    420.0174   53.3761    10.0753002166748 0.3181000053882599 1.7628     2161.7889 
283.2444   419.7984   56.2782    10.32559967041016 0.3149000108242035 1.8285     2177.2791 
283.3968   418.5163   60.8696    10.96870040893555 0.3095999956130981 1.9067     2188.5305 
283.5492   420.9593   62.7592    10.58539962768555 0.3215999901294708 1.8719     2172.2549 
283.7016   429.4246   57.5895    9.055800437927246 0.3565999865531921 1.8947     2134.0087 
283.854    437.4604   47.3044    8.143099784851074 0.3443000018596649 1.7706     2096.8575 
284.0064   440.9074   39.0735    8.051699638366699 0.3075000047683716 1.7666     2084.7882 
284.1588   439.7976   36.6286    8.143600463867188 0.3091000020503998 1.7238     2091.2188 
284.3112   429.5459   40.0064    8.378700256347656 0.29339998960495 1.7602     2107.6647 
284.4636   422.7738   43.6443    8.646499633789063 0.2910000085830688 1.808      2120.5798 
284.616    412.6807   45.3542    8.930999755859375 0.3124000132083893 1.8032     2126.5626 
284.7684   407.4532   45.4244    8.949700355529785 0.3109000027179718 1.7267     2128.7362 
284.9208   402.0086   47.0776    9.410499572753906 0.2856000065803528 1.6834     2130.9223 
285.0732   400.2704   50.4462    9.578000068664551 0.2667999863624573 1.7421     2151.966  
285.2256   401.2498   51.6914    10.19089984893799 0.2867999970912933 1.8311     2159.9997 
285.378    408.0118   50.5509    11.34860038757324 0.3212000131607056 1.8776     2149.9803 
285.5304   414.1819   47.185     9.35669994354248 0.3201999962329865 1.7462     2117.4766 
285.6828   427.9048   44.0144    8.347100257873535 0.3188999891281128 1.6952     2095.5811 
285.8352   438.7805   41.688     8.524900436401367 0.3267999887466431 1.7082     2087.785  
285.9876   438.3502   41.2778    8.187899589538574 0.3262999951839447 1.7953     2086.1175 
286.14     432.8941   42.5048    7.439799785614014 0.3300000131130219 1.8043     2089.4735 
286.2924   431.537    43.5538    8.088299751281738 0.3260999917984009 1.6914     2094.6776 
286.4448   433.9851   44.1653    8.072799682617188 0.324400007724762 1.806      2098.0716 
286.5972   426.8942   44.9114    8.519800186157227 0.3310999870300293 1.8164     2101.8848 
286.7496   428.095    47.2008    7.659500122070313 0.3104999959468842 1.7311     2111.9945 
286.902    425.124    50.3028    9.094200134277344 0.2935000061988831 1.7787     2131.9498 
287.0544   428.0442   51.7547    9.854399681091309 0.3203000128269196 1.9289     2139.9302 
287.2068   421.5725   49.2925    10.5733003616333 0.3643999993801117 1.9473     2135.9271 
287.3592   422.1123   43.7106    12.32359981536865 0.3564999997615814 1.8185     2117.2198 
287.5116   420.258    38.7149    10.2677001953125 0.3001999855041504 1.9457     2101.929  
287.664    421.483    36.9919    9.211199760437012 0.2827999889850616 1.842      2094.83   
287.8164   430.6492   38.612     9.265999794006348 0.3230000138282776 1.8106     2098.3333 
287.9688   433.8554   40.8725    9.900799751281738 0.3648000061511993 1.8769     2093.8104 
288.1212   434.7952   41.1075    9.529299736022949 0.3723999857902527 1.8053     2081.282  
288.2736   430.3937   41.9335    9.250900268554688 0.3531999886035919 1.7582     2078.5538 
288.426    426.507    45.9218    10.15139961242676 0.353300005197525 1.8948     2110.6534 
288.5784   422.6182   50.9554    11.71329975128174 0.3749000132083893 2.098      2139.2456 
288.7308   425.1394   53.1845    15.04349994659424 0.3754999935626984 2.131      2143.7186 
288.8832   431.7538   50.1622    18.88290023803711 0.365200012922287 1.8437     2120.794  
289.0356   426.7839   47.2015    15.85369968414307 0.3362999856472015 1.7346     2110.7922 
289.188    423.8886   45.911     11.57100009918213 0.3025999963283539 1.7598     2127.9744 
289.3404   420.4935   48.083     11.42840003967285 0.3109999895095825 2.0406     2150.2364 
289.4928   416.5956   51.0542    12.84519958496094 0.3296999931335449 1.8246     2163.9839 
289.6452   426.6029   51.5704    18.88540077209473 0.3598999977111816 1.871      2149.1299 
289.7976   433.8602   48.5207    23.39119911193848 0.3591000139713287 1.8567     2125.1028 
289.95     435.2987   42.9821    32.99250030517578 0.3695000112056732 1.7623     2092.6584 
290.1024   437.8455   38.409     58.63660049438477 0.3312000036239624 1.6639     2073.9797 
290.2548   430.8804   34.4049    98.82659912109375 0.3285999894142151 1.7512     2066.3633 
290.4072   422.914    32.5721    76.44110107421875 0.3269999921321869 1.6973     2069.3242 
290.5596   422.2301   32.0056    77.72589874267578 0.3206999897956848 1.7884     2072.7821 
290.712    416.8873   32.8804    85.28170013427734 0.3375000059604645 1.6997     2077.9276 
290.8644   414.7151   35.2026    91.77999877929688 0.3384999930858612 1.6555     2089.1629 
291.0168   413.6906   36.5407    76.93090057373047 0.3102999925613403 1.6918     2098.0045 
291.1692   418.5352   35.92      42.05820083618164 0.3046999871730804 1.6663     2099.8423 
291.3216   420.2845   35.6872    24.99729919433594 0.3021999895572662 1.6406     2098.0227 
291.474    417.6061   37.8916    12.83979988098145 0.2799000144004822 1.6832     2116.0048 
291.6264   411.7989   46.2061    11.79010009765625 0.2861000001430511 1.9988     2155.2863 
291.7788   407.864    52.6152    14.89159965515137 0.3242000043392181 2.1593     2190.8028 
291.9312   407.0754   57.4256    16.28389930725098 0.3436999917030334 2.1273     2195.134  
292.0836   413.6331   53.5515    19.44149971008301 0.3580000102519989 1.98       2162.1147 
292.236    420.5788   45.6895    31.62319946289063 0.3962999880313873 1.8923     2117.9576 
292.3884   421.7776   38.8779    58.02959823608398 0.3732999861240387 1.8086     2081.4055 
292.5408   425.2226   37.9129    78.72840118408203 0.358599990606308 1.8517     2069.5707 
292.6932   424.5302   39.9137    53.36629867553711 0.3533999919891357 1.9251     2073.4695 
292.8456   415.57     44.072     30.3848991394043 0.3409999907016754 2.0583     2092.3753 
292.998    413.6422   44.9389    27.66340065002441 0.3569000065326691 1.8549     2110.9954 
293.1504   413.2      46.4911    23.36310005187988 0.3912000060081482 1.964      2111.2221 
293.3028   416.5273   42.3788    36.05530166625977 0.3828000128269196 1.7205     2091.2478 
293.4552   425.8026   39.5673    34.88710021972656 0.3406000137329102 1.6937     2077.6576 
293.6076   422.1005   41.2602    18.5753002166748 0.3016000092029572 1.7081     2103.3475 
293.76     416.6827   47.9185    13.50329971313477 0.2971999943256378 1.7805     2151.4912 
293.9124   408.0847   55.2164    14.29389953613281 0.3129999935626984 1.9953     2192.7014 
294.0648   404.674    58.9316    15.26990032196045 0.3287000060081482 1.9011     2199.137  
294.2172   406.5973   57.5621    15.58129978179932 0.3355000019073486 1.9804     2189.4043 
294.3696   408.5206   56.1926    15.8927001953125 0.3422000110149384 2.0597     2179.6715 
294.522    413.071    53.1826    36.1525993347168 0.3749000132083893 1.8442     2143.206  
294.6744   417.8809   46.5633    43.00040054321289 0.3425999879837036 1.9635     2115.3136 
294.8268   416.5142   43.3351    60.56349945068359 0.3445999920368195 1.8046     2101.3252 
294.9792   420.2346   45.0908    38.47809982299805 0.3282000124454498 1.8652     2102.1598 
295.1316   415.8578   48.5589    24.64179992675781 0.3425000011920929 2.0265     2108.5842 
