~Version
 VERS              .         2.0                           : CWLS LOG ASCII STANDARD - VERSION 2.0
 WRAP              .         NO                            : ONE LINE PER DEPTH STEP
 DLM               .         SPACE                         : DELIMITING CHARACTER(SPACE TAB OR COMMA)
~Well Information
#_______________________________________________________________________________
#
#PARAMETER_NAME    .UNIT     VALUE                         : DESCRIPTION
#_______________________________________________________________________________
STRT               .M        0.2376                        : First reference value
STOP               .M        360.9684                      : Last reference value
STEP               .M        0.1524                        : Step increment
NULL               .         -9999                         : Missing value
COMP               .                                       : Company
WELL               .         E                             : Well name
FLD                .                                       : Field
LOC                .                                       : Location
CNTY               .                                       : County
STAT               .                                       : State
CTRY               .                                       : Country
SRVC               .                                       : Service Company
DATE               .                                       : Date
API                .                                       : API number
~Parameter Information Block
#_______________________________________________________________________________
#
#PARAMETER_NAME    .UNIT     VALUE                         : DESCRIPTION
#_______________________________________________________________________________
SET                .         Logs                          : 
TLFamily_DEPT      .         Measured Depth                : 
TLFamily_DT        .         Compressional Slowness        : 
TLFamily_GR        .         Gamma Ray                     : 
TLFamily_ILD       .         Resistivity - Deep            : 
TLFamily_NPOR_LIM  .         Thermal Neutron Porosity Limestone: 
TLFamily_PEF       .         Photoelectric Factor          : 
TLFamily_RHO       .         Bulk Density                  : 
~Curve Information
#_______________________________________________________________________________
#
#LOGNAME           .UNIT     LOG_ID                        : DESCRIPTION
#_______________________________________________________________________________
DEPT               .M                                      : 1 Depth Index 
DT                 .US/M                                   : 6 DELTA-T (ALSO CALLED SLOWNESS OR INTERVAL TRANSIT TIME) **MERGED** 
GR                 .GAPI                                   : 60 GAMMA RAY (F14.5) **MERGED** 
ILD                .OHMM                                   : 30 ARRAY INDUCTION ONE FOOT RESISTIVITY A90 (F14.5) **MERGED** 
NPOR_LIM           .V/V                                    : 92 ENHANCED THERMAL NEUTRON POROSITY (MATRIX LIMESTONE) (F14.5) **MERGED** 
PEF                .B/E                                    : 94 HIGH RESOLUTION FORMATION PHOTOELECTRIC FACTOR (F14.5) **MERGED** 
RHO                .K/M3                                   : 103 3 3 3 STANDARD RESOLUTION FORMATION DENSITY (F14.5) **MERGED** 
~Ascii
# ...
161.172    448.977    71.6347    13.35270023345947 0.3495999872684479 2.5543     2116.9571 
161.3244   448.2931   70.1554    11.94299983978271 0.3639000058174133 2.3028     2137.7908 
161.4768   449.2353   64.912     11.04240036010742 0.3835999965667725 2.294      2122.1056 
161.6292   448.2624   56.733     13.68640041351318 0.3837999999523163 2.3044     2106.2282 
161.7816   447.4529   50.9478    18.40099906921387 0.4013000130653381 2.3032     2083.3402 
161.934    449.2766   46.4252    22.43479919433594 0.3652999997138977 2.1976     2068.2328 
162.0864   450.5081   45.7105    28.04879951477051 0.367000013589859 2.1812     2057.5684 
162.2388   450.9785   46.1516    28.3621997833252 0.3583000004291534 2.189      2059.8512 
162.3912   451.4488   46.5926    28.67560005187988 0.3495000004768372 2.1968     2062.1339 
162.5436   449.6818   47.7875    28.02529907226563 0.3578000068664551 2.2769     2073.7755 
162.696    448.909    51.9842    30.55960083007813 0.3226000070571899 2.2941     2083.3226 
162.8484   449.5208   52.662     28.64800071716309 0.3301999866962433 2.3108     2083.4874 
163.0008   449.6851   55.4212    27.72400093078613 0.3456999957561493 2.2745     2075.4147 
163.1532   450.7464   53.1059    30.36079978942871 0.3476999998092651 2.2652     2064.2492 
163.3056   450.2185   51.7207    26.51300048828125 0.3738000094890594 2.349      2064.714  
163.458    448.395    49.0549    26.9237003326416 0.3953000009059906 2.3564     2071.3262 
163.6104   446.8767   48.9458    30.25069999694824 0.3610999882221222 2.1344     2081.1669 
163.7628   445.9482   47.7098    34.50210189819336 0.3449999988079071 2.1345     2071.2717 
163.9152   447.6667   49.0557    36.60480117797852 0.3312999904155731 2.1752     2060.7423 
164.0676   448.7087   47.5834    33.64099884033203 0.3614999949932098 2.2975     2058.9856 
164.22     449.1575   48.7098    30.29789924621582 0.395799994468689 2.3221     2072.2017 
164.3724   448.2776   45.9257    27.13559913635254 0.3547999858856201 2.1092     2086.2718 
164.5248   448.4922   46.2609    23.59580039978027 0.3533999919891357 2.1357     2083.1997 
164.6772   452.609    47.8551    22.91839981079102 0.3874000012874603 2.2014     2076.259  
164.8296   459.0472   51.1125    23.92580032348633 0.3797999918460846 2.38       2069.515  
164.982    465.9125   53.9186    22.69400024414063 0.373199999332428 2.4336     2075.6887 
165.1344   468.7564   55.1314    21.79249954223633 0.4156999886035919 2.3282     2074.3396 
165.2868   469.8963   53.891     23.89039993286133 0.4404000043869019 2.3521     2062.6879 
165.4392   470.5766   51.8122    27.89739990234375 0.4199999868869781 2.2674     2029.3524 
165.5916   458.2545   49.1873    27.80500030517578 0.411300003528595 2.2256     2029.7809 
165.744    449.4634   49.9314    24.1742000579834 0.3892999887466431 2.3067     2049.3696 
165.8964   446.4516   51.9992    29.72649955749512 0.3698999881744385 3.0993     2087.4694 
166.0488   443.3268   54.0445    21.95420074462891 0.3515999913215637 2.5048     2078.7097 
166.2012   457.0305   53.245     29.39789962768555 0.3743999898433685 2.7054     2068.1459 
166.3536   447.5982   50.6866    23.02429962158203 0.3896999955177307 2.4473     2096.0365 
166.506    419.5062   48.0596    17.64080047607422 0.353300005197525 2.5219     2170.8653 
166.6584   399.7649   47.0144    28.59530067443848 0.3416999876499176 3.9981     2230.556  
166.8108   376.6695   45.7707    27.41460037231445 0.3883999884128571 3.5842     2236.6903 
166.9632   375.7289   47.0708    24.43680000305176 0.3743000030517578 3.2132     2209.4131 
167.1156   409.5925   51.1745    19.53739929199219 0.376800000667572 3.8345     2177.0202 
167.268    428.1904   56.8779    16.7765998840332 0.4117000102996826 2.6496     2146.189  
167.4204   449.8765   61.467     11.23970031738281 0.4435000121593475 2.7565     2124.4208 
167.5728   464.9302   64.4862    8.592399597167969 0.4577000141143799 2.7252     2116.6039 
167.7252   472.8394   66.8573    6.487400054931641 0.474700003862381 2.7013     2122.2494 
167.8776   476.5843   69.2577    5.11929988861084 0.5044999718666077 2.7196     2122.1064 
168.03     475.3554   71.1752    5.378499984741211 0.5109000205993652 2.7083     2140.8455 
168.1824   446.299    68.5255    6.865399837493896 0.4713999927043915 2.8834     2220.3792 
168.3348   389.7101   61.1108    10.91549968719482 0.3741999864578247 4.1527     2326.1581 
168.4872   372.9306   53.9932    20.1973991394043 0.2953000068664551 4.4411     2372.8741 
168.6396   391.1393   52.0086    23.81679916381836 0.3467000126838684 3.4285     2294.6662 
168.792    434.551    52.6577    20.4694995880127 0.4343000054359436 3.2542     2184.0209 
168.9444   447.8761   51.8692    20.99600028991699 0.4420000016689301 3.1333     2103.9637 
169.0968   450.3193   51.4793    20.01409912109375 0.4126000106334686 2.9086     2071.1213 
169.2492   454.2151   51.6313    18.89529991149902 0.4275000095367432 2.4866     2047.3821 
169.4016   455.3436   50.2893    20.88299942016602 0.443699985742569 2.247      2030.4114 
169.554    454.0414   46.8816    21.63409996032715 0.4104999899864197 2.1116     2025.1332 
169.7064   452.05     43.927     23.80019950866699 0.3716000020503998 2.2373     2025.4362 
169.8588   452.0072   43.338     22.79630088806152 0.358599990606308 2.1578     2016.8764 
170.0112   453.8116   44.4846    23.25379943847656 0.3788999915122986 2.0956     2015.634  
170.1636   461.401    45.4919    23.50239944458008 0.3883999884128571 2.0207     2010.3649 
170.316    471.6112   45.5161    25.79159927368164 0.4029999971389771 2.1364     2015.5135 
170.4684   475.8286   44.7885    26.05820083618164 0.4187999963760376 2.3558     2009.7888 
170.6208   477.1154   44.1411    23.26519966125488 0.3901000022888184 2.2975     2015.8599 
170.7732   476.2401   44.348     26.59760093688965 0.3510999977588654 2.2639     2029.1779 
170.9256   470.2216   44.6763    27.77720069885254 0.317799985408783 2.2177     2044.2389 
171.078    472.1965   46.5995    23.83419990539551 0.3336000144481659 2.2545     2048.8545 
171.2304   474.7976   48.8426    22.00530052185059 0.3560999929904938 2.2815     2045.0363 
171.3828   475.6814   51.2351    20.29730033874512 0.3531999886035919 2.1775     2047.8266 
171.5352   475.7785   52.1755    23.2775993347168 0.3470000028610229 2.2419     2051.4846 
171.6876   476.8339   51.0958    27.63100051879883 0.3555000126361847 2.1719     2052.252  
171.84     475.2916   50.5989    26.4335994720459 0.3544000089168549 2.1834     2050.5092 
171.9924   474.6583   49.3851    24.55999946594238 0.3740000128746033 2.1581     2045.8164 
172.1448   472.7993   50.484     25.07620048522949 0.3662000000476837 2.1878     2045.7996 
172.2972   472.4187   49.3755    22.76910018920898 0.3747000098228455 2.2636     2042.1834 
172.4496   475.0556   49.2731    21.6289005279541 0.3702999949455261 2.2349     2027.7512 
172.602    477.0771   47.75      23.61779975891113 0.3585000038146973 2.1759     2028.3745 
172.7544   476.1783   48.7041    22.04570007324219 0.3926999866962433 2.321      2032.1097 
172.9068   473.9902   48.6582    23.35050010681152 0.3955000042915344 2.1574     2048.464  
173.0592   469.9517   49.5289    22.92679977416992 0.4058000147342682 2.1164     2045.8735 
173.2116   464.8102   48.6276    21.83169937133789 0.3971000015735626 2.1795     2044.8952 
173.364    462.5348   46.697     23.04619979858398 0.3804000020027161 2.1133     2040.4147 
173.5164   458.9854   45.0384    20.96339988708496 0.3804999887943268 2.3116     2037.0996 
173.6688   458.6925   42.5528    17.86160087585449 0.349700003862381 2.1732     2043.815  
173.8212   455.2828   40.7338    21.55780029296875 0.3226000070571899 2.1452     2060.1066 
173.9736   457.1211   37.7124    23.0757007598877 0.315200001001358 1.9975     2083.7993 
174.126    462.5658   36.9543    24.49399948120117 0.3219000101089478 2.1138     2087.205  
174.2784   466.5387   38.1041    26.6254997253418 0.3226000070571899 2.1614     2069.4312 
174.4308   469.7319   41.6597    29.97400093078613 0.3291000127792358 2.1984     2040.8531 
