~Version
 VERS              .         2.0                           : CWLS LOG ASCII STANDARD - VERSION 2.0
 WRAP              .         NO                            : ONE LINE PER DEPTH STEP
 DLM               .         SPACE                         : DELIMITING CHARACTER(SPACE TAB OR COMMA)
~Well Information
#_______________________________________________________________________________
#
#PARAMETER_NAME    .UNIT     VALUE                         : DESCRIPTION
#_______________________________________________________________________________
STRT               .M        0.2376                        : First reference value
STOP               .M        360.9684                      : Last reference value
STEP               .M        0.1524                        : Step increment
NULL               .         -9999                         : Missing value
COMP               .                                       : Company
WELL               .         E                             : Well name
FLD                .                                       : Field
LOC                .                                       : Location
CNTY               .                                       : County
STAT               .                                       : State
CTRY               .                                       : Country
SRVC               .                                       : Service Company
DATE               .                                       : Date
API                .                                       : API number
~Parameter Information Block
#_______________________________________________________________________________
#
#PARAMETER_NAME    .UNIT     VALUE                         : DESCRIPTION
#_______________________________________________________________________________
SET                .         Logs                          : 
TLFamily_DEPT      .         Measured Depth                : 
TLFamily_DT        .         Compressional Slowness        : 
TLFamily_GR        .         Gamma Ray                     : 
TLFamily_ILD       .         Resistivity - Deep            : 
TLFamily_NPOR_LIM  .         Thermal Neutron Porosity Limestone: 
TLFamily_PEF       .         Photoelectric Factor          : 
TLFamily_RHO       .         Bulk Density                  : 
~Curve Information
#_______________________________________________________________________________
#
#LOGNAME           .UNIT     LOG_ID                        : DESCRIPTION
#_______________________________________________________________________________
DEPT               .M                                      : 1 Depth Index 
DT                 .US/M                                   : 6 DELTA-T (ALSO CALLED SLOWNESS OR INTERVAL TRANSIT TIME) **MERGED** 
GR                 .GAPI                                   : 60 GAMMA RAY (F14.5) **MERGED** 
ILD                .OHMM                                   : 30 ARRAY INDUCTION ONE FOOT RESISTIVITY A90 (F14.5) **MERGED** 
NPOR_LIM           .V/V                                    : 92 ENHANCED THERMAL NEUTRON POROSITY (MATRIX LIMESTONE) (F14.5) **MERGED** 
PEF                .B/E                                    : 94 HIGH RESOLUTION FORMATION PHOTOELECTRIC FACTOR (F14.5) **MERGED** 
RHO                .K/M3                                   : 103 3 3 3 STANDARD RESOLUTION FORMATION DENSITY (F14.5) **MERGED** 
~Ascii
# ...
41.0808    -9999      52.204     4.007199764251709 0.4447000026702881 8.5893     2092.08   
41.2332    -9999      52.6732    4.007199764251709 0.4711000025272369 8.509      2099.0536 
41.3856    -9999      53.094     4.007100105285645 0.4535999894142151 8.5122     2106.4797 
41.538     -9999      52.9676    4.007199764251709 0.4415000081062317 8.4974     2111.9446 
41.6904    -9999      51.2932    4.007199764251709 0.4478999972343445 8.449      2112.0205 
41.8428    -9999      49.6265    4.007199764251709 0.4366999864578247 8.4634     2109.5493 
41.9952    -9999      50.455     4.007199764251709 0.429500013589859 8.4709     2106.5541 
42.1476    -9999      53.5626    4.007199764251709 0.4573000073432922 8.4778     2104.4268 
42.3       -9999      56.0657    4.007199764251709 0.4806999862194061 8.5992     2106.1796 
42.4524    -9999      55.3374    4.007199764251709 0.4984000027179718 8.6887     2115.3798 
42.6048    -9999      53.3913    4.007299900054932 0.4803000092506409 8.811      2138.9719 
42.7572    -9999      52.6657    4.007299900054932 0.5070000290870667 8.7423     2190.7261 
42.9096    -9999      50.4836    4.007400035858154 0.5910000205039978 8.7188     2270.4164 
43.062     -9999      46.3395    4.007400035858154 0.6198999881744385 8.8785     2359.2693 
43.2144    -9999      41.7215    4.007400035858154 0.5576000213623047 8.8326     2414.1453 
43.3668    -9999      41.8957    4.007500171661377 0.4657999873161316 8.6491     2414.4353 
43.5192    -9999      46.765     4.007500171661377 0.442799985408783 8.449      2350.3994 
43.6716    -9999      51.4004    4.007500171661377 0.4097999930381775 8.3937     2254.3733 
43.824     -9999      54.7192    4.007599830627441 0.386599987745285 8.5788     2170.8197 
43.9764    -9999      57.2907    4.007599830627441 0.4104999899864197 8.7546     2128.2152 
44.1288    -9999      60.0573    4.007599830627441 0.4487000107765198 8.8987     2145.1957 
44.2812    -9999      60.6795    4.007699966430664 0.4623000025749207 8.9621     2226.1466 
44.4336    -9999      60.081     4.007800102233887 0.4406000077724457 9.2002     2338.4458 
44.586     -9999      59.9145    4.007800102233887 0.3925999999046326 9.1954     2436.7917 
44.7384    -9999      59.7189    4.007800102233887 0.3862999975681305 8.9889     2490.997  
44.8908    -9999      59.3254    4.007900238037109 0.4329999983310699 8.95       2515.4806 
45.0432    -9999      59.9893    4.007999897003174 0.4456999897956848 9.049      2520.8865 
45.1956    -9999      61.0349    4.007999897003174 0.4629000127315521 9.5595     2486.9261 
45.348     -9999      61.4289    4.007999897003174 0.4948000013828278 9.9569     2449.1127 
45.5004    -9999      61.9896    4.008100032806396 0.4515999853610992 10         2484.4467 
45.6528    -9999      62.5304    4.008200168609619 0.4156999886035919 9.9292     2609.2226 
45.8052    -9999      60.9723    4.008200168609619 0.4216000139713287 9.8828     2749.1701 
45.9576    -9999      58.5345    4.008299827575684 0.4320000112056732 9.9515     2820.8631 
46.11      -9999      56.694     4.008399963378906 0.4323999881744385 10         2832.1637 
46.2624    -9999      56.5376    4.008399963378906 0.4336999952793121 9.9811     2829.4906 
46.4148    -9999      56.8165    4.008500099182129 0.4575000107288361 9.9844     2829.6601 
46.5672    -9999      57.1927    4.008500099182129 0.4889000058174133 10         2839.9653 
46.7196    -9999      57.4546    4.008600234985352 0.4790000021457672 10         2863.6827 
46.872     -9999      57.6892    4.008600234985352 0.4781999886035919 10         2902.4087 
47.0244    -9999      59.5628    4.008600234985352 0.5212000012397766 9.9902     2946.662  
47.1768    -9999      60.996     4.008600234985352 0.5343999862670898 9.9703     2976.0595 
47.3292    -9999      59.6593    4.008699893951416 0.545199990272522 9.9822     2979.8159 
47.4816    -9999      56.6559    4.008699893951416 0.5983999967575073 9.9614     2949.0745 
47.634     -9999      54.4516    4.008600234985352 0.5802000164985657 9.8889     2899.8944 
47.7864    -9999      54.4804    4.008600234985352 0.5260999798774719 9.9123     2853.6843 
47.9388    -9999      54.6011    4.008600234985352 0.5031999945640564 9.9414     2827.0199 
48.0912    -9999      55.4838    4.008500099182129 0.5127999782562256 9.967      2819.3211 
48.2436    -9999      56.7995    4.008399963378906 0.5205000042915344 10         2817.9292 
48.396     -9999      57.5371    4.008299827575684 0.4948000013828278 10         2819.6999 
48.5484    -9999      58.2833    4.007999897003174 0.4691999852657318 9.9772     2822.4005 
48.7008    -9999      58.687     4.007500171661377 0.4639999866485596 9.9812     2824.5664 
48.8532    -9999      59.1092    4.006999969482422 0.4704000055789948 9.9997     2826.3896 
49.0056    -9999      59.3051    4.00629997253418 0.4801999926567078 9.9607     2827.6907 
49.158     -9999      59.6673    4.005499839782715 0.4887000024318695 9.9677     2828.6476 
49.3104    -9999      60.2421    4.004799842834473 0.4975999891757965 9.9779     2830.9588 
49.4628    -9999      59.5533    4.004000186920166 0.5011000037193298 9.9819     2836.1608 
49.6152    -9999      58.892     4.003399848937988 0.5027999877929688 9.9698     2841.9171 
49.7676    -9999      58.6826    4.002999782562256 0.5080999732017517 9.9752     2843.9468 
49.92      -9999      58.4362    4.002799987792969 0.5145000219345093 9.9796     2840.7144 
50.0724    -9999      57.9416    4.002600193023682 0.5347999930381775 9.975      2835.1911 
50.2248    -9999      57.2022    4.002500057220459 0.5435000061988831 9.9785     2832.3776 
50.3772    -9999      56.4123    4.002399921417236 0.5260999798774719 9.9879     2834.3823 
50.5296    -9999      55.8908    4.002200126647949 0.5065000057220459 10         2837.6825 
50.682     -9999      56.852     4.001900196075439 0.4900000095367432 10         2836.9181 
50.8344    -9999      59.14      4.001500129699707 0.4869000017642975 10         2831.4655 
50.9868    -9999      60.5506    4.000999927520752 0.5023999810218811 9.9879     2826.239  
51.1392    -9999      60.4054    4.000500202178955 0.506600022315979 9.9901     2825.6849 
51.2916    -9999      59.5341    3.999900102615356 0.4945999979972839 10         2829.5438 
51.444     -9999      58.7881    3.999500036239624 0.4808000028133392 9.9779     2833.9675 
51.5964    -9999      58.3105    3.999200105667114 0.4670999944210052 9.9376     2837.6412 
51.7488    -9999      57.4146    3.998800039291382 0.4402999877929688 9.9636     2844.0572 
51.9012    -9999      57.0778    3.998199939727783 0.4154999852180481 9.9332     2853.1888 
52.0536    -9999      58.406     3.997699975967407 0.4253000020980835 9.8363     2861.598  
52.206     -9999      60.0504    3.996799945831299 0.4643999934196472 9.9786     2869.8293 
52.3584    -9999      58.6842    3.996200084686279 0.5012000203132629 10         2870.3172 
52.5108    -9999      57.1037    3.995599985122681 0.5013999938964844 9.977      2871.6252 
52.6632    -9999      57.6547    3.994999885559082 0.4864999949932098 9.9838     2948.2739 
52.8156    -9999      57.1406    3.994600057601929 0.4950000047683716 10         3013.8975 
52.968     -9999      55.0784    3.994199991226196 0.5450000166893005 9.7507     2864.2732 
53.1204    492.8541   58.0935    3.994100093841553 0.6069999933242798 9.2974     2640.7396 
53.2728    456.3923   64.0445    3.994100093841553 0.7455999851226807 4.0337     2314.4035 
53.4252    464.2627   70.2535    3.994400024414063 0.6567000150680542 2.6736     2140.5557 
53.5776    449.3509   70.7585    3.994999885559082 0.501800000667572 3.2327     1964.6069 
53.73      467.8384   71.5662    3.996099948883057 0.4824000000953674 3.4246     1916.2281 
53.8824    477.0897   73.6324    3.998500108718872 0.4997999966144562 3.4219     1902.3435 
54.0348    413.1453   75.5215    4.002500057220459 0.5540000200271606 3.5084     1896.5762 
54.1872    413.2476   77.239     4.010499954223633 0.6028000116348267 3.4185     1911.3897 
54.3396    447.7179   78.8088    4.02269983291626 0.5659999847412109 3.3606     1950.4044 
