~Version
 VERS              .         2.0                           : CWLS LOG ASCII STANDARD - VERSION 2.0
 WRAP              .         NO                            : ONE LINE PER DEPTH STEP
 DLM               .         SPACE                         : DELIMITING CHARACTER(SPACE TAB OR COMMA)
~Well Information
#_______________________________________________________________________________
#
#PARAMETER_NAME    .UNIT     VALUE                         : DESCRIPTION
#_______________________________________________________________________________
STRT               .M        0.2376                        : First reference value
STOP               .M        360.9684                      : Last reference value
STEP               .M        0.1524                        : Step increment
NULL               .         -9999                         : Missing value
COMP               .                                       : Company
WELL               .         E                             : Well name
FLD                .                                       : Field
LOC                .                                       : Location
CNTY               .                                       : County
STAT               .                                       : State
CTRY               .                                       : Country
SRVC               .                                       : Service Company
DATE               .                                       : Date
API                .                                       : API number
~Parameter Information Block
#_______________________________________________________________________________
#
#PARAMETER_NAME    .UNIT     VALUE                         : DESCRIPTION
#_______________________________________________________________________________
SET                .         Logs                          : 
TLFamily_DEPT      .         Measured Depth                : 
TLFamily_DT        .         Compressional Slowness        : 
TLFamily_GR        .         Gamma Ray                     : 
TLFamily_ILD       .         Resistivity - Deep            : 
TLFamily_NPOR_LIM  .         Thermal Neutron Porosity Limestone: 
TLFamily_PEF       .         Photoelectric Factor          : 
TLFamily_RHO       .         Bulk Density                  : 
~Curve Information
#_______________________________________________________________________________
#
#LOGNAME           .UNIT     LOG_ID                        : DESCRIPTION
#_______________________________________________________________________________
DEPT               .M                                      : 1 Depth Index 
DT                 .US/M                                   : 6 DELTA-T (ALSO CALLED SLOWNESS OR INTERVAL TRANSIT TIME) **MERGED** 
GR                 .GAPI                                   : 60 GAMMA RAY (F14.5) **MERGED** 
ILD                .OHMM                                   : 30 ARRAY INDUCTION ONE FOOT RESISTIVITY A90 (F14.5) **MERGED** 
NPOR_LIM           .V/V                                    : 92 ENHANCED THERMAL NEUTRON POROSITY (MATRIX LIMESTONE) (F14.5) **MERGED** 
PEF                .B/E                                    : 94 HIGH RESOLUTION FORMATION PHOTOELECTRIC FACTOR (F14.5) **MERGED** 
RHO                .K/M3                                   : 103 3 3 3 STANDARD RESOLUTION FORMATION DENSITY (F14.5) **MERGED** 
~Ascii
0.2376     -9999      98.6634    4.007100105285645 -9999      9.8546     2750.2078 
0.39       -9999      137.0864   4.007100105285645 -9999      9.8546     2750.2078 
0.5424     -9999      168.2227   4.007100105285645 -9999      9.8546     2750.2078 
0.6948     -9999      172.9698   4.007100105285645 -9999      9.8546     2750.2078 
0.8472     -9999      148.159    4.007100105285645 -9999      9.8546     2750.2078 
0.9996     -9999      115.9782   4.007100105285645 -9999      9.8546     2750.2078 
1.152      -9999      90.7394    4.007100105285645 -9999      9.8546     2750.2078 
1.3044     -9999      73.1807    4.007100105285645 -9999      9.8546     2750.2078 
1.4568     -9999      57.3635    4.007100105285645 -9999      9.8546     2750.2078 
1.6092     -9999      51.2444    4.007100105285645 -9999      9.8546     2750.2078 
1.7616     -9999      59.2798    4.007100105285645 -9999      9.8546     2750.2078 
1.914      -9999      72.305     4.007100105285645 -9999      9.8546     2750.2078 
2.0664     -9999      76.7297    4.007100105285645 -9999      9.8546     2750.2078 
2.2188     -9999      64.1018    4.007100105285645 -9999      9.8546     2750.2078 
2.3712     -9999      39.388     4.007100105285645 -9999      9.8546     2750.2078 
2.5236     -9999      18.35      4.007100105285645 -9999      9.8546     2750.2078 
2.676      -9999      10.0939    4.007100105285645 -9999      9.8546     2750.2078 
2.8284     -9999      10.8997    4.007100105285645 -9999      9.8546     2750.2078 
2.9808     -9999      12.8329    4.007100105285645 -9999      9.8546     2750.2078 
3.1332     -9999      13.8094    4.007100105285645 -9999      9.8546     2750.2078 
3.2856     -9999      14.5257    4.007100105285645 -9999      9.8546     2750.2078 
3.438      -9999      15.1122    4.007100105285645 -9999      9.8546     2750.2078 
3.5904     -9999      15.3127    4.007100105285645 -9999      9.8546     2750.2078 
3.7428     -9999      16.1443    4.007100105285645 -9999      9.9174     2743.392  
3.8952     -9999      19.6426    4.007100105285645 -9999      9.748      2481.437  
4.0476     -9999      23.2243    4.007100105285645 -9999      9.4872     2013.1516 
4.2        -9999      24.017     4.007100105285645 -9999      9.4759     1595.153  
4.3524     -9999      21.7462    4.007100105285645 -9999      9.5894     1453.258  
4.5048     -9999      21.0095    4.007100105285645 -9999      8.7784     1586.9258 
4.6572     -9999      25.1219    4.007100105285645 -9999      9.114      1702.478  
4.8096     -9999      32.1204    4.007100105285645 -9999      9.9901     1709.7044 
4.962      -9999      40.0211    4.007100105285645 -9999      9.9869     1657.5578 
5.1144     -9999      47.6195    4.007100105285645 -9999      9.6895     1624.4179 
5.2668     -9999      53.9384    4.007100105285645 -9999      9.2618     1691.8034 
5.4192     -9999      56.0873    4.007100105285645 -9999      8.7534     1822.9488 
5.5716     -9999      53.8917    4.007100105285645 -9999      8.4598     1932.9046 
5.724      -9999      51.6219    4.007100105285645 -9999      8.2471     2007.8838 
5.8764     -9999      51.595     4.007100105285645 -9999      8.2285     2064.8394 
6.0288     -9999      51.0853    4.007100105285645 -9999      8.3291     2106.1446 
6.1812     -9999      48.7572    4.007100105285645 -9999      8.3378     2126.8189 
6.3336     -9999      46.0248    4.007100105285645 -9999      8.2514     2119.4067 
6.486      -9999      45.2604    4.007100105285645 -9999      8.125      2097.3721 
6.6384     -9999      48.2213    4.007100105285645 -9999      7.9823     2078.7949 
6.7908     -9999      54.3098    4.007100105285645 -9999      7.8918     2079.867  
6.9432     -9999      62.094     4.007100105285645 -9999      8.0558     2098.7377 
7.0956     -9999      66.7681    4.007100105285645 -9999      8.3822     2119.8027 
7.248      -9999      65.2468    4.007100105285645 -9999      8.6787     2132.2451 
7.4004     -9999      60.8683    4.007100105285645 -9999      8.8461     2133.3278 
7.5528     -9999      56.3375    4.007100105285645 -9999      8.9456     2130.0632 
7.7052     -9999      50.0518    4.007100105285645 -9999      9.0479     2125.3194 
7.8576     -9999      45.0921    4.007100105285645 -9999      9.0395     2119.6376 
8.01       -9999      44.0123    4.007100105285645 -9999      8.9263     2115.8624 
8.1624     -9999      44.3873    4.007100105285645 0.4699999988079071 8.7882     2114.2299 
8.3148     -9999      45.3799    4.007100105285645 0.504800021648407 8.6154     2116.6673 
8.4672     -9999      47.9181    4.007100105285645 0.5252000093460083 8.6981     2122.9804 
8.6196     -9999      51.0891    4.007100105285645 0.4894999861717224 8.9498     2132.7295 
8.772      -9999      52.2165    4.007100105285645 0.4273999929428101 9.1468     2172.5103 
8.9244     -9999      51.358     4.007100105285645 0.359499990940094 9.4373     2247.083  
9.0768     -9999      50.8441    4.007100105285645 0.2921000123023987 9.7215     2314.8394 
9.229200000000001 -9999      50.7036    4.007100105285645 0.2721999883651733 9.8472     2335.2725 
9.381600000000001 -9999      49.6201    4.007100105285645 0.2982000112533569 9.942      2309.1586 
9.534000000000001 -9999      47.2505    4.007100105285645 0.3291000127792358 9.8906     2277.2694 
9.686400000000001 -9999      45.2868    4.007100105285645 0.3515999913215637 9.7271     2261.6712 
9.838800000000001 -9999      44.7956    4.007100105285645 0.3666000068187714 9.7507     2262.7355 
9.991199999999999 -9999      44.3645    4.007100105285645 0.3655999898910522 9.862      2269.6836 
10.1436    -9999      43.5004    4.007100105285645 0.3434999883174896 9.9532     2262.1384 
10.296     -9999      42.0027    4.007100105285645 0.3172999918460846 9.9242     2234.477  
10.4484    -9999      41.2988    4.007100105285645 0.3039000034332275 9.8401     2195.1784 
10.6008    -9999      41.9056    4.007100105285645 0.3210999965667725 9.8333     2163.0616 
10.7532    -9999      42.6782    4.007100105285645 0.3504999876022339 9.7589     2151.9979 
10.9056    -9999      44.2903    4.007100105285645 0.3580000102519989 9.8191     2154.9074 
11.058     -9999      46.329     4.007100105285645 0.3549999892711639 9.7614     2159.8798 
11.2104    -9999      47.9946    4.007100105285645 0.3519000113010406 9.6342     2155.3557 
11.3628    -9999      48.0048    4.007100105285645 0.3458999991416931 9.8197     2142.6761 
11.5152    -9999      46.2767    4.007100105285645 0.3898000121116638 9.8541     2125.6361 
11.6676    -9999      45.0784    4.007100105285645 0.4361999928951263 9.697      2109.9005 
11.82      -9999      44.0427    4.007100105285645 0.4449000060558319 9.6505     2101.6736 
11.9724    -9999      43.4239    4.007100105285645 0.4679000079631805 9.5618     2093.1414 
12.1248    -9999      42.2174    4.007100105285645 0.5228999853134155 9.4078     2090.1166 
12.2772    -9999      41.6028    4.007100105285645 0.5722000002861023 9.3422     2096.7739 
12.4296    -9999      41.9775    4.007100105285645 0.58160001039505 9.4935     2109.6215 
12.582     -9999      43.7027    4.007100105285645 0.5630000233650208 9.5514     2115.9001 
12.7344    -9999      45.5167    4.007100105285645 0.5404999852180481 9.5363     2111.964  
12.8868    -9999      46.5897    4.007100105285645 0.5302000045776367 9.6657     2107.3435 
13.0392    -9999      47.0619    4.007100105285645 0.5242999792098999 9.553      2109.1137 
13.1916    -9999      46.8338    4.007100105285645 0.5005000233650208 9.4358     2122.7469 
13.344     -9999      46.0349    4.007100105285645 0.4580999910831451 9.5982     2167.1598 
13.4964    -9999      42.2354    4.007100105285645 0.4343999922275543 9.5007     2227.0885 
13.6488    -9999      39.5166    4.007100105285645 0.4383000135421753 9.6199     2286.8555 
13.8012    -9999      39.7362    4.007100105285645 0.436599999666214 9.5435     2295.8793 
13.9536    -9999      43.7413    4.007100105285645 0.3835000097751617 9.0567     2245.7364 
14.106     -9999      47.3688    4.007100105285645 0.3217000067234039 9.0119     2162.8553 
