~Version
 VERS              .         2.0                           : CWLS LOG ASCII STANDARD - VERSION 2.0
 WRAP              .         NO                            : ONE LINE PER DEPTH STEP
 DLM               .         SPACE                         : DELIMITING CHARACTER(SPACE TAB OR COMMA)
~Well Information
#_______________________________________________________________________________
#
#PARAMETER_NAME    .UNIT     VALUE                         : DESCRIPTION
#_______________________________________________________________________________
STRT               .M        0.2376                        : First reference value
STOP               .M        360.9684                      : Last reference value
STEP               .M        0.1524                        : Step increment
NULL               .         -9999                         : Missing value
COMP               .                                       : Company
WELL               .         E                             : Well name
FLD                .                                       : Field
LOC                .                                       : Location
CNTY               .                                       : County
STAT               .                                       : State
CTRY               .                                       : Country
SRVC               .                                       : Service Company
DATE               .                                       : Date
API                .                                       : API number
~Parameter Information Block
#_______________________________________________________________________________
#
#PARAMETER_NAME    .UNIT     VALUE                         : DESCRIPTION
#_______________________________________________________________________________
SET                .         Logs                          : 
TLFamily_DEPT      .         Measured Depth                : 
TLFamily_DT        .         Compressional Slowness        : 
TLFamily_GR        .         Gamma Ray                     : 
TLFamily_ILD       .         Resistivity - Deep            : 
TLFamily_NPOR_LIM  .         Thermal Neutron Porosity Limestone: 
TLFamily_PEF       .         Photoelectric Factor          : 
TLFamily_RHO       .         Bulk Density                  : 
~Curve Information
#_______________________________________________________________________________
#
#LOGNAME           .UNIT     LOG_ID                        : DESCRIPTION
#_______________________________________________________________________________
DEPT               .M                                      : 1 Depth Index 
DT                 .US/M                                   : 6 DELTA-T (ALSO CALLED SLOWNESS OR INTERVAL TRANSIT TIME) **MERGED** 
GR                 .GAPI                                   : 60 GAMMA RAY (F14.5) **MERGED** 
ILD                .OHMM                                   : 30 ARRAY INDUCTION ONE FOOT RESISTIVITY A90 (F14.5) **MERGED** 
NPOR_LIM           .V/V                                    : 92 ENHANCED THERMAL NEUTRON POROSITY (MATRIX LIMESTONE) (F14.5) **MERGED** 
PEF                .B/E                                    : 94 HIGH RESOLUTION FORMATION PHOTOELECTRIC FACTOR (F14.5) **MERGED** 
RHO                .K/M3                                   : 103 3 3 3 STANDARD RESOLUTION FORMATION DENSITY (F14.5) **MERGED** 
~Ascii
# ...
255.0504   501.9137   74.0477    2.615000009536743 0.5364999771118164 2.4772     2089.4442 
255.2028   505.5009   72.6416    2.45740008354187 0.5062000155448914 2.4902     2093.1065 
255.3552   505.47     72.4285    2.349699974060059 0.5206000208854675 2.6536     2093.0011 
255.5076   504.9854   72.2686    2.481600046157837 0.510699987411499 2.5957     2101.4629 
255.66     504.4168   72.0912    2.608799934387207 0.492000013589859 2.6256     2114.1279 
255.8124   502.6848   70.7757    2.400700092315674 0.5103999972343445 2.5489     2135.761  
255.9648   491.6711   68.8481    2.969099998474121 0.4708999991416931 2.5153     2160.7664 
256.1172   482.0924   68.806     4.298500061035156 0.3930000066757202 2.3764     2176.1095 
256.2696   480.5293   70.0146    5.025700092315674 0.3598000109195709 2.3755     2174.7307 
256.422    471.7042   70.4757    5.510700225830078 0.3871999979019165 2.3922     2171.8503 
256.5744   470.7459   72.4184    4.069399833679199 0.4111999869346619 2.5696     2177.9463 
256.7268   457.8545   76.5232    4.006499767303467 0.4059000015258789 2.6271     2194.5822 
256.8792   451.0084   80.6576    4.638400077819824 0.3795000016689301 2.6026     2210.1652 
257.0316   446.9264   82.6549    5.27869987487793 0.3637999892234802 2.5064     2226.88   
257.184    446.7373   81.3167    5.388000011444092 0.3605000078678131 2.5146     2233.676  
257.3364   446.8084   78.685     5.410200119018555 0.3526000082492828 2.4569     2233.0424 
257.4888   442.5187   76.7113    6.285600185394287 0.3415000140666962 2.4135     2226.7889 
257.6412   442.1587   77.0663    6.954999923706055 0.3490000069141388 2.4528     2228.8302 
257.7936   447.5208   78.6748    5.971700191497803 0.3610000014305115 2.4049     2231.481  
257.946    445.1432   79.9627    6.091499805450439 0.3521000146865845 2.4604     2225.7401 
258.0984   449.4817   80.1057    6.211699962615967 0.350600004196167 2.4555     2213.7251 
258.2508   451.6845   81.0568    6.790800094604492 0.3490000069141388 2.4338     2206.9967 
258.4032   458.3822   80.9247    6.276999950408936 0.3300000131130219 2.488      2205.0629 
258.5556   454.0219   81.9727    6.168600082397461 0.3447000086307526 2.5802     2195.5442 
258.708    465.9126   85.2679    4.963699817657471 0.4045999944210052 2.4904     2176.7992 
258.8604   470.4056   87.4452    3.857700109481812 0.4465999901294708 2.452      2164.8703 
259.0128   473.4988   84.3484    3.909899950027466 0.4453999996185303 2.4778     2165.4149 
259.1652   479.8011   79.2296    3.979399919509888 0.4503999948501587 2.5885     2165.2453 
259.3176   472.9617   77.6101    3.628499984741211 0.4767000079154968 2.598      2173.3808 
259.47     472.4595   79.6658    3.482300043106079 0.4645000100135803 2.4988     2181.6601 
259.6224   473.6586   81.1095    3.404700040817261 0.4456999897956848 2.5196     2191.3647 
259.7748   471.1674   80.6708    3.364000082015991 0.441100001335144 2.5601     2190.0274 
259.9272   478.4134   80.251     3.333300113677979 0.4652000069618225 2.5027     2182.6792 
260.0796   484.158    78.2861    3.340100049972534 0.4393999874591827 2.483      2177.2548 
260.232    480.0978   77.1909    3.397799968719482 0.4679000079631805 2.4809     2175.5653 
260.3844   481.5404   79.2351    3.363100051879883 0.4668999910354614 2.5726     2180.4847 
260.5368   477.2668   81.9232    3.464299917221069 0.4330999851226807 2.5768     2187.8281 
260.6892   477.2682   83.9933    3.417999982833862 0.4383000135421753 2.683      2192.922  
260.8416   479.3836   82.9427    3.319200038909912 0.4523999989032745 2.7002     2195.6048 
260.994    481.6068   82.3563    3.254199981689453 0.4833000004291534 2.6217     2198.4234 
261.1464   475.9832   81.8215    3.153700113296509 0.5013999938964844 2.604      2204.6576 
261.2988   471.2858   82.8676    3.36299991607666 0.4603999853134155 2.6562     2216.0072 
261.4512   463.9522   83.6934    3.933599948883057 0.4047999978065491 2.517      2222.5262 
261.6036   461.9542   84.3826    4.803599834442139 0.3840999901294708 2.4874     2222.9272 
261.756    462.5248   85.4396    4.293799877166748 0.4234000146389008 2.6151     2219.5222 
261.9084   471.5928   87.9504    3.837500095367432 0.4408000111579895 2.6588     2215.4441 
262.0608   480.0069   86.8924    3.609400033950806 0.4323000013828278 2.5937     2206.1934 
262.2132   482.7114   87.2738    3.166800022125244 0.4578000009059906 2.6917     2193.1977 
262.3656   482.3417   84.3225    3.007299900054932 0.4803999960422516 2.6545     2188.7475 
262.518    475.9639   85.7227    3.272200107574463 0.4519000053405762 2.8701     2196.2351 
262.6704   467.9139   85.5242    3.929399967193604 0.3707999885082245 2.5902     2203.8657 
262.8228   463.5991   87.0846    4.015999794006348 0.3819000124931335 2.5426     2203.1751 
262.9752   469.1388   87.3946    3.770699977874756 0.4316000044345856 2.5336     2194.2699 
263.1276   471.3394   85.7718    3.613399982452393 0.4512999951839447 2.509      2184.4366 
263.28     472.6088   84.1951    3.459500074386597 0.4618000090122223 2.5202     2176.2588 
263.4324   469.8015   80.0015    3.74429988861084 0.4790000021457672 2.5023     2173.9622 
263.5848   463.7231   78.8785    4.128399848937988 0.460999995470047 2.4733     2173.6924 
263.7372   459.2143   75.9238    4.169400215148926 0.4305000007152557 2.5566     2177.209  
263.8896   454.5761   75.7845    4.24940013885498 0.4399999976158142 2.5762     2180.8976 
264.042    449.0975   72.4299    5.18340015411377 0.4102999866008759 2.4968     2186.0102 
264.1944   448.4273   71.2179    5.53439998626709 0.4016999900341034 2.5046     2191.0844 
264.3468   447.4508   71.7104    5.450300216674805 0.4208999872207642 2.5416     2205.3697 
264.4992   419.2176   70.824     5.526800155639648 0.4505999982357025 2.6183     2276.6733 
264.6516   402.714    72.8309    7.119999885559082 0.3776000142097473 2.8802     2353.514  
264.804    407.4137   71.5279    8.661399841308594 0.3348999917507172 4.4667     2379.324  
264.9564   408.3637   72.5112    7.383500099182129 0.3495999872684479 3.5838     2346.1692 
265.1088   409.3138   73.4944    6.105700016021729 0.3643999993801117 2.7009     2313.0145 
265.2612   441.1207   75.1842    4.560100078582764 0.4120000004768372 2.6052     2243.0066 
265.4136   451.0522   79.3331    4.511899948120117 0.4214000105857849 2.6951     2225.9936 
265.566    439.2728   78.3821    5.290599822998047 0.4110000133514404 2.5413     2241.5811 
265.7184   445.2735   76.5708    6.481900215148926 0.3630000054836273 2.4493     2236.2821 
265.8708   464.1691   73.3104    8.173700332641602 0.2903000116348267 2.4766     2192.2776 
266.0232   484.4548   69.6695    10.20940017700195 0.2520999908447266 2.321      2135.6285 
266.1756   506.6253   61.3567    12.16880035400391 0.2222999930381775 2.2589     2094.9016 
266.328    516.9648   58.5189    12.73419952392578 0.218299999833107 2.311      2080.5118 
266.4804   516.6924   58.6179    13.26480007171631 0.2298000007867813 2.2971     2083.5948 
266.6328   516.5114   62.6716    12.49100017547607 0.2372999936342239 2.3025     2092.6928 
266.7852   505.9608   63.0168    11.32159996032715 0.259799987077713 2.3602     2103.6819 
266.9376   497.9918   64.8828    10.19139957427979 0.2741000056266785 2.3285     2114.5505 
267.09     480.9977   64.9876    8.946100234985352 0.3021999895572662 2.2892     2158.2282 
267.2424   424.5232   65.854     8.276900291442871 0.2861000001430511 2.6031     2252.4471 
267.3948   407.55     63.9167    12.80189990997314 0.2478999942541122 3.2697     2340.6574 
267.5472   412.3413   65.0589    12.96990013122559 0.2739999890327454 3.6944     2328.4866 
267.6996   422.774    66.9678    8.695599555969238 0.3208000063896179 2.4181     2243.6638 
267.852    468.5792   70.9745    6.638199806213379 0.3589000105857849 2.4301     2165.873  
268.0044   476.7406   73.1306    4.439700126647949 0.4144000113010406 2.4552     2154.3242 
268.1568   470.7101   71.6198    4.011000156402588 0.439300000667572 2.4154     2158.9184 
268.3092   485.211    70.5638    4.860400199890137 0.3987999856472015 2.3523     2169.6923 
