~Version
 VERS              .         2.0                           : CWLS LOG ASCII STANDARD - VERSION 2.0
 WRAP              .         NO                            : ONE LINE PER DEPTH STEP
 DLM               .         SPACE                         : DELIMITING CHARACTER(SPACE TAB OR COMMA)
~Well Information
#_______________________________________________________________________________
#
#PARAMETER_NAME    .UNIT     VALUE                         : DESCRIPTION
#_______________________________________________________________________________
STRT               .M        0.2376                        : First reference value
STOP               .M        360.9684                      : Last reference value
STEP               .M        0.1524                        : Step increment
NULL               .         -9999                         : Missing value
COMP               .                                       : Company
WELL               .         E                             : Well name
FLD                .                                       : Field
LOC                .                                       : Location
CNTY               .                                       : County
STAT               .                                       : State
CTRY               .                                       : Country
SRVC               .                                       : Service Company
DATE               .                                       : Date
API                .                                       : API number
~Parameter Information Block
#_______________________________________________________________________________
#
#PARAMETER_NAME    .UNIT     VALUE                         : DESCRIPTION
#_______________________________________________________________________________
SET                .         Logs                          : 
TLFamily_DEPT      .         Measured Depth                : 
TLFamily_DT        .         Compressional Slowness        : 
TLFamily_GR        .         Gamma Ray                     : 
TLFamily_ILD       .         Resistivity - Deep            : 
TLFamily_NPOR_LIM  .         Thermal Neutron Porosity Limestone: 
TLFamily_PEF       .         Photoelectric Factor          : 
TLFamily_RHO       .         Bulk Density                  : 
~Curve Information
#_______________________________________________________________________________
#
#LOGNAME           .UNIT     LOG_ID                        : DESCRIPTION
#_______________________________________________________________________________
DEPT               .M                                      : 1 Depth Index 
DT                 .US/M                                   : 6 DELTA-T (ALSO CALLED SLOWNESS OR INTERVAL TRANSIT TIME) **MERGED** 
GR                 .GAPI                                   : 60 GAMMA RAY (F14.5) **MERGED** 
ILD                .OHMM                                   : 30 ARRAY INDUCTION ONE FOOT RESISTIVITY A90 (F14.5) **MERGED** 
NPOR_LIM           .V/V                                    : 92 ENHANCED THERMAL NEUTRON POROSITY (MATRIX LIMESTONE) (F14.5) **MERGED** 
PEF                .B/E                                    : 94 HIGH RESOLUTION FORMATION PHOTOELECTRIC FACTOR (F14.5) **MERGED** 
RHO                .K/M3                                   : 103 3 3 3 STANDARD RESOLUTION FORMATION DENSITY (F14.5) **MERGED** 
~Ascii
# ...
322.1064   406.1204   30.0015    238.2678070068359 0.3255999982357025 1.5484     2093.1531 
322.2588   412.0625   29.8901    228.1970977783203 0.3443000018596649 1.874      2077.9351 
322.4112   415.1023   28.8438    203.0059967041016 0.3804999887943268 2.0216     2061.5534 
322.5636   417.2454   25.4034    333.2796020507813 0.384799987077713 1.6259     2050.9638 
322.716    420.4556   26.6263    538.700927734375 0.3305999934673309 1.6396     2046.9674 
322.8684   421.48     27.7714    1396.2083  0.3382000029087067 1.758      2047.0422 
323.0208   421.813    29.9385    835.8206   0.3786999881267548 2.3165     2044.0701 
323.1732   422.5803   28.808     657.1612   0.4106999933719635 2.5199     2041.954  
323.3256   423.933    27.8069    427.8282   0.3896999955177307 1.8119     2041.8749 
323.478    422.9962   26.9128    620.8952   0.3547999858856201 1.8814     2043.1876 
323.6304   422.3685   27.0159    535.1482   0.3571000099182129 2.0377     2044.1653 
323.7828   421.7407   27.1191    449.4011   0.3594000041484833 2.194      2045.143  
323.9352   421.4365   28.1138    172.9598   0.3393000066280365 1.8248     2050.739  
324.0876   416.3102   32.6773    130.6656   0.2870999872684479 1.7795     2074.5817 
324.24     412.5125   41.0382    48.8346    0.2773000001907349 1.7861     2111.695  
324.3924   411.0218   51.6894    21.0682    0.3077999949455261 1.9941     2141.9749 
324.5448   409.6986   55.2791    21.191     0.3361999988555908 2.0125     2146.0558 
324.6972   408.1626   54.0113    31.6138    0.3632999956607819 1.9192     2130.8192 
324.8496   413.1596   49.1903    42.8805    0.3650999963283539 1.9202     2108.9949 
325.002    418.5226   46.1231    32.7312    0.3752999901771545 1.8173     2087.4654 
325.1544   419.6663   44.4357    72.717     0.3705999851226807 1.6742     2067.1142 
325.3068   424.5832   44.5066    85.6084    0.3650999963283539 1.837      2059.8309 
325.4592   424.9405   46.508     83.91970000000001 0.3732999861240387 1.8632     2064.0487 
325.6116   423.0054   46.6444    69.48309999999999 0.3853000104427338 1.7413     2076.9276 
325.764    418.5355   49.7739    52.2328    0.3274999856948853 1.749      2105.4073 
325.9164   414.1438   52.4482    34.7622    0.2842000126838684 1.9744     2144.0777 
326.0688   407.818    56.8204    18.1479    0.314300000667572 2.0016     2167.4561 
326.2212   406.6127   54.1806    20.4334    0.3551999926567078 2.0186     2152.3676 
326.3736   412.8816   49.7331    32.6981    0.3810000121593475 1.8336     2111.1808 
326.526    417.4314   43.2288    64.3459    0.3468999862670898 1.8712     2074.735  
326.6784   423.3358   40.469     92.6564    0.3438999950885773 1.9335     2056.5191 
326.8308   422.0574   41.9023    108.1985   0.3436000049114227 1.8401     2061.4027 
326.9832   418.4299   46.6814    81.6416    0.3352000117301941 1.8173     2086.6917 
327.1356   412.9718   51.7514    45.0982    0.3522000014781952 1.9107     2127.8651 
327.288    405.5863   54.0156    27.1661    0.3517999947071075 2.0536     2169.3942 
327.4404   403.958    54.5369    17.3659    0.3463999927043915 2.1204     2181.8842 
327.5928   406.3278   52.4726    21.3097    0.3668000102043152 2.1175     2154.1865 
327.7452   411.5291   45.9835    34.5031    0.3745000064373016 1.8795     2102.3418 
327.8976   417.3983   39.4104    73.5887    0.3603000044822693 1.7896     2069.0719 
328.05     418.9629   37.5111    53.1393    0.3283999860286713 1.7785     2078.0616 
328.2024   416.3427   42.5412    43.2809    0.3163000047206879 1.9111     2111.7334 
328.3548   412.5766   47.7553    18.1727    0.3587000072002411 2.2226     2138.5752 
328.5072   409.6563   49.6695    28.7437    0.3815000057220459 1.9668     2131.5975 
328.6596   415.8913   45.9626    31.4126    0.3754999935626984 1.9702     2106.3798 
328.812    419.1279   41.1591    38.191     0.375900000333786 1.8877     2075.9781 
328.9644   424.3252   37.7127    55.9859    0.3517000079154968 1.9124     2057.0786 
329.1168   429.7598   36.0104    65.8631    0.3768999874591827 1.992      2041.8404 
329.2692   429.1141   35.1108    67.64019999999999 0.398499995470047 1.9524     2033.77   
329.4216   429.1406   37.4704    52.0798    0.3779999911785126 2.0042     2046.6494 
329.574    420.8669   45.8024    29.4015    0.3362999856472015 2.0476     2098.3157 
329.7264   409.857    57.1483    12.7566    0.3129000067710876 2.4121     2174.7698 
329.8788   401.6274   65.2739    11.4496    0.3429000079631805 2.559      2216.5814 
330.0312   408.2653   64.0435    13.14      0.4079999923706055 2.4309     2191.3586 
330.1836   417.9842   54.3519    22.0945    0.4232000112533569 2.1744     2120.0725 
330.336    426.8843   42.7894    42.1949    0.3770000040531158 2.1896     2060.6573 
330.4884   421.5074   38.7428    55.0051    0.3391000032424927 2.0837     2045.6822 
330.6408   410.9142   44.7318    30.3781    0.3273000121116638 2.1679     2087.8305 
330.7932   402.3469   56.614     17.7802    0.3165000081062317 2.2691     2159.9188 
330.9456   395.7384   67.4449    12.4514    0.3332000076770782 2.4279     2218.4708 
331.098    403.8006   68.2456    12.5672    0.3885000050067902 2.5954     2211.6365 
331.2504   414.5636   59.0775    20.7879    0.4058000147342682 2.3496     2148.0711 
331.4028   416.9541   49.0079    28.7054    0.3835000097751617 1.8971     2094.6229 
331.5552   416.2342   48.0291    31.6599    0.3754999935626984 1.8657     2095.3406 
331.7076   412.3491   52.5658    23.7709    0.3655000030994415 1.9829     2129.7453 
331.86     407.712    54.0854    18.142     0.3662000000476837 2.1659     2141.327  
332.0124   408.7009   50.2975    20.8978    0.3580999970436096 2.11       2117.402  
332.1648   411.7866   44.7806    21.9472    0.351500004529953 2.2086     2092.2459 
332.3172   410.9927   41.1604    29.4865    0.3481000065803528 2.352      2086.755  
332.4696   410.8488   40.0925    28.3249    0.3459999859333038 2.2474     2093.5557 
332.622    411.9182   40.9113    27.388     0.355100005865097 2.1308     2094.5368 
332.7744   412.6245   41.1864    27.0515    0.3689000010490417 2.0174     2085.0314 
332.9268   414.404    40.6614    29.9322    0.3526000082492828 2.0916     2074.7578 
333.0792   415.4992   40.0964    28.1139    0.3531999886035919 2.242      2077.5777 
333.2316   416.8486   39.0623    30.0221    0.3695999979972839 2.2281     2076.8554 
333.384    418.8338   37.0457    34.3776    0.3756999969482422 2.4591     2079.1436 
333.5364   424.3626   36.3451    40.1131    0.3479999899864197 2.1996     2076.0405 
333.6888   414.3155   37.4473    29.2986    0.3364999890327454 1.9507     2081.0848 
333.8412   414.2074   38.1305    38.17      0.3371999859809875 2.0252     2075.8305 
333.9936   416.2077   36.8063    42.8735    0.3677000105381012 2.2125     2053.5272 
334.146    422.6464   34.2086    38.4829    0.3743999898433685 2.2526     2028.7364 
334.2984   427.506    32.6216    55.1386    0.3684999942779541 2.0294     2018.0098 
334.4508   426.3011   33.0512    62.946     0.3603000044822693 1.7636     2024.3011 
334.6032   423.8493   34.4857    54.6211    0.3542999923229218 1.8249     2036.2506 
334.7556   423.0419   36.366     42.0716    0.3623999953269958 2.0186     2045.2372 
334.908    415.6146   38.6       37.1978    0.3533999919891357 2.0345     2065.5629 
335.0604   414.9593   43.9035    35.1726    0.3219000101089478 2.1036     2097.1308 
335.2128   418.1073   46.5926    21.2245    0.3300999999046326 2.2965     2111.5011 
335.3652   423.3373   46.4591    21.9209    0.3671999871730804 2.1118     2085.0458 
335.5176   435.197    42.3071    26.47      0.3853999972343445 2.1392     2025.9204 
335.67     440.5478   38.4657    30.427     0.4415000081062317 2.1258     1983.5503 
335.8224   437.0253   35.5461    37.0657    0.4126999974250793 2.1779     1978.0519 
335.9748   432.9317   32.6784    39.5481    0.3910999894142151 2.2359     1988.7544 
336.1272   426.7012   32.7688    42.7222    0.3794000148773193 2.2624     2005.8764 
336.2796   425.4146   33.2146    60.4113    0.3749000132083893 2.106      2025.0851 
