~Version
 VERS              .         2.0                           : CWLS LOG ASCII STANDARD - VERSION 2.0
 WRAP              .         NO                            : ONE LINE PER DEPTH STEP
 DLM               .         SPACE                         : DELIMITING CHARACTER(SPACE TAB OR COMMA)
~Well Information
#_______________________________________________________________________________
#
#PARAMETER_NAME    .UNIT     VALUE                         : DESCRIPTION
#_______________________________________________________________________________
STRT               .M        0.2376                        : First reference value
STOP               .M        360.9684                      : Last reference value
STEP               .M        0.1524                        : Step increment
NULL               .         -9999                         : Missing value
COMP               .                                       : Company
WELL               .         E                             : Well name
FLD                .                                       : Field
LOC                .                                       : Location
CNTY               .                                       : County
STAT               .                                       : State
CTRY               .                                       : Country
SRVC               .                                       : Service Company
DATE               .                                       : Date
API                .                                       : API number
~Parameter Information Block
#_______________________________________________________________________________
#
#PARAMETER_NAME    .UNIT     VALUE                         : DESCRIPTION
#_______________________________________________________________________________
SET                .         Logs                          : 
TLFamily_DEPT      .         Measured Depth                : 
TLFamily_DT        .         Compressional Slowness        : 
TLFamily_GR        .         Gamma Ray                     : 
TLFamily_ILD       .         Resistivity - Deep            : 
TLFamily_NPOR_LIM  .         Thermal Neutron Porosity Limestone: 
TLFamily_PEF       .         Photoelectric Factor          : 
TLFamily_RHO       .         Bulk Density                  : 
~Curve Information
#_______________________________________________________________________________
#
#LOGNAME           .UNIT     LOG_ID                        : DESCRIPTION
#_______________________________________________________________________________
DEPT               .M                                      : 1 Depth Index 
DT                 .US/M                                   : 6 DELTA-T (ALSO CALLED SLOWNESS OR INTERVAL TRANSIT TIME) **MERGED** 
GR                 .GAPI                                   : 60 GAMMA RAY (F14.5) **MERGED** 
ILD                .OHMM                                   : 30 ARRAY INDUCTION ONE FOOT RESISTIVITY A90 (F14.5) **MERGED** 
NPOR_LIM           .V/V                                    : 92 ENHANCED THERMAL NEUTRON POROSITY (MATRIX LIMESTONE) (F14.5) **MERGED** 
PEF                .B/E                                    : 94 HIGH RESOLUTION FORMATION PHOTOELECTRIC FACTOR (F14.5) **MERGED** 
RHO                .K/M3                                   : 103 3 3 3 STANDARD RESOLUTION FORMATION DENSITY (F14.5) **MERGED** 
~Ascii
# ...
94.116     531.9659   87.7478    2.803800106048584 0.494700014591217 2.4724     2088.7859 
94.2684    531.9887   89.608     2.7600998878479 0.5142999887466431 2.473      2088.9162 
94.4208    532.1287   89.792     2.767699956893921 0.5083000063896179 2.5271     2085.6798 
94.5732    532.085    91.1127    2.714499950408936 0.5023999810218811 2.4819     2082.1503 
94.7256    533.187    92.6308    2.648200035095215 0.5059000253677368 2.4972     2075.7114 
94.878     534.0582   92.4486    2.574899911880493 0.5055999755859375 2.4752     2065.9119 
95.0304    535.0758   90.2443    2.664499998092651 0.5230000019073486 2.4839     2064.7589 
95.1828    536.1509   87.2194    2.711800098419189 0.5375999808311462 2.6007     2072.3317 
95.3352    536.4059   84.3388    2.631200075149536 0.5343000292778015 2.5077     2080.5033 
95.4876    540.379    82.0652    2.491100072860718 0.5108000040054321 2.4095     2073.9431 
95.64      540.4572   82.0553    2.365200042724609 0.515500009059906 2.4376     2059.6458 
95.7924    540.5606   83.2178    2.441400051116943 0.5206000208854675 2.5198     2051.3357 
95.9448    539.734    84.1363    2.511800050735474 0.5123000144958496 2.3952     2051.2315 
96.0972    536.9891   82.183     2.526799917221069 0.5328999757766724 2.4752     2057.8429 
96.2496    534.6673   79.2668    2.529299974441528 0.554099977016449 2.4139     2066.0306 
96.402     534.6778   77.2966    2.545700073242188 0.5824000239372253 2.4337     2067.0169 
96.5544    533.9677   77.5302    2.470799922943115 0.595300018787384 2.4369     2058.7875 
96.7068    527.7415   77.8459    2.422300100326538 0.5866000056266785 2.3945     2048.1958 
96.8592    525.549    76.7333    2.482800006866455 0.5475999712944031 2.4312     2063.7253 
97.0116    520.8728   75.7845    2.772300004959106 0.5170999765396118 3.3353     2102.969  
97.164     521.5321   77.6521    2.560800075531006 0.5508000254631042 2.8081     2104.2025 
97.3164    525.3434   81.3323    2.377000093460083 0.5587000250816345 2.3367     2096.2977 
97.4688    524.8337   84.6367    2.349200010299683 0.5379999876022339 2.3968     2067.6848 
97.6212    529.103    83.971     2.482100009918213 0.5327000021934509 2.4183     2070.3864 
97.7736    535.2709   81.6543    2.509900093078613 0.5271000266075134 2.4718     2063.4756 
97.926     541.423    79.2451    2.489000082015991 0.515500009059906 2.346      2060.6064 
98.0784    545.9979   78.2043    2.462699890136719 0.5277000069618225 2.354      2065.5609 
98.2308    544.3804   78.01      2.474200010299683 0.6220999956130981 2.4012     2063.0306 
98.3832    543.1273   78.4311    2.520400047302246 0.5670999884605408 2.3708     2064.2739 
98.5356    542.8772   79.5831    2.553200006484985 0.5113000273704529 2.6139     2068.7668 
98.688     545.0234   80.5227    2.526099920272827 0.5113000273704529 2.4473     2081.8998 
98.8404    545.4451   80.4343    2.467900037765503 0.5776000022888184 2.5487     2088.4019 
98.9928    542.3796   82.0213    2.434000015258789 0.6069999933242798 2.4858     2094.232  
99.1452    543.7118   83.6609    2.428100109100342 0.5457000136375427 2.4204     2093.6838 
99.2976    542.4182   82.9142    2.505300045013428 0.5324000120162964 2.5162     2099.455  
99.45      541.1467   83.9025    2.608200073242188 0.5067999958992004 2.5534     2092.5294 
99.6024    538.424    85.9001    2.644799947738647 0.4832000136375427 2.4185     2084.1608 
99.7548    530.4932   91.0839    2.606199979782104 0.4902999997138977 2.5199     2080.7803 
99.9072    527.2337   88.4259    2.516599893569946 0.499099999666214 2.5657     2087.6534 
100.0596   527.0693   84.3074    2.500699996948242 0.4997999966144562 2.5076     2095.3524 
100.212    530.9371   83.293     2.533900022506714 0.5030999779701233 2.5403     2092.0901 
100.3644   535.987    86.4392    2.487600088119507 0.5087000131607056 2.5188     2090.1049 
100.5168   541.0833   88.4594    2.460200071334839 0.5720000267028809 2.5624     2091.6823 
100.6692   541.8561   88.6454    2.517299890518188 0.5590000152587891 2.5268     2095.5233 
100.8216   538.7821   89.1538    2.587500095367432 0.542900025844574 2.5207     2094.6908 
100.974    533.9009   89.3476    2.570600032806396 0.5180000066757202 2.5472     2099.3447 
101.1264   531.9787   86.8781    2.691400051116943 0.5102999806404114 2.5092     2105.6396 
101.2788   529.6597   86.4123    2.876600027084351 0.4934999942779541 2.6114     2111.5974 
101.4312   530.5776   88.5228    2.946099996566772 0.5095000267028809 2.5496     2117.0749 
101.5836   525.6123   89.1304    2.95770001411438 0.5139999985694885 2.6188     2125.1555 
101.736    519.4222   86.8345    2.915899991989136 0.4611000120639801 2.535      2120.7773 
101.8884   518.2573   82.0976    2.858299970626831 0.5702000260353088 2.4218     2112.2841 
102.0408   515.4149   78.5173    2.996299982070923 0.5508000254631042 2.5343     2100.6634 
102.1932   515.9498   78.6406    3.1774001121521 0.5814999938011169 2.5956     2110.9111 
102.3456   514.4184   82.187     3.194999933242798 0.499099999666214 2.3742     2122.9418 
102.498    509.1013   87.1557    3.164299964904785 0.4900000095367432 2.5459     2129.9076 
102.6504   509.5296   84.952     3.188600063323975 0.4853000044822693 2.7068     2126.8883 
102.8028   508.123    82.0215    3.228800058364868 0.570900022983551 2.669      2127.2754 
102.9552   507.0447   79.5214    3.265599966049194 0.6338000297546387 2.4857     2144.3571 
103.1076   507.5005   80.6105    3.32610011100769 0.515999972820282 2.566      2164.0422 
103.26     505.1556   81.2786    3.477699995040894 0.4785000085830688 2.5848     2159.0015 
103.4124   501.7963   83.2824    3.707600116729736 0.4975999891757965 2.5851     2151.3301 
103.5648   500.9781   84.7657    3.95580005645752 0.5103999972343445 2.5228     2144.8866 
103.7172   500.1599   86.249     4.203999996185303 0.5232999920845032 2.4604     2138.443  
103.8696   496.3426   89.8263    4.002099990844727 0.5080999732017517 2.6065     2148.2095 
104.022    494.5462   91.1939    3.851000070571899 0.4918000102043152 2.5976     2151.225  
104.1744   492.5686   92.3224    3.289000034332275 0.5080999732017517 2.4474     2159.9435 
104.3268   492.1651   91.4096    3.16510009765625 0.4995000064373016 2.4838     2169.3139 
104.4792   491.014    93.3034    3.440799951553345 0.4679999947547913 2.6126     2178.8279 
104.6316   485.1368   94.5547    3.629400014877319 0.4625999927520752 2.5449     2194.9937 
104.784    480.9343   94.2231    3.820300102233887 0.4404999911785126 2.567      2204.3688 
104.9364   479.6157   92.9146    4.379600048065186 0.4339999854564667 2.5277     2211.0497 
105.0888   480.1674   92.1058    4.397500038146973 0.4386000037193298 2.5251     2209.9764 
105.2412   479.153    93.8689    3.804800033569336 0.4569000005722046 2.5998     2209.6612 
105.3936   475.3411   93.3863    4.255000114440918 0.4546000063419342 2.474      2213.9804 
105.546    465.0956   89.3212    4.938799858093262 0.4471000134944916 2.5459     2235.5283 
105.6984   441.4383   82.639     5.841800212860107 0.3889000117778778 2.626      2274.1524 
105.8508   431.6945   75.3724    7.70580005645752 0.3517999947071075 3.4487     2310.9632 
106.0032   427.7729   75.4911    7.405799865722656 0.3842999935150146 3.3527     2297.8602 
106.1556   439.4702   79.8455    6.485099792480469 0.4555999934673309 2.919      2258.8528 
106.308    469.2547   84.4432    4.994400024414063 0.5020999908447266 2.6851     2215.7799 
106.4604   484.2247   84.596     4.228499889373779 0.4970000088214874 2.4435     2207.1117 
106.6128   502.8505   83.5631    3.421200037002563 0.5189999938011169 2.4977     2193.2939 
106.7652   511.4589   80.8283    2.969500064849854 0.5454999804496765 2.6208     2183.7181 
106.9176   502.0427   77.9093    3.326499938964844 0.5091999769210815 2.5756     2173.392  
107.07     502.5032   74.2186    4.309299945831299 0.4514999985694885 2.3974     2176.2688 
107.2224   500.4653   72.7784    3.63289999961853 0.4492000043392181 2.3458     2178.9052 
107.3748   490.186    71.6541    3.129800081253052 0.4659000039100647 2.6012     2181.6179 
