~Version
 VERS              .         2.0                           : CWLS LOG ASCII STANDARD - VERSION 2.0
 WRAP              .         NO                            : ONE LINE PER DEPTH STEP
 DLM               .         SPACE                         : DELIMITING CHARACTER(SPACE TAB OR COMMA)
~Well Information
#_______________________________________________________________________________
#
#PARAMETER_NAME    .UNIT     VALUE                         : DESCRIPTION
#_______________________________________________________________________________
STRT               .M        0.2376                        : First reference value
STOP               .M        360.9684                      : Last reference value
STEP               .M        0.1524                        : Step increment
NULL               .         -9999                         : Missing value
COMP               .                                       : Company
WELL               .         E                             : Well name
FLD                .                                       : Field
LOC                .                                       : Location
CNTY               .                                       : County
STAT               .                                       : State
CTRY               .                                       : Country
SRVC               .                                       : Service Company
DATE               .                                       : Date
API                .                                       : API number
~Parameter Information Block
#_______________________________________________________________________________
#
#PARAMETER_NAME    .UNIT     VALUE                         : DESCRIPTION
#_______________________________________________________________________________
SET                .         Logs                          : 
TLFamily_DEPT      .         Measured Depth                : 
TLFamily_DT        .         Compressional Slowness        : 
TLFamily_GR        .         Gamma Ray                     : 
TLFamily_ILD       .         Resistivity - Deep            : 
TLFamily_NPOR_LIM  .         Thermal Neutron Porosity Limestone: 
TLFamily_PEF       .         Photoelectric Factor          : 
TLFamily_RHO       .         Bulk Density                  : 
~Curve Information
#_______________________________________________________________________________
#
#LOGNAME           .UNIT     LOG_ID                        : DESCRIPTION
#_______________________________________________________________________________
DEPT               .M                                      : 1 Depth Index 
DT                 .US/M                                   : 6 DELTA-T (ALSO CALLED SLOWNESS OR INTERVAL TRANSIT TIME) **MERGED** 
GR                 .GAPI                                   : 60 GAMMA RAY (F14.5) **MERGED** 
ILD                .OHMM                                   : 30 ARRAY INDUCTION ONE FOOT RESISTIVITY A90 (F14.5) **MERGED** 
NPOR_LIM           .V/V                                    : 92 ENHANCED THERMAL NEUTRON POROSITY (MATRIX LIMESTONE) (F14.5) **MERGED** 
PEF                .B/E                                    : 94 HIGH RESOLUTION FORMATION PHOTOELECTRIC FACTOR (F14.5) **MERGED** 
RHO                .K/M3                                   : 103 3 3 3 STANDARD RESOLUTION FORMATION DENSITY (F14.5) **MERGED** 
~Ascii
# ...
120.9384   466.2567   63.8747    19.29120063781738 0.4345000088214874 1.9665     2098.9348 
121.0908   469.8799   64.2306    20.43989944458008 0.4634999930858612 1.9614     2109.9358 
121.2432   436.2039   62.1023    23.18770027160645 0.3952000141143799 1.9024     2131.9311 
121.3956   452.4971   58.5477    37.51919937133789 0.3711000084877014 3.6287     2199.1442 
121.548    458.6843   53.5086    38.83449935913086 0.3754000067710876 2.6602     2193.2053 
121.7004   459.0182   50.0322    29.34569931030273 0.4142999947071075 2.55       2166.5809 
121.8528   499.8773   49.1688    28.28499984741211 0.4065999984741211 1.9519     2096.1817 
122.0052   494.8513   51.0867    27.08889961242676 0.380299985408783 2.0138     2082.7046 
122.1576   485.4964   54.5003    24.34589958190918 0.4000999927520752 2.1924     2076.2182 
122.31     481.4578   60.4058    23.02589988708496 0.4023999869823456 1.9938     2066.5861 
122.4624   483.1329   64.8693    23.41320037841797 0.3894999921321869 2.1445     2053.7931 
122.6148   483.233    68.4094    21.07799911499023 0.3989000022411346 1.7592     2054.0475 
122.7672   478.7857   69.4713    20.85960006713867 0.3783000111579895 2.0886     2087.8231 
122.9196   479.7071   72.5084    20.13599967956543 0.3910999894142151 2.2134     2118.1732 
123.072    469.4013   78.2688    17.96159934997559 0.3944000005722046 2.1453     2146.1159 
123.2244   468.8485   84.7435    15.20629978179932 0.3600000143051147 2.2251     2173.343  
123.3768   466.0878   89.8036    12.77309989929199 0.3524999916553497 2.2339     2195.417  
123.5292   461.2584   89.886     11.55109977722168 0.368800014257431 2.3094     2219.0282 
123.6816   464.1424   87.1764    10.10760021209717 0.3916000127792358 2.4193     2236.4673 
123.834    459.8173   83.1309    9.547699928283691 0.3946999907493591 2.4826     2230.8494 
123.9864   473.3602   79.6809    12.31319999694824 0.3835999965667725 2.2584     2186.7286 
124.1388   484.9464   78.6234    18.20120048522949 0.3919000029563904 2.0235     2135.238  
124.2912   490.059    79.7801    20.82869911193848 0.3905999958515167 1.9381     2106.3522 
124.4436   485.0894   82.363     20.48979949951172 0.3912000060081482 1.9851     2105.2892 
124.596    479.3757   85.4551    21.05050086975098 0.4072000086307526 2.03       2109.757  
124.7484   482.4085   87.7986    20.8798999786377 0.392300009727478 2.2243     2114.5073 
124.9008   483.91     88.5296    20.41720008850098 0.3842000067234039 2.2279     2113.356  
125.0532   489.4664   85.4932    20.5177001953125 0.3828999996185303 2.0678     2097.3533 
125.2056   491.0314   78.8153    22.13360023498535 0.3745999932289124 2.0865     2062.6829 
125.358    490.1804   71.3957    24.38809967041016 0.388700008392334 1.9956     2044.5    
125.5104   485.5167   66.8352    25.09539985656738 0.4049000144004822 2.0606     2057.0377 
125.6628   481.3155   65.392     22.52059936523438 0.4086999893188477 1.9622     2098.3237 
125.8152   475.4654   64.9243    19.86860084533691 0.3788000047206879 1.9323     2105.9805 
125.9676   475.8804   63.9828    20.39480018615723 0.3716000020503998 1.9499     2069.4663 
126.12     481.3227   61.3157    19.03660011291504 0.4336999952793121 2.2384     2033.0328 
126.2724   483.39     55.3313    19.19720077514648 0.4668000042438507 2.0097     2019.033  
126.4248   488.4765   47.9357    21.27499961853027 0.4203999936580658 1.9243     2042.6953 
126.5772   490.5945   41.9672    21.53580093383789 0.4056999981403351 1.8266     2048.3478 
126.7296   492.8393   39.6135    23.2996997833252 0.39410001039505 1.8145     2048.9564 
126.882    495.2792   38.5459    25.13940048217773 0.4075999855995178 1.8331     2030.6379 
127.0344   498.8778   39.2033    24.46310043334961 0.4311999976634979 1.8167     2022.9631 
127.1868   499.6863   41.1905    22.82060050964355 0.4334000051021576 1.8511     2022.8845 
127.3392   501.2045   41.668     21.39299964904785 0.4172999858856201 1.8906     2027.0849 
127.4916   502.6356   40.2668    22.04280090332031 0.3892999887466431 1.861      2026.8282 
127.644    504.201    39.193     23.55400085449219 0.3774000108242035 1.9274     2026.9855 
127.7964   502.1356   39.3396    21.54109954833984 0.3977999985218048 1.8119     2022.2499 
127.9488   500.7315   41.8348    19.28160095214844 0.4280000030994415 1.8121     2031.6909 
128.1012   502.6942   43.7232    17.34630012512207 0.4133000075817108 1.9207     2028.2113 
128.2536   508.02     43.4328    20.40290069580078 0.3962999880313873 1.8853     2030.3005 
128.406    509.903    40.3888    24.67790031433105 0.3743000030517578 1.9605     2025.5932 
128.5584   512.4097   38.3524    26.98299980163574 0.3671999871730804 1.8036     2026.1965 
128.7108   502.8095   38.2475    27.75480079650879 0.3646000027656555 1.712      2044.0515 
128.8632   476.8762   39.4312    25.7047004699707 0.359499990940094 1.7722     2076.4974 
129.0156   473.3486   40.213     25.30220031738281 0.3258000016212463 2.3867     2120.1016 
129.168    474.1882   40.595     27.1466007232666 0.3450999855995178 2.717      2125.9487 
129.3204   482.2623   38.1789    26.23699951171875 0.3822999894618988 1.8956     2094.3701 
129.4728   505.6168   38.2418    26.31389999389648 0.3623999953269958 1.8966     2059.1552 
129.6252   505.4414   39.2326    23.27239990234375 0.3732999861240387 1.9029     2047.8282 
129.7776   500.5673   40.8953    25.43519973754883 0.3513000011444092 2.1228     2050.8473 
129.93     493.0285   39.33      25.82119941711426 0.3592000007629395 1.8157     2052.7971 
130.0824   490.4806   40.4482    23.61650085449219 0.3718000054359436 1.8208     2048.0863 
130.2348   487.0628   43.3047    22.04179954528809 0.3380999863147736 1.9752     2051.5902 
130.3872   485.808    46.1295    21.81839942932129 0.3388000130653381 1.8472     2054.2004 
130.5396   485.4517   50.5983    19.77890014648438 0.3745999932289124 1.8724     2070.2455 
130.692    479.3848   54.0458    17.79710006713867 0.3849000036716461 1.9289     2084.1131 
130.8444   472.054    58.0034    16.87039947509766 0.4054000079631805 1.9722     2101.6173 
130.9968   467.5337   58.1277    16.1909008026123 0.3833999931812286 1.9594     2112.3621 
131.1492   466.901    60.974     16.13649940490723 0.3725000023841858 1.9785     2111.2758 
131.3016   468.2396   61.4631    15.18229961395264 0.4102999866008759 1.9345     2110.4302 
131.454    474.0912   63.9654    15.64109992980957 0.4158999919891357 2.1752     2077.4559 
131.6064   476.8897   64.6819    14.03120040893555 0.4255000054836273 2.0806     2055.0491 
131.7588   480.3254   65.6499    14.9886999130249 0.4260999858379364 1.7755     2027.759  
131.9112   486.0532   66.3689    14.74030017852783 0.3982000052928925 2.2241     2050.7571 
132.0636   485.665    66.3767    15.08749961853027 0.35589998960495 2.3302     2079.4392 
132.216    482.4183   67.1492    19.50670051574707 0.3799999952316284 2.0257     2114.525  
132.3684   473.2874   67.6512    14.14700031280518 0.3716999888420105 2.0654     2152.0035 
132.5208   469.0602   74.1639    8.769200325012207 0.367000013589859 2.4229     2189.5955 
132.6732   466.6149   80.5911    7.672500133514404 0.4111000001430511 2.5133     2220.9598 
132.8256   467.8386   83.5291    7.390900135040283 0.4216000139713287 2.5223     2225.5208 
132.978    469.0624   86.4672    7.109200000762939 0.4320999979972839 2.5312     2230.0818 
133.1304   473.0593   87.1526    6.433499813079834 0.3968999981880188 2.5934     2218.4069 
133.2828   469.6794   82.1997    7.087800025939941 0.4160999953746796 2.5083     2195.5879 
133.4352   463.4267   74.9479    10.52859973907471 0.4196000099182129 2.476      2168.993  
133.5876   456.4228   68.7216    14.46549987792969 0.3774000108242035 2.4627     2163.8971 
133.74     458.3982   68.7949    13.40620040893555 0.3465000092983246 2.5616     2168.4787 
133.8924   459.1      70.0896    12.40719985961914 0.3790000081062317 2.4127     2166.5448 
134.0448   463.9918   68.5416    12.61559963226318 0.396699994802475 2.4524     2142.8254 
134.1972   472.3238   66.9823    16.13209915161133 0.3671999871730804 2.3509     2114.1094 
