~Version
 VERS              .         2.0                           : CWLS LOG ASCII STANDARD - VERSION 2.0
 WRAP              .         NO                            : ONE LINE PER DEPTH STEP
 DLM               .         SPACE                         : DELIMITING CHARACTER(SPACE TAB OR COMMA)
~Well Information
#_______________________________________________________________________________
#
#PARAMETER_NAME    .UNIT     VALUE                         : DESCRIPTION
#_______________________________________________________________________________
STRT               .M        0.2376                        : First reference value
STOP               .M        360.9684                      : Last reference value
STEP               .M        0.1524                        : Step increment
NULL               .         -9999                         : Missing value
COMP               .                                       : Company
WELL               .         E                             : Well name
FLD                .                                       : Field
LOC                .                                       : Location
CNTY               .                                       : County
STAT               .                                       : State
CTRY               .                                       : Country
SRVC               .                                       : Service Company
DATE               .                                       : Date
API                .                                       : API number
~Parameter Information Block
#_______________________________________________________________________________
#
#PARAMETER_NAME    .UNIT     VALUE                         : DESCRIPTION
#_______________________________________________________________________________
SET                .         Logs                          : 
TLFamily_DEPT      .         Measured Depth                : 
TLFamily_DT        .         Compressional Slowness        : 
TLFamily_GR        .         Gamma Ray                     : 
TLFamily_ILD       .         Resistivity - Deep            : 
TLFamily_NPOR_LIM  .         Thermal Neutron Porosity Limestone: 
TLFamily_PEF       .         Photoelectric Factor          : 
TLFamily_RHO       .         Bulk Density                  : 
~Curve Information
#_______________________________________________________________________________
#
#LOGNAME           .UNIT     LOG_ID                        : DESCRIPTION
#_______________________________________________________________________________
DEPT               .M                                      : 1 Depth Index 
DT                 .US/M                                   : 6 DELTA-T (ALSO CALLED SLOWNESS OR INTERVAL TRANSIT TIME) **MERGED** 
GR                 .GAPI                                   : 60 GAMMA RAY (F14.5) **MERGED** 
ILD                .OHMM                                   : 30 ARRAY INDUCTION ONE FOOT RESISTIVITY A90 (F14.5) **MERGED** 
NPOR_LIM           .V/V                                    : 92 ENHANCED THERMAL NEUTRON POROSITY (MATRIX LIMESTONE) (F14.5) **MERGED** 
PEF                .B/E                                    : 94 HIGH RESOLUTION FORMATION PHOTOELECTRIC FACTOR (F14.5) **MERGED** 
RHO                .K/M3                                   : 103 3 3 3 STANDARD RESOLUTION FORMATION DENSITY (F14.5) **MERGED** 
~Ascii
# ...
228.228    510.8781   88.7262    2.479899883270264 0.6168000102043152 2.7479     2129.4486 
228.3804   517.9681   92.5774    3.591700077056885 0.6277999877929688 2.7093     2138.2918 
228.5328   520.2682   94.3567    3.604899883270264 0.5950000286102295 2.6734     2147.3258 
228.6852   521.2391   94.4221    2.616899967193604 0.5400000214576721 2.7439     2148.4607 
228.8376   521.6506   94.465     2.717299938201904 0.5188000202178955 2.6974     2144.2462 
228.99     520.5477   95.642     2.621799945831299 0.5292999744415283 2.7457     2141.0594 
229.1424   522.1952   95.023     2.4514000415802 0.5745999813079834 2.7018     2140.5421 
229.2948   523.9338   93.583     2.327100038528442 0.5723999738693237 2.6891     2137.2008 
229.4472   523.1267   91.1484    2.229399919509888 0.5131999850273132 2.7208     2136.3226 
229.5996   519.5691   90.2391    2.26449990272522 0.5134999752044678 2.6338     2136.8336 
229.752    516.4242   90.373     2.504800081253052 0.5157999992370605 2.7545     2144.135  
229.9044   511.635    91.1789    2.680799961090088 0.4979999959468842 2.773      2150.2086 
230.0568   504.7946   92.4237    2.719199895858765 0.4923999905586243 2.7519     2154.9438 
230.2092   496.7247   90.4888    2.947299957275391 0.5020999908447266 2.6691     2167.5328 
230.3616   486.7911   89.7422    3.568599939346313 0.4641000032424927 2.681      2186.0076 
230.514    479.878    89.545     3.763000011444092 0.4471000134944916 2.6932     2205.1908 
230.6664   473.3955   89.4496    3.835299968719482 0.4591000080108643 2.7345     2209.8534 
230.8188   468.8318   86.4196    4.007900238037109 0.4453999996185303 2.7206     2198.1047 
230.9712   469.8448   83.3898    5.257900238037109 0.4343000054359436 2.657      2188.7618 
231.1236   463.8163   83.1281    6.776999950408936 0.4429999887943268 2.7864     2184.8819 
231.276    466.6026   83.1583    5.381700038909912 0.4388000071048737 2.749      2193.431  
231.4284   470.8918   82.2654    5.78439998626709 0.4169999957084656 2.6449     2177.984  
231.5808   466.8651   79.5723    7.594399929046631 0.377700001001358 2.8079     2166.9169 
231.7332   457.9197   77.0129    9.724100112915039 0.3578000068664551 2.8045     2170.6098 
231.8856   452.6404   73.6658    9.915900230407715 0.3680999875068665 3.1331     2204.9338 
232.038    438.7485   74.64      8.215999603271484 0.4194000065326691 2.8607     2220.9733 
232.1904   448.0783   74.3504    7.473199844360352 0.4431999921798706 2.843      2219.8195 
232.3428   454.7769   76.779     7.541399955749512 0.4352999925613403 2.7231     2206.1424 
232.4952   455.9355   74.7863    7.536399841308594 0.4347000122070313 2.725      2185.4208 
232.6476   456.2515   74.4139    7.52839994430542 0.4289000034332275 2.7584     2160.8259 
232.8      460.6668   73.664     7.550399780273438 0.4327000081539154 2.5616     2125.0242 
232.9524   461.6692   75.9926    8.069700241088867 0.4050999879837036 2.6752     2107.1983 
233.1048   463.3453   79.7744    8.996700286865234 0.426499992609024 2.9662     2121.5912 
233.2572   465.7177   78.7772    8.015299797058105 0.4320999979972839 2.926      2157.5535 
233.4096   463.2021   76.8136    7.047599792480469 0.4417000114917755 2.7663     2194.8805 
233.562    463.0893   72.8893    7.418399810791016 0.4528000056743622 2.726      2172.7239 
233.7144   462.2154   74.6646    9.083900451660156 0.4550999999046326 2.7242     2135.2405 
233.8668   468.0264   75.3324    10.33230018615723 0.4221000075340271 2.5102     2096.9779 
234.0192   492.2538   78.4454    9.051199913024902 0.4160999953746796 2.6501     2071.6285 
234.1716   511.5392   75.9573    10.89169979095459 0.3488999903202057 2.7302     2039.2196 
234.324    534.7142   75.3259    15.26019954681396 0.2637999951839447 2.796      2011.3343 
234.4764   537.8065   79.0722    18.62919998168945 0.2558000087738037 2.9981     2012.666  
234.6288   516.5612   83.9474    12.84910011291504 0.3445000052452087 2.901      2046.9775 
234.7812   490.9365   85.5444    8.574399948120117 0.4000999927520752 2.7705     2103.2146 
234.9336   466.0749   84.1263    8.444199562072754 0.4090999960899353 2.7268     2168.2732 
235.086    449.5799   83.3413    8.315099716186523 0.4517000019550323 2.7816     2214.879  
235.2384   439.6398   83.3509    9.291399955749512 0.4327000081539154 2.6326     2232.3909 
235.3908   447.2399   80.8323    10.78390026092529 0.4111999869346619 2.6119     2226.099  
235.5432   445.841    81.3544    10.94859981536865 0.4061999917030334 2.6168     2221.4779 
235.6956   444.4421   81.8766    11.11330032348633 0.401199996471405 2.6216     2216.8568 
235.848    443.3986   82.6966    11.52680015563965 0.3610000014305115 2.6062     2206.9822 
236.0004   451.561    85.627     12.24989986419678 0.3783999979496002 2.5674     2196.5926 
236.1528   454.0633   84.336     13.75580024719238 0.3644999861717224 2.5516     2191.5025 
236.3052   453.7641   83.3759    15.20100021362305 0.3445000052452087 2.5667     2206.9705 
236.4576   464.1834   79.2888    16.9960994720459 0.3407999873161316 2.9898     2217.883  
236.61     460.5668   77.5959    18.77720069885254 0.3470000028610229 3.4378     2216.5494 
236.7624   448.9276   76.5606    15.01710033416748 0.3768999874591827 2.6657     2184.2791 
236.9148   447.2536   73.5715    10.31700038909912 0.4034999907016754 2.6257     2154.7296 
237.0672   439.467    72.0477    8.928899765014648 0.4602000117301941 2.513      2116.0975 
237.2196   442.8515   70.9628    8.040900230407715 0.4720999896526337 2.66       2101.0524 
237.372    448.6257   74.3972    8.36299991607666 0.4837000072002411 2.1903     2093.8954 
237.5244   449.1765   78.1986    7.859099864959717 0.4623999893665314 2.749      2119.3013 
237.6768   450.322    82.2211    7.470499992370605 0.4158999919891357 2.9659     2148.6525 
237.8292   447.9788   85.493     7.13700008392334 0.4154999852180481 2.9915     2176.118  
237.9816   446.7478   86.6724    6.636199951171875 0.4043000042438507 2.8076     2191.811  
238.134    447.5565   86.7828    6.563899993896484 0.4014999866485596 2.7144     2188.6156 
238.2864   449.8489   88.574     6.364399909973145 0.4018999934196472 2.7386     2192.5754 
238.4388   451.2209   88.9552    6.182000160217285 0.3986000120639801 2.7166     2203.3734 
238.5912   453.1158   89.3399    5.85890007019043 0.426499992609024 2.8843     2220.9702 
238.7436   455.6274   88.2316    6.22819995880127 0.4379000067710876 2.8331     2232.2287 
238.896    454.8434   85.5932    6.438499927520752 0.4041000008583069 2.6817     2214.83   
239.0484   457.9734   85.1888    9.812399864196777 0.355100005865097 2.5283     2189.3618 
239.2008   455.4077   85.1264    9.265500068664551 0.3379000127315521 2.5138     2177.5429 
239.3532   453.2475   87.2997    7.571300029754639 0.3652999997138977 2.5541     2192.0963 
239.5056   455.5488   88.0939    7.991099834442139 0.3824000060558319 2.5498     2205.6231 
239.658    447.4349   86.1892    7.891799926757813 0.3786999881267548 2.5302     2203.8229 
239.8104   448.6989   85.349     7.629899978637695 0.3711999952793121 2.6108     2186.7567 
239.9628   453.2572   83.3532    8.366700172424316 0.3591000139713287 2.5588     2174.8403 
240.1152   451.6703   82.909     9.301699638366699 0.4027999937534332 2.6351     2176.8201 
240.2676   450.7188   81.136     9.985799789428711 0.4302000105381012 2.7195     2195.0519 
240.42     448.7089   80.13      9.308300018310547 0.4388999938964844 2.8788     2206.2599 
240.5724   452.4598   80.8864    7.833300113677979 0.4431000053882599 2.6771     2200.3134 
240.7248   452.9366   83.4028    5.946199893951416 0.455700010061264 2.7746     2186.024  
240.8772   454.9958   86.2907    5.670599937438965 0.4787000119686127 2.727      2170.8842 
241.0296   461.7794   87.5135    5.403800010681152 0.4767000079154968 2.6484     2163.5184 
241.182    464.5542   86.8682    4.678199768066406 0.4851000010967255 2.6737     2163.6309 
241.3344   472.114    83.9834    4.257699966430664 0.4848999977111816 2.689      2174.7109 
241.4868   474.0422   81.2224    3.858700037002563 0.4767999947071075 2.6172     2187.3164 
