~Version
 VERS              .         2.0                           : CWLS LOG ASCII STANDARD - VERSION 2.0
 WRAP              .         NO                            : ONE LINE PER DEPTH STEP
 DLM               .         SPACE                         : DELIMITING CHARACTER(SPACE TAB OR COMMA)
~Well Information
#_______________________________________________________________________________
#
#PARAMETER_NAME    .UNIT     VALUE                         : DESCRIPTION
#_______________________________________________________________________________
STRT               .M        0.2376                        : First reference value
STOP               .M        360.9684                      : Last reference value
STEP               .M        0.1524                        : Step increment
NULL               .         -9999                         : Missing value
COMP               .                                       : Company
WELL               .         E                             : Well name
FLD                .                                       : Field
LOC                .                                       : Location
CNTY               .                                       : County
STAT               .                                       : State
CTRY               .                                       : Country
SRVC               .                                       : Service Company
DATE               .                                       : Date
API                .                                       : API number
~Parameter Information Block
#_______________________________________________________________________________
#
#PARAMETER_NAME    .UNIT     VALUE                         : DESCRIPTION
#_______________________________________________________________________________
SET                .         Logs                          : 
TLFamily_DEPT      .         Measured Depth                : 
TLFamily_DT        .         Compressional Slowness        : 
TLFamily_GR        .         Gamma Ray                     : 
TLFamily_ILD       .         Resistivity - Deep            : 
TLFamily_NPOR_LIM  .         Thermal Neutron Porosity Limestone: 
TLFamily_PEF       .         Photoelectric Factor          : 
TLFamily_RHO       .         Bulk Density                  : 
~Curve Information
#_______________________________________________________________________________
#
#LOGNAME           .UNIT     LOG_ID                        : DESCRIPTION
#_______________________________________________________________________________
DEPT               .M                                      : 1 Depth Index 
DT                 .US/M                                   : 6 DELTA-T (ALSO CALLED SLOWNESS OR INTERVAL TRANSIT TIME) **MERGED** 
GR                 .GAPI                                   : 60 GAMMA RAY (F14.5) **MERGED** 
ILD                .OHMM                                   : 30 ARRAY INDUCTION ONE FOOT RESISTIVITY A90 (F14.5) **MERGED** 
NPOR_LIM           .V/V                                    : 92 ENHANCED THERMAL NEUTRON POROSITY (MATRIX LIMESTONE) (F14.5) **MERGED** 
PEF                .B/E                                    : 94 HIGH RESOLUTION FORMATION PHOTOELECTRIC FACTOR (F14.5) **MERGED** 
RHO                .K/M3                                   : 103 3 3 3 STANDARD RESOLUTION FORMATION DENSITY (F14.5) **MERGED** 
~Ascii
# ...
27.6696    -9999      72.8801    4.007100105285645 0.6848000288009644 9.2906     2048.75   
27.822     -9999      73.6151    4.007100105285645 0.6360999941825867 9.4028     2046.07   
27.9744    -9999      72.8196    4.007100105285645 0.6105999946594238 9.4442     2042.5057 
28.1268    -9999      70.9843    4.007100105285645 0.559499979019165 9.4944     2038.2231 
28.2792    -9999      68.1285    4.007100105285645 0.5640000104904175 9.5313     2039.0906 
28.4316    -9999      66.2571    4.007100105285645 0.6628999710083008 9.394      2048.1826 
28.584     -9999      64.2603    4.007100105285645 0.7714999914169312 9.202      2059.2864 
28.7364    -9999      64.9267    4.007100105285645 0.6958000063896179 9.0835     2064.8792 
28.8888    -9999      67.489     4.007100105285645 0.6312999725341797 9.1261     2064.1081 
29.0412    -9999      71.565     4.007100105285645 0.7164999842643738 9.2861     2062.6352 
29.1936    -9999      73.6583    4.007100105285645 0.7437999844551086 9.3283     2069.2308 
29.346     -9999      71.9874    4.007100105285645 0.6855999827384949 9.4024     2084.6559 
29.4984    -9999      69.2025    4.007100105285645 0.5940999984741211 9.4097     2101.2785 
29.6508    -9999      66.3689    4.007100105285645 0.4925000071525574 9.3499     2111.004  
29.8032    -9999      66.9017    4.007100105285645 0.4727999866008759 9.269      2109.3196 
29.9556    -9999      68.7286    4.007100105285645 0.505299985408783 9.2354     2097.6706 
30.108     -9999      68.7275    4.007100105285645 0.5523999929428101 9.2687     2086.2828 
30.2604    -9999      66.7261    4.007100105285645 0.5266000032424927 9.2784     2088.4626 
30.4128    -9999      62.9567    4.007100105285645 0.4605999886989594 9.3797     2102.9517 
30.5652    -9999      59.5637    4.007100105285645 0.4878000020980835 9.4525     2117.293  
30.7176    -9999      55.8329    4.007100105285645 0.5964999794960022 9.6067     2119.1752 
30.87      -9999      52.8913    4.007100105285645 0.6970999836921692 9.6929     2108.7868 
31.0224    -9999      53.0449    4.007100105285645 0.6462000012397766 9.588      2094.2182 
31.1748    -9999      54.467     4.007100105285645 0.5684999823570251 9.463      2084.2346 
31.3272    -9999      54.8329    4.007100105285645 0.5684000253677368 9.3792     2086.8966 
31.4796    -9999      53.0144    4.007100105285645 0.555400013923645 9.3013     2101.2763 
31.632     -9999      51.9968    4.007100105285645 0.5279999971389771 9.3012     2116.62   
31.7844    -9999      52.247     4.007100105285645 0.5476999878883362 9.33       2126.9374 
31.9368    -9999      52.5977    4.007100105285645 0.5616999864578247 9.2863     2128.5535 
32.0892    -9999      51.7418    4.007100105285645 0.5277000069618225 9.295      2126.3349 
32.2416    -9999      51.6082    4.007100105285645 0.5277000069618225 9.2944     2125.0235 
32.394     -9999      53.6018    4.007100105285645 0.5544999837875366 9.1315     2126.996  
32.5464    -9999      56.4637    4.007100105285645 0.5223000049591064 9.0535     2135.2456 
32.6988    -9999      57.6543    4.007100105285645 0.4718999862670898 9.0913     2151.8248 
32.8512    -9999      55.8792    4.007100105285645 0.4611999988555908 9.0916     2201.7266 
33.0036    -9999      51.5255    4.007100105285645 0.4763000011444092 8.9795     2279.0994 
33.156     -9999      47.4748    4.007100105285645 0.4726000130176544 9.1456     2359.2283 
33.3084    -9999      47.573     4.007100105285645 0.4945999979972839 9.2745     2374.0367 
33.4608    -9999      52.0289    4.007100105285645 0.5045999884605408 8.9136     2314.1466 
33.6132    -9999      56.6639    4.007100105285645 0.4736999869346619 8.6251     2225.9722 
33.7656    -9999      58.0343    4.007100105285645 0.441100001335144 8.7065     2162.0391 
33.918     -9999      56.9565    4.007100105285645 0.4147999882698059 8.7482     2140.9574 
34.0704    -9999      55.1778    4.007100105285645 0.4174999892711639 8.5997     2136.4591 
34.2228    -9999      54.6081    4.007100105285645 0.432200014591217 8.4896     2136.5013 
34.3752    -9999      56.6505    4.007100105285645 0.4363000094890594 8.442      2139.4043 
34.5276    -9999      60.9287    4.007100105285645 0.4415999948978424 8.4177     2148.9007 
34.68      -9999      64.5096    4.007100105285645 0.4334000051021576 8.4055     2167.0731 
34.8324    -9999      64.8497    4.007100105285645 0.4284000098705292 8.3781     2182.0439 
34.9848    -9999      63.0542    4.007100105285645 0.4611000120639801 8.4392     2182.4721 
35.1372    -9999      61.0172    4.007100105285645 0.4796000123023987 8.5113     2168.172  
35.2896    -9999      58.7322    4.007100105285645 0.4528999924659729 8.4854     2151.184  
35.442     -9999      56.234     4.007100105285645 0.4485999941825867 8.4285     2139.9286 
35.5944    -9999      54.4749    4.007100105285645 0.4891000092029572 8.5098     2131.3839 
35.7468    -9999      54.7197    4.007100105285645 0.5214999914169312 8.5256     2121.047  
35.8992    -9999      56.0506    4.007100105285645 0.5388000011444092 8.4079     2112.5905 
36.0516    -9999      56.0381    4.007100105285645 0.5677000284194946 8.4419     2109.1357 
36.204     -9999      55.465     4.007100105285645 0.5651999711990356 8.5411     2109.8406 
36.3564    -9999      55.3972    4.007100105285645 0.531499981880188 8.5851     2111.0383 
36.5088    -9999      55.0948    4.007100105285645 0.5038999915122986 8.636      2115.2755 
36.6612    -9999      53.8867    4.007100105285645 0.4587999880313873 8.6188     2121.1045 
36.8136    -9999      52.6765    4.007100105285645 0.4350999891757965 8.6102     2122.3714 
36.966     -9999      51.8925    4.007100105285645 0.4433999955654144 8.6645     2121.1961 
37.1184    -9999      51.7448    4.007100105285645 0.4657999873161316 8.6325     2113.2256 
37.2708    -9999      52.1194    4.007100105285645 0.4794999957084656 8.5359     2100.7445 
37.4232    -9999      51.9695    4.007100105285645 0.4706000089645386 8.4948     2093.325  
37.5756    -9999      51.4024    4.007100105285645 0.4790999889373779 8.526      2093.5074 
37.728     -9999      51.0871    4.007100105285645 0.4859000146389008 8.5925     2097.7683 
37.8804    -9999      51.6997    4.007100105285645 0.4535000026226044 8.6295     2102.0084 
38.0328    -9999      52.9915    4.007100105285645 0.4442000091075897 8.7086     2107.5024 
38.1852    -9999      54.0098    4.007100105285645 0.4720999896526337 8.7357     2113.7809 
38.3376    -9999      55.0062    4.007100105285645 0.5115000009536743 8.7423     2118.916  
38.49      -9999      55.4864    4.007100105285645 0.548799991607666 8.7953     2118.5125 
38.6424    -9999      55.8768    4.007100105285645 0.5644000172615051 8.8332     2115.1675 
38.7948    -9999      56.2857    4.007100105285645 0.554099977016449 8.8764     2112.4246 
38.9472    -9999      56.5836    4.007100105285645 0.531000018119812 8.9076     2109.4461 
39.0996    -9999      55.9841    4.007100105285645 0.5547999739646912 8.9338     2105.3801 
39.252     -9999      54.2945    4.007100105285645 0.5791000127792358 9.0104     2100.4346 
39.4044    -9999      52.7691    4.007100105285645 0.5268999934196472 8.9852     2097.7499 
39.5568    -9999      52.0297    4.007100105285645 0.4625000059604645 8.7901     2098.6625 
39.7092    -9999      51.5492    4.007100105285645 0.4596000015735626 8.7094     2102.2291 
39.8616    -9999      50.4819    4.007100105285645 0.491100013256073 8.8115     2108.4449 
40.014     -9999      50.0261    4.007100105285645 0.5178999900817871 8.9011     2113.2722 
40.1664    -9999      50.0278    4.007100105285645 0.517799973487854 8.9187     2114.4867 
40.3188    -9999      49.999     4.007100105285645 0.5015000104904175 8.9103     2109.8824 
40.4712    -9999      49.9075    4.007100105285645 0.4925999939441681 8.7892     2101.8454 
40.6236    -9999      50.6986    4.007100105285645 0.4729999899864197 8.6622     2092.9917 
40.776     -9999      52.0753    4.007100105285645 0.425000011920929 8.6111     2088.3106 
40.9284    -9999      52.5013    4.007199764251709 0.414000004529953 8.6128     2088.3275 
