~Version
 VERS              .         2.0                           : CWLS LOG ASCII STANDARD - VERSION 2.0
 WRAP              .         NO                            : ONE LINE PER DEPTH STEP
 DLM               .         SPACE                         : DELIMITING CHARACTER(SPACE TAB OR COMMA)
~Well Information
#_______________________________________________________________________________
#
#PARAMETER_NAME    .UNIT     VALUE                         : DESCRIPTION
#_______________________________________________________________________________
STRT               .M        0.2376                        : First reference value
STOP               .M        360.9684                      : Last reference value
STEP               .M        0.1524                        : Step increment
NULL               .         -9999                         : Missing value
COMP               .                                       : Company
WELL               .         E                             : Well name
FLD                .                                       : Field
LOC                .                                       : Location
CNTY               .                                       : County
STAT               .                                       : State
CTRY               .                                       : Country
SRVC               .                                       : Service Company
DATE               .                                       : Date
API                .                                       : API number
~Parameter Information Block
#_______________________________________________________________________________
#
#PARAMETER_NAME    .UNIT     VALUE                         : DESCRIPTION
#_______________________________________________________________________________
SET                .         Logs                          : 
TLFamily_DEPT      .         Measured Depth                : 
TLFamily_DT        .         Compressional Slowness        : 
TLFamily_GR        .         Gamma Ray                     : 
TLFamily_ILD       .         Resistivity - Deep            : 
TLFamily_NPOR_LIM  .         Thermal Neutron Porosity Limestone: 
TLFamily_PEF       .         Photoelectric Factor          : 
TLFamily_RHO       .         Bulk Density                  : 
~Curve Information
#_______________________________________________________________________________
#
#LOGNAME           .UNIT     LOG_ID                        : DESCRIPTION
#_______________________________________________________________________________
DEPT               .M                                      : 1 Depth Index 
DT                 .US/M                                   : 6 DELTA-T (ALSO CALLED SLOWNESS OR INTERVAL TRANSIT TIME) **MERGED** 
GR                 .GAPI                                   : 60 GAMMA RAY (F14.5) **MERGED** 
ILD                .OHMM                                   : 30 ARRAY INDUCTION ONE FOOT RESISTIVITY A90 (F14.5) **MERGED** 
NPOR_LIM           .V/V                                    : 92 ENHANCED THERMAL NEUTRON POROSITY (MATRIX LIMESTONE) (F14.5) **MERGED** 
PEF                .B/E                                    : 94 HIGH RESOLUTION FORMATION PHOTOELECTRIC FACTOR (F14.5) **MERGED** 
RHO                .K/M3                                   : 103 3 3 3 STANDARD RESOLUTION FORMATION DENSITY (F14.5) **MERGED** 
~Ascii
# ...
134.3496   474.5394   65.5323    19.61420059204102 0.3391999900341034 2.246      2091.4225 
134.502    479.2658   66.4887    18.39859962463379 0.3445000052452087 2.1198     2083.8854 
134.6544   478.1478   66.2453    17.64940071105957 0.3754000067710876 2.2261     2080.2316 
134.8068   477.9034   67.3577    17.37709999084473 0.4212000072002411 2.2224     2077.3294 
134.9592   478.9459   68.4336    18.48390007019043 0.4413000047206879 2.1835     2084.4677 
135.1116   474.7644   70.0185    17.00480079650879 0.4171000123023987 2.1607     2100.69   
135.264    476.0266   69.9336    17.20389938354492 0.3858999907970428 2.6041     2102.145  
135.4164   473.0273   66.7426    19.61549949645996 0.392300009727478 2.0691     2080.322  
135.5688   472.0833   63.951     20.21719932556152 0.4354000091552734 2.2846     2070.636  
135.7212   474.253    58.1928    18.55529975891113 0.4621999859809875 2.1422     2078.8755 
135.8736   470.6809   57.3171    18.30599975585938 0.426800012588501 2.0612     2094.1722 
136.026    467.1941   59.4211    19.13979911804199 0.4059000015258789 2.0466     2091.8333 
136.1784   465.8961   65.9889    18.78730010986328 0.3964999914169312 2.0967     2096.0876 
136.3308   466.0943   69.8245    17.11829948425293 0.400299996137619 2.1395     2105.9032 
136.4832   472.3193   67.9965    15.76599979400635 0.4077000021934509 2.0512     2110.5664 
136.6356   478.3932   61.3479    16.18390083312988 0.4081000089645386 1.9735     2089.3352 
136.788    484.6308   51.2802    18.24349975585938 0.3993000090122223 1.812      2060.3933 
136.9404   489.5003   42.4378    20.35400009155273 0.390500009059906 1.778      2046.5789 
137.0928   489.2609   38.1684    22.214599609375 0.3790999948978424 1.7051     2045.7124 
137.2452   487.7052   38.4878    23.27720069885254 0.3677999973297119 1.6846     2052.5167 
137.3976   483.719    41.9826    24.06259918212891 0.3851000070571899 1.6971     2042.1244 
137.55     480.9355   43.9694    23.42099952697754 0.3752000033855438 1.8087     2040.6919 
137.7024   480.8752   45.3112    23.8356990814209 0.3628000020980835 1.9363     2035.4342 
137.8548   481.0678   46.3896    23.09110069274902 0.371399998664856 1.7689     2044.0045 
138.0072   484.8203   48.7591    22.25670051574707 0.3713000118732452 1.7295     2049.0979 
138.1596   485.6221   51.6302    21.7893009185791 0.3634999990463257 1.8741     2051.957  
138.312    483.0943   54.2938    22.06509971618652 0.347900003194809 1.9069     2056.8861 
138.4644   476.9262   56.0356    20.63409996032715 0.3300000131130219 1.956      2068.1703 
138.6168   474.0642   57.6249    19.66620063781738 0.3384999930858612 1.8628     2084.0092 
138.7692   471.5716   60.3096    18.07460021972656 0.3558000028133392 1.9865     2099.5836 
138.9216   469.0487   64.6529    17.5974006652832 0.3792999982833862 2.1239     2108.4265 
139.074    472.6997   69.0543    16.61100006103516 0.3928999900817871 2.111      2114.1265 
139.2264   470.7273   68.8752    17.55290031433105 0.3939999938011169 2.1667     2108.7181 
139.3788   467.8905   66.6678    19.24990081787109 0.3943000137805939 2.0882     2106.066  
139.5312   466.171    65.225     22.47979927062988 0.3714999854564667 2.1949     2107.543  
139.6836   467.4741   65.8185    20.27280044555664 0.3693999946117401 2.2438     2110.0582 
139.836    469.1786   67.0768    18.90299987792969 0.4045999944210052 2.243      2106.694  
139.9884   469.6798   68.3265    18.12199974060059 0.4192000031471252 2.1767     2102.0222 
140.1408   467.1428   72.3058    17.36249923706055 0.4095000028610229 2.2767     2107.5379 
140.2932   465.6663   77.1066    16.24300003051758 0.38960000872612 2.2898     2114.4485 
140.4456   466.7731   78.8693    16.19300079345703 0.3691999912261963 2.307      2117.4171 
140.598    469.1704   75.6896    17.30690002441406 0.3898999989032745 2.2561     2111.684  
140.7504   469.4587   71.7486    17.55990028381348 0.4061000049114227 2.1541     2106.9509 
140.9028   469.2463   70.856     17.5767993927002 0.4063000082969666 2.1668     2103.7716 
141.0552   468.5168   73.1805    17.99830055236816 0.3989999890327454 2.144      2099.4195 
141.2076   466.7103   75.1828    16.09900093078613 0.4379000067710876 2.0907     2100.3841 
141.36     464.9148   75.8644    15.41020011901855 0.4593999981880188 2.0825     2101.9323 
141.5124   465.9375   75.9489    15.3016996383667 0.4487999975681305 1.9439     2073.3462 
141.6648   465.4574   78.3601    15.06309986114502 0.4424000084400177 2.0271     2051.7734 
141.8172   466.2606   84.1562    13.86800003051758 0.4194000065326691 1.912      2052.3412 
141.9696   462.9998   88.667     14.16469955444336 0.3659999966621399 2.4678     2119.4422 
142.122    464.7887   87.3498    14.35130023956299 0.3345000147819519 2.1648     2164.0955 
142.2744   474.6413   79.7366    15.12469959259033 0.3267999887466431 2.0031     2163.5281 
142.4268   487.3334   68.9306    16.80290031433105 0.3425999879837036 1.9467     2111.8559 
142.5792   497.7476   59.8589    20.2598991394043 0.3573000133037567 1.8693     2089.3602 
142.7316   494.1188   51.759     24.99360084533691 0.3664999902248383 1.9634     2107.6145 
142.884    485.5606   45.3142    25.36289978027344 0.3840000033378601 3.0312     2144.9132 
143.0364   481.4224   38.7323    33.19680023193359 0.369700014591217 2.5387     2144.8745 
143.1888   482.7584   35.9457    33.66849899291992 0.3019999861717224 1.7089     2124.6151 
143.3412   491.479    39.3321    29.71489906311035 0.2702000141143799 1.8254     2107.1304 
143.4936   492.0596   48.5538    26.97599983215332 0.3023999929428101 2.4502     2106.1175 
143.646    488.2423   57.0814    23.9512996673584 0.3528999984264374 1.9557     2100.4501 
143.7984   487.4193   64.3626    23.63870048522949 0.352400004863739 1.9251     2078.3621 
143.9508   468.5932   65.5693    22.68770027160645 0.376800000667572 2.0755     2091.389  
144.1032   471.2399   64.9591    19.08889961242676 0.3783999979496002 2.2387     2128.1758 
144.2556   472.8416   61.4968    19.83930015563965 0.3704999983310699 2.8334     2152.5634 
144.408    475.465    60.0287    25.79899978637695 0.3600000143051147 1.872      2104.4078 
144.5604   492.2683   59.2497    28.00200080871582 0.3601000010967255 1.8584     2048.1925 
144.7128   492.8165   61.3825    23.47190093994141 0.3494000136852264 1.9786     2043.346  
144.8652   487.589    64.1273    17.79439926147461 0.3804000020027161 1.9107     2093.6526 
145.0176   478.6809   67.6217    14.62730026245117 0.4009000062942505 2.2806     2140.1256 
145.17     473.1313   69.2306    13.68389987945557 0.3995000123977661 2.2117     2156.9444 
145.3224   470.2528   72.5597    15.57989978790283 0.3808999955654144 2.1088     2146.1216 
145.4748   448.1382   74.4076    16.38800048828125 0.4050000011920929 2.2477     2158.508  
145.6272   441.0509   71.2999    15.91460037231445 0.3865000009536743 2.2025     2187.4061 
145.7796   444.5618   68.5148    20.81069946289063 0.3474999964237213 3.4615     2231.6787 
145.932    436.0487   66.5873    18.43560028076172 0.3571999967098236 2.4114     2209.5706 
146.0844   461.2973   73.6305    16.12599945068359 0.3714999854564667 2.0744     2168.5197 
146.2368   479.1133   74.7177    16.39539909362793 0.3652999997138977 2.1388     2139.7376 
146.3892   478.9584   77.624     14.8484001159668 0.3833000063896179 2.4742     2153.4933 
146.5416   485.6499   77.6701    12.66160011291504 0.387499988079071 2.2967     2175.5194 
146.694    483.6611   83.6687    12.88020038604736 0.4119000136852264 2.3851     2178.3434 
146.8464   482.4635   86.009     14.07110023498535 0.4092999994754791 2.3031     2170.7565 
146.9988   486.242    90.8102    15.69509983062744 0.3959999978542328 2.2923     2171.1228 
147.1512   489.4509   92.8397    13.20639991760254 0.3761000037193298 2.3468     2185.3163 
147.3036   484.6785   98.5287    11.31529998779297 0.401199996471405 2.8874     2213.5808 
147.456    490.7588   101.5853   8.338299751281738 0.4199999868869781 2.7266     2226.5102 
147.6084   496.4051   103.1141   7.285900115966797 0.4271000027656555 2.7039     2224.9475 
