~Version
 VERS              .         2.0                           : CWLS LOG ASCII STANDARD - VERSION 2.0
 WRAP              .         NO                            : ONE LINE PER DEPTH STEP
 DLM               .         SPACE                         : DELIMITING CHARACTER(SPACE TAB OR COMMA)
~Well Information
#_______________________________________________________________________________
#
#PARAMETER_NAME    .UNIT     VALUE                         : DESCRIPTION
#_______________________________________________________________________________
STRT               .M        0.2376                        : First reference value
STOP               .M        360.9684                      : Last reference value
STEP               .M        0.1524                        : Step increment
NULL               .         -9999                         : Missing value
COMP               .                                       : Company
WELL               .         E                             : Well name
FLD                .                                       : Field
LOC                .                                       : Location
CNTY               .                                       : County
STAT               .                                       : State
CTRY               .                                       : Country
SRVC               .                                       : Service Company
DATE               .                                       : Date
API                .                                       : API number
~Parameter Information Block
#_______________________________________________________________________________
#
#PARAMETER_NAME    .UNIT     VALUE                         : DESCRIPTION
#_______________________________________________________________________________
SET                .         Logs                          : 
TLFamily_DEPT      .         Measured Depth                : 
TLFamily_DT        .         Compressional Slowness        : 
TLFamily_GR        .         Gamma Ray                     : 
TLFamily_ILD       .         Resistivity - Deep            : 
TLFamily_NPOR_LIM  .         Thermal Neutron Porosity Limestone: 
TLFamily_PEF       .         Photoelectric Factor          : 
TLFamily_RHO       .         Bulk Density                  : 
~Curve Information
#_______________________________________________________________________________
#
#LOGNAME           .UNIT     LOG_ID                        : DESCRIPTION
#_______________________________________________________________________________
DEPT               .M                                      : 1 Depth Index 
DT                 .US/M                                   : 6 DELTA-T (ALSO CALLED SLOWNESS OR INTERVAL TRANSIT TIME) **MERGED** 
GR                 .GAPI                                   : 60 GAMMA RAY (F14.5) **MERGED** 
ILD                .OHMM                                   : 30 ARRAY INDUCTION ONE FOOT RESISTIVITY A90 (F14.5) **MERGED** 
NPOR_LIM           .V/V                                    : 92 ENHANCED THERMAL NEUTRON POROSITY (MATRIX LIMESTONE) (F14.5) **MERGED** 
PEF                .B/E                                    : 94 HIGH RESOLUTION FORMATION PHOTOELECTRIC FACTOR (F14.5) **MERGED** 
RHO                .K/M3                                   : 103 3 3 3 STANDARD RESOLUTION FORMATION DENSITY (F14.5) **MERGED** 
~Ascii
# ...
214.8168   436.3159   59.431     18.11580085754395 0.3657999932765961 2.3861     2102.6182 
214.9692   437.0429   58.4784    16.97859954833984 0.362500011920929 2.3923     2098.7945 
215.1216   436.9243   60.582     14.05379962921143 0.3725999891757965 2.408      2089.2048 
215.274    439.2773   63.0601    13.26179981231689 0.3903000056743622 2.448      2082.6949 
215.4264   436.7498   63.3623    15.6786003112793 0.3991000056266785 2.3178     2079.6933 
215.5788   435.1008   61.041     15.96609973907471 0.4111999869346619 2.2575     2085.7099 
215.7312   435.327    58.0867    16.34519958496094 0.4223000109195709 2.2393     2084.2659 
215.8836   435.2963   57.3484    17.10950088500977 0.4338000118732452 2.2584     2080.5089 
216.036    436.584    55.2586    17.0049991607666 0.4291999936103821 2.4027     2077.2548 
216.1884   436.5409   53.7827    17.1643009185791 0.4550000131130219 2.3474     2081.5345 
216.3408   437.4648   52.7679    17.29640007019043 0.460999995470047 2.3124     2083.5014 
216.4932   438.3646   52.9829    16.42729949951172 0.4370000064373016 2.3174     2080.5818 
216.6456   438.6199   53.8265    16.05220031738281 0.4259999990463257 2.2869     2082.8036 
216.798    439.5715   53.5922    15.56960010528564 0.4334999918937683 2.3247     2086.378  
216.9504   439.5101   54.8303    15.59510040283203 0.4359999895095825 2.2381     2087.8089 
217.1028   438.855    56.205     16.24150085449219 0.4235999882221222 2.2722     2084.2448 
217.2552   438.8224   58.0182    16.35370063781738 0.4250999987125397 2.2335     2081.7699 
217.4076   437.7794   59.3116    16.31229972839355 0.4207000136375427 2.3178     2079.0918 
217.56     438.126    62.321     15.88259983062744 0.4032000005245209 2.3394     2075.7276 
217.7124   438.3919   64.3971    15.26879978179932 0.3824999928474426 2.4936     2078.1384 
217.8648   438.7252   64.1451    14.10439968109131 0.3959999978542328 2.6492     2085.3053 
218.0172   441.567    62.1062    14.5673999786377 0.3695000112056732 2.4532     2086.474  
218.1696   441.7906   60.0115    15.3863000869751 0.362199991941452 2.4309     2076.5801 
218.322    440.6578   59.3024    14.50609970092773 0.3704000115394592 2.3706     2068.4161 
218.4744   438.2637   58.0758    14.50969982147217 0.3743000030517578 2.4392     2067.974  
218.6268   438.0852   58.395     14.57439994812012 0.3892999887466431 2.4174     2073.715  
218.7792   440.8312   59.5972    13.82569980621338 0.4271000027656555 2.4504     2078.7404 
218.9316   442.3579   62.8806    12.73779964447021 0.441100001335144 2.3642     2093.9308 
219.084    433.4893   62.4802    9.917300224304199 0.4442000091075897 2.4786     2129.8321 
219.2364   417.2535   61.4965    10.20860004425049 0.4289000034332275 3.2354     2192.8069 
219.3888   399.5176   56.2526    16.28919982910156 0.3786999881267548 3.8186     2245.324  
219.5412   402.9648   53.5114    20.20210075378418 0.3668000102043152 3.5621     2240.6775 
219.6936   414.1072   53.132     17.79759979248047 0.4219000041484833 3.8057     2174.8043 
219.846    430.2527   55.9363    14.31910037994385 0.4587000012397766 2.4168     2100.1875 
219.9984   444.0144   58.8707    16.77239990234375 0.4262000024318695 2.3888     2061.9632 
220.1508   441.665    58.3318    18.70750045776367 0.387499988079071 2.3513     2058.8268 
220.3032   441.248    58.0361    18.4862003326416 0.3975000083446503 2.4331     2062.2955 
220.4556   441.2556   57.6862    18.86520004272461 0.4063000082969666 2.3386     2064.4483 
220.608    440.8192   58.0481    19.47380065917969 0.3882000148296356 2.4237     2061.0232 
220.7604   441.144    57.8452    18.87280082702637 0.424699991941452 2.4042     2058.0531 
220.9128   441.0025   58.1765    18.57080078125 0.4309000074863434 2.3823     2059.2341 
221.0652   440.8609   58.5078    18.26889991760254 0.4370999932289124 2.3604     2060.415  
221.2176   438.5011   59.5711    17.8253002166748 0.4271999895572662 2.3181     2067.3244 
221.37     436.5814   58.7127    17.87080001831055 0.4194999933242798 2.3014     2074.1623 
221.5224   433.8492   57.4319    16.82320022583008 0.4226999878883362 2.2863     2084.3021 
221.6748   431.8653   56.1573    17.73480033874512 0.4275000095367432 2.348      2091.1766 
221.8272   429.58     57.2311    18.09910011291504 0.4009999930858612 2.3302     2097.8049 
221.9796   428.5885   57.6949    18.01300048828125 0.4180000126361847 2.3343     2102.5751 
222.132    430.3547   59.1068    17.92840003967285 0.4108000099658966 2.4464     2108.5697 
222.2844   432.4947   61.3125    18.1560001373291 0.3700000047683716 2.3785     2113.5024 
222.4368   436.7342   64.2403    18.22509956359863 0.3666000068187714 2.4815     2107.5746 
222.5892   441.1688   65.2733    14.85980033874512 0.4054999947547913 2.4388     2100.0503 
222.7416   444.1289   66.2574    15.18420028686523 0.4025999903678894 2.3695     2094.1335 
222.894    446.5845   66.1017    14.23169994354248 0.3925000131130219 2.3581     2092.268  
223.0464   448.0661   66.7049    13.35569953918457 0.4194999933242798 2.4796     2093.5291 
223.1988   446.6315   66.9742    12.09689998626709 0.4420000016689301 2.5828     2092.9706 
223.3512   450.1028   65.8735    13.28719997406006 0.4397999942302704 2.4915     2098.6968 
223.5036   456.6383   68.1552    13.15120029449463 0.4300000071525574 2.5085     2102.0841 
223.656    456.1814   69.012     7.56790018081665 0.4354000091552734 2.6578     2111.6731 
223.8084   460.2893   71.7716    7.452400207519531 0.4354999959468842 2.6413     2117.3042 
223.9608   459.991    71.3348    7.031300067901611 0.4305999875068665 2.6149     2132.7413 
224.1132   460.0638   72.4932    6.440599918365479 0.4070999920368195 2.5881     2157.9767 
224.2656   459.6357   75.8417    4.980899810791016 0.4101000130176544 2.828      2189.7692 
224.418    461.4427   79.8402    4.754899978637695 0.4289999902248383 2.903      2212.5511 
224.5704   462.6154   82.0577    4.785200119018555 0.4289999902248383 2.8824     2217.8997 
224.7228   461.3885   83.8886    5.140200138092041 0.445499986410141 2.8376     2213.0872 
224.8752   465.0344   83.1272    5.354300022125244 0.4492999911308289 2.7751     2202.5279 
225.0276   468.2466   81.5423    5.076799869537354 0.4239999949932098 2.7499     2192.7491 
225.18     475.7386   78.9356    5.038599967956543 0.425900012254715 2.6948     2175.1764 
225.3324   482.486    77.9374    4.526400089263916 0.434799998998642 2.6746     2164.1449 
225.4848   492.164    78.5712    4.195300102233887 0.4620999991893768 2.8107     2157.914  
225.6372   497.5835   79.283     3.943700075149536 0.4884999990463257 2.8003     2164.1295 
225.7896   502.1063   80.788     3.741100072860718 0.5170999765396118 2.6384     2172.0347 
225.942    503.7643   82.5166    3.771899938583374 0.5189999938011169 2.6817     2168.031  
226.0944   502.5038   82.5053    3.778700113296509 0.5041999816894531 2.7505     2161.5792 
226.2468   503.777    81.8162    3.820499897003174 0.5368999838829041 2.8086     2151.8303 
226.3992   503.1087   80.7658    3.673799991607666 0.5281000137329102 2.7564     2149.8585 
226.5516   498.9434   79.2716    3.918800115585327 0.4801999926567078 2.7729     2145.3272 
226.704    487.8797   75.623     5.051700115203857 0.4954999983310699 2.7219     2132.5428 
226.8564   476.4762   71.7899    6.182400226593018 0.5092999935150146 2.5967     2119.5292 
227.0088   474.6574   70.7136    6.382999897003174 0.4932999908924103 2.6539     2112.1729 
227.1612   477.3662   72.125     4.716599941253662 0.5436000227928162 3.0136     2116.8795 
227.3136   491.745    74.4974    4.142399787902832 0.6014999747276306 2.9954     2129.4397 
227.466    491.0412   76.7912    4.609499931335449 0.5638999938964844 3.0316     2139.4319 
227.6184   492.7544   79.3473    4.56659984588623 0.5461999773979187 2.82       2140.8826 
227.7708   495.5418   81.3915    4.98199987411499 0.5713000297546387 2.6911     2134.0003 
227.9232   500.3913   82.7045    4.297999858856201 0.5723999738693237 2.6347     2127.0616 
228.0756   505.8867   85.0695    2.327100038528442 0.5920000076293945 2.6753     2124.3156 
