~Version
 VERS              .         2.0                           : CWLS LOG ASCII STANDARD - VERSION 2.0
 WRAP              .         NO                            : ONE LINE PER DEPTH STEP
 DLM               .         SPACE                         : DELIMITING CHARACTER(SPACE TAB OR COMMA)
~Well Information
#_______________________________________________________________________________
#
#PARAMETER_NAME    .UNIT     VALUE                         : DESCRIPTION
#_______________________________________________________________________________
STRT               .M        0.2376                        : First reference value
STOP               .M        360.9684                      : Last reference value
STEP               .M        0.1524                        : Step increment
NULL               .         -9999                         : Missing value
COMP               .                                       : Company
WELL               .         E                             : Well name
FLD                .                                       : Field
LOC                .                                       : Location
CNTY               .                                       : County
STAT               .                                       : State
CTRY               .                                       : Country
SRVC               .                                       : Service Company
DATE               .                                       : Date
API                .                                       : API number
~Parameter Information Block
#_______________________________________________________________________________
#
#PARAMETER_NAME    .UNIT     VALUE                         : DESCRIPTION
#_______________________________________________________________________________
SET                .         Logs                          : 
TLFamily_DEPT      .         Measured Depth                : 
TLFamily_DT        .         Compressional Slowness        : 
TLFamily_GR        .         Gamma Ray                     : 
TLFamily_ILD       .         Resistivity - Deep            : 
TLFamily_NPOR_LIM  .         Thermal Neutron Porosity Limestone: 
TLFamily_PEF       .         Photoelectric Factor          : 
TLFamily_RHO       .         Bulk Density                  : 
~Curve Information
#_______________________________________________________________________________
#
#LOGNAME           .UNIT     LOG_ID                        : DESCRIPTION
#_______________________________________________________________________________
DEPT               .M                                      : 1 Depth Index 
DT                 .US/M                                   : 6 DELTA-T (ALSO CALLED SLOWNESS OR INTERVAL TRANSIT TIME) **MERGED** 
GR                 .GAPI                                   : 60 GAMMA RAY (F14.5) **MERGED** 
ILD                .OHMM                                   : 30 ARRAY INDUCTION ONE FOOT RESISTIVITY A90 (F14.5) **MERGED** 
NPOR_LIM           .V/V                                    : 92 ENHANCED THERMAL NEUTRON POROSITY (MATRIX LIMESTONE) (F14.5) **MERGED** 
PEF                .B/E                                    : 94 HIGH RESOLUTION FORMATION PHOTOELECTRIC FACTOR (F14.5) **MERGED** 
RHO                .K/M3                                   : 103 3 3 3 STANDARD RESOLUTION FORMATION DENSITY (F14.5) **MERGED** 
~Ascii
# ...
350.91     268.0881   57.2939    22.246     -9999      4.2355     2580.9245 
351.0624   268.0852   57.2939    22.4276    -9999      4.2147     2579.6658 
351.2148   268.0852   57.2939    20.3398    -9999      4.0441     2562.8175 
351.3672   268.0852   57.2939    18.6798    -9999      4.1041     2545.7996 
351.5196   268.0852   57.2939    21.452     -9999      4.2339     2546.003  
351.672    268.0852   57.2939    18.7705    -9999      4.2063     2553.5265 
351.8244   268.0852   57.2939    20.0234    -9999      4.012      2547.0926 
351.9768   268.0852   57.2939    21.758     -9999      3.9323     2534.2822 
352.1292   268.0852   57.2939    22.5693    -9999      3.856      2538.1789 
352.2816   268.0852   57.2939    22.7432    -9999      4.0533     2556.9084 
352.434    268.0852   57.2939    23.4801    -9999      4.0621     2570.9196 
352.5864   268.0852   57.2939    22.9037    -9999      4.0735     2572.8409 
352.7388   268.0852   57.2939    22.6329    -9999      4.1376     2576.8787 
352.8912   268.0852   57.2939    23.0972    -9999      4.1049     2577.119  
353.0436   268.0852   57.2939    23.5615    -9999      4.0722     2577.3592 
353.196    268.0852   57.2939    24.2125    -9999      4.1284     2575.7193 
353.3484   268.0852   57.2939    26.7379    -9999      3.9434     2575.2935 
353.5008   268.0852   57.2939    21.1633    -9999      3.9951     2574.4647 
353.6532   268.0852   57.2939    12.1449    -9999      4.0551     2573.4712 
353.8056   268.0852   57.2939    17.8949    -9999      3.9926     2568.8711 
353.958    268.0852   57.2939    14.3812    -9999      -9999      -9999     
354.1104   268.0852   57.2939    18.9082    -9999      -9999      -9999     
354.2628   268.0852   57.2939    16.658     -9999      -9999      -9999     
354.4152   268.0852   57.2939    9.009399999999999 -9999      -9999      -9999     
354.5676   268.0852   57.2939    10.1304    -9999      -9999      -9999     
354.72     268.0852   57.2939    10.1015    -9999      -9999      -9999     
354.8724   268.0852   57.2939    15.1394    -9999      -9999      -9999     
355.0248   268.0852   57.2939    16.6432    -9999      -9999      -9999     
355.1772   268.0852   57.2939    12.74      -9999      -9999      -9999     
355.3296   268.0852   57.2939    10.4972    -9999      -9999      -9999     
355.482    268.0852   57.2939    8.585800000000001 -9999      -9999      -9999     
355.6344   268.0852   57.2939    8.7539     -9999      -9999      -9999     
355.7868   268.0852   57.2939    8.445      -9999      -9999      -9999     
355.9392   268.0852   57.2939    9.201499999999999 -9999      -9999      -9999     
356.0916   268.0852   57.2939    14.8631    -9999      -9999      -9999     
356.244    268.0852   57.2939    29.6393    -9999      -9999      -9999     
356.3964   268.0852   57.2939    57.252     -9999      -9999      -9999     
356.5488   268.0852   57.2939    71.3439    -9999      -9999      -9999     
356.7012   268.0852   57.2939    70.1527    -9999      -9999      -9999     
356.8536   268.0852   57.2939    79.1358    -9999      -9999      -9999     
357.006    268.0852   57.2939    105.7674   -9999      -9999      -9999     
357.1584   268.0852   57.2939    174.02     -9999      -9999      -9999     
357.3108   268.0852   57.2939    340.0455   -9999      -9999      -9999     
357.4632   268.0852   57.2939    736.2625   -9999      -9999      -9999     
357.6156   268.0852   57.2939    1392.2973  -9999      -9999      -9999     
357.768    268.0852   57.2939    1868.0036  -9999      -9999      -9999     
357.9204   268.0852   57.2939    1836.8644  -9999      -9999      -9999     
358.0728   268.0852   57.2939    1310.4227  -9999      -9999      -9999     
358.2252   268.0852   57.2939    701.1253   -9999      -9999      -9999     
358.3776   268.0852   57.2939    356.8367   -9999      -9999      -9999     
358.53     268.0852   57.2939    -44234.9859 -9999      -9999      -9999     
358.6824   268.0852   57.2939    -9999      -9999      -9999      -9999     
358.8348   268.0852   57.2939    -9999      -9999      -9999      -9999     
358.9872   268.0852   57.2939    -9999      -9999      -9999      -9999     
359.1396   268.0852   57.2939    -9999      -9999      -9999      -9999     
359.292    268.0852   57.2939    -9999      -9999      -9999      -9999     
359.4444   268.0852   57.2939    -9999      -9999      -9999      -9999     
359.5968   268.0852   57.2939    -9999      -9999      -9999      -9999     
359.7492   268.0852   57.2939    -9999      -9999      -9999      -9999     
359.9016   268.0852   57.2939    -9999      -9999      -9999      -9999     
360.054    268.0852   57.2939    -9999      -9999      -9999      -9999     
360.2064   268.088    57.2939    -9999      -9999      -9999      -9999     
360.3588   -9999      57.2939    -9999      -9999      -9999      -9999     
360.5112   -9999      57.2939    -9999      -9999      -9999      -9999     
360.6636   -9999      57.2939    -9999      -9999      -9999      -9999     
360.816    -9999      57.2939    -9999      -9999      -9999      -9999     
360.9684   -9999      57.2939    -9999      -9999      -9999      -9999     
