~Version
 VERS              .         2.0                           : CWLS LOG ASCII STANDARD - VERSION 2.0
 WRAP              .         NO                            : ONE LINE PER DEPTH STEP
 DLM               .         SPACE                         : DELIMITING CHARACTER(SPACE TAB OR COMMA)
~Well Information
#_______________________________________________________________________________
#
#PARAMETER_NAME    .UNIT     VALUE                         : DESCRIPTION
#_______________________________________________________________________________
STRT               .m        69.1895999999999              : First reference value
STOP               .m        290.9316                      : Last reference value
STEP               .m        0.1524                        : Step increment
NULL               .         -9999                         : Missing value
COMP               .                                       : Company
WELL               .         F                             : Well name
FLD                .                                       : Field
LOC                .                                       : Location
CNTY               .                                       : County
STAT               .                                       : State
CTRY               .                                       : Country
SRVC               .                                       : Service Company
DATE               .                                       : Date
API                .                                       : API number
~Parameter Information Block
#_______________________________________________________________________________
#
#PARAMETER_NAME    .UNIT     VALUE                         : DESCRIPTION
#_______________________________________________________________________________
SET                .         Inclination                   : 
TLFamily_C13       .         Caliper 1                     : 
TLFamily_C24       .         Caliper 2                     : 
TLFamily_DEVI      .         Hole Deviation                : 
TLFamily_GR        .         Gamma Ray                     : 
TLFamily_HAZI      .         Hole Azimuth                  : 
TLFamily_MD        .         Measured Depth                : 
TLFamily_P1AZ      .         Pad A Azimuth                 : 
TLFamily_RB        .         Relative Bearing              : 
~Curve Information
#_______________________________________________________________________________
#
#LOGNAME           .UNIT     LOG_ID                        : DESCRIPTION
#_______________________________________________________________________________
MD                 .m                                      :  
C13                .mm                                     : Caliper 1-3 
C24                .mm                                     : Caliper 2-4 
DEVI               .deg                                    : Deviation 
GR                 .gAPI                                   : Gamma Ray 
HAZI               .deg                                    : Hole Azimuth 
P1AZ               .deg                                    : Pad 1 Azimuth 
RB                 .deg                                    : Relative Bearing 
~Ascii
# ...
237.5915999999999 164.2093   165.2447   0.5135193  47.85513   301.6096   351.2785   49.66888  
237.7439999999999 164.2093   167.317    0.5293579  57.77302   301.6732   351.3286   49.65536  
237.8963999999999 165.5986   167.6623   0.5440979  65.77      302.4073   350.0016   47.5943   
238.0487999999999 164.2093   164.8993   0.5530701  68.90691   303.0931   349.2118   46.11868  
238.2011999999999 164.2093   164.5539   0.5623779  73.11716   304.462    348.5151   44.0531   
238.3535999999999 166.988    167.317    0.5694885  74.19576   305.744    350.0554   44.31137  
238.5059999999999 161.778    164.8993   0.5735779  75.41206   307.198    351.5301   44.33209  
238.6583999999999 164.2093   164.8993   0.574585   71.76311   308.9389   352.067    43.12802  
238.8107999999999 163.1673   164.8993   0.5734863  69.70476   310.2264   351.731    41.50467  
238.9631999999999 164.2093   165.2447   0.5704041  64.93294   311.78     350.5121   38.73209  
239.1155999999999 164.2093   165.5901   0.5648804  61.19039   313.1501   350.1187   36.96863  
239.2679999999999 164.2093   167.6623   0.5591125  59.41269   314.3716   350.6111   36.2395   
239.4203999999999 167.6826   168.3531   0.5545654  59.78706   315.3643   350.7351   35.37085  
239.5727999999999 163.1673   166.2808   0.5503845  60.09523   315.9364   350.7515   34.81503  
239.7251999999999 161.4306   165.5901   0.5470581  57.84974   316.646    351.3527   34.70663  
239.8775999999999 162.82     165.9354   0.5452881  56.25903   317.2567   350.8296   33.57291  
240.0299999999999 164.2093   166.9716   0.5455933  57.16719   317.7585   349.8555   32.09705  
240.1823999999999 161.4306   165.2447   0.5433044  62.12595   318.3552   349.1449   30.78976  
240.3347999999999 164.2093   165.5901   0.5447083  64.46515   318.5402   348.6441   30.10394  
240.4871999999999 164.2093   167.6623   0.5415039  67.55274   318.6399   348.9663   30.32642  
240.6395999999999 164.2093   165.2447   0.5390625  66.71082   318.2562   349.5332   31.27704  
240.7919999999999 162.82     164.8993   0.537384   65.30725   317.9472   349.395    31.44778  
240.9443999999999 163.1673   164.8993   0.5355225  56.32522   317.1455   349.5331   32.38757  
241.0967999999999 161.4306   164.2085   0.5328369  49.6821    315.601    350.4273   34.82632  
241.2491999999999 162.1253   164.8993   0.5344543  43.03915   314.8145   350.7393   35.92474  
241.4015999999999 164.2093   165.5901   0.5376892  42.57114   313.3587   350.577    37.21829  
241.5539999999999 164.2093   168.3531   0.5463867  39.10939   312.647    350.3798   37.73276  
241.7063999999999 165.2513   167.6623   0.5574036  39.95147   312.3682   350.0121   37.64389  
241.8587999999999 164.5567   167.6623   0.5676575  38.26747   312.094    349.1894   37.09537  
242.0111999999999 164.2093   168.0077   0.5762939  39.39009   312.746    349.3419   36.59595  
242.1635999999999 164.904    169.3892   0.5799866  45.93959   313.5655   350.0298   36.46429  
242.3159999999999 164.2093   168.0077   0.582428   57.44786   314.8298   350.9456   36.11575  
242.4683999999999 164.2093   165.5901   0.5804749  69.33051   316.3289   352.2144   35.88553  
242.6207999999999 161.4306   164.8993   0.5744629  71.48235   317.4244   353.5606   36.1362   
242.7731999999999 161.4306   165.5901   0.5662231  68.86253   318.2179   353.8313   35.61337  
242.9255999999999 162.1253   165.5901   0.5621643  64.57515   318.5737   354.2848   35.71106  
243.0779999999999 162.1253   164.8993   0.5579834  63.45247   318.8527   355.6805   36.82782  
243.2303999999999 164.2093   165.5901   0.5603638  66.44666   318.8731   357.0032   38.13016  
243.3827999999999 164.2093   168.3531   0.5679321  68.39493   318.6612   358.1728   39.51166  
243.5351999999999 164.2093   165.2447   0.5800171  71.01453   318.378    359.3255   40.94754  
243.6875999999999 164.2093   164.8993   0.5901794  69.98527   318.5736   358.754    40.18039  
243.8399999999999 163.1673   163.8632   0.6075439  70.73383   318.7184   359.219    40.50055  
243.9923999999999 162.82     165.2447   0.6238098  68.76908   319.3044   0.1074219  40.80307  
244.1447999999999 161.4306   165.9354   0.6369934  69.42399   320.1791   1.221161   41.04202  
244.2971999999999 161.4306   165.5901   0.646698   67.92685   321.2314   1.646484   40.4151   
244.4495999999999 162.1253   165.5901   0.6517334  65.68145   322.2172   1.088165   38.87091  
244.6019999999999 161.4306   164.2085   0.6513977  55.10873   323.0972   2.056244   38.95905  
244.7543999999999 164.2093   164.8993   0.6487732  45.56528   323.8022   2.915802   39.11362  
244.9067999999999 164.2093   165.9354   0.6408386  38.4544    324.5317   3.489105   38.95737  
245.0591999999999 164.2093   165.9354   0.6312866  39.95152   325.1017   3.42453    38.32278  
245.2115999999999 164.2093   164.8993   0.6200256  40.79371   325.3503   2.920044   37.56973  
245.3639999999999 164.2093   165.5901   0.6080322  37.42541   325.5316   2.365082   36.83344  
245.5163999999999 164.2093   165.5901   0.5979919  35.08625   325.5698   1.654602   36.08478  
245.6687999999999 164.2093   166.2808   0.5907593  33.96347   325.4896   1.251404   35.76187  
245.8211999999999 164.2093   166.2808   0.5852966  39.01596   325.3417   1.392334   36.05063  
245.9735999999999 164.2093   163.1724   0.5830994  41.30547   325.1772   1.78302    36.60583  
246.1259999999999 164.2093   167.6623   0.5809326  42.98952   325.0127   2.173706   37.16104  
246.2783999999999 163.862    167.6623   0.5794067  41.58604   324.5127   4.439667   39.92697  
246.4307999999999 164.2093   167.6623   0.5779114  40.34769   324.0107   5.982025   41.97134  
246.5831999999999 164.2093   167.6623   0.5769958  39.1094    323.5235   6.455017   42.93149  
246.7355999999999 164.2093   167.6623   0.5782166  40.32582   322.677    6.605194   43.92822  
246.8879999999999 166.2933   168.3531   0.5782471  48.73179   321.9975   6.534912   44.53741  
247.0403999999999 160.0413   162.8271   0.5801697  60.89498   321.1543   5.525085   44.37079  
247.1927999999999 159.3466   162.8271   0.5821533  72.59039   320.4116   5.352356   44.9408   
247.3451999999999 159.3466   160.064    0.5826721  83.8327    319.6498   5.170624   45.52078  
247.4975999999999 159.3466   161.7909   0.5841064  91.96796   319.1545   4.839905   45.68542  
247.6499999999999 160.0413   162.8271   0.5849304  99.82705   318.9341   4.626617   45.69254  
247.8023999999999 160.0413   162.8271   0.5872803  96.83302   318.7899   3.591156   44.80121  
247.9547999999999 160.0413   162.8271   0.5892029  101.9837   318.6654   3.069092   44.40369  
248.1071999999999 160.0413   162.1363   0.5922852  102.639    318.8574   2.336334   43.47891  
248.2595999999999 159.3466   162.1363   0.5952148  105.0714   319.1403   1.874481   42.73416  
248.4119999999999 160.0413   162.4817   0.6011047  102.3583   319.5611   2.007721   42.44662  
248.5643999999999 159.3466   162.4817   0.6039124  99.36416   319.6932   1.065826   41.37265  
248.7167999999999 159.3466   161.4455   0.6083679  100.2066   320.0257   0.2613831  40.23572  
248.8691999999999 159.3466   162.1363   0.6113892  100.6744   320.3606   0.02706909 39.66647  
249.0215999999999 159.3466   162.8271   0.6116028  102.7326   320.4782   359.7194   39.24118  
249.1739999999999 160.0413   162.8271   0.6104736  102.4521   320.3726   359.5753   39.2027   
249.3263999999999 160.0413   162.8271   0.6064758  103.2005   320.2308   0.1846008  39.9538   
249.4787999999999 159.694    161.7909   0.6013794  105.3524   320.0203   359.7374   39.71704  
249.6311999999999 160.0413   162.8271   0.5973206  106.662    319.6297   359.8191   40.18939  
249.7835999999999 159.3466   162.1363   0.5950623  103.2003   318.9898   359.769    40.77914  
249.9359999999999 159.3466   162.1363   0.5932922  98.0543    318.7056   359.9296   41.22397  
250.0883999999999 159.3466   162.8271   0.5941772  97.49299   317.9624   1.018921   43.05655  
250.2407999999999 158.9993   161.7909   0.5960388  96.32591   317.3476   1.00589    43.65829  
250.3931999999999 159.3466   162.1363   0.6012268  95.57754   316.971    1.653076   44.68207  
