~Version
 VERS              .         2.0                           : CWLS LOG ASCII STANDARD - VERSION 2.0
 WRAP              .         NO                            : ONE LINE PER DEPTH STEP
 DLM               .         SPACE                         : DELIMITING CHARACTER(SPACE TAB OR COMMA)
~Well Information
#_______________________________________________________________________________
#
#PARAMETER_NAME    .UNIT     VALUE                         : DESCRIPTION
#_______________________________________________________________________________
STRT               .m        69.1895999999999              : First reference value
STOP               .m        290.9316                      : Last reference value
STEP               .m        0.1524                        : Step increment
NULL               .         -9999                         : Missing value
COMP               .                                       : Company
WELL               .         F                             : Well name
FLD                .                                       : Field
LOC                .                                       : Location
CNTY               .                                       : County
STAT               .                                       : State
CTRY               .                                       : Country
SRVC               .                                       : Service Company
DATE               .                                       : Date
API                .                                       : API number
~Parameter Information Block
#_______________________________________________________________________________
#
#PARAMETER_NAME    .UNIT     VALUE                         : DESCRIPTION
#_______________________________________________________________________________
SET                .         Inclination                   : 
TLFamily_C13       .         Caliper 1                     : 
TLFamily_C24       .         Caliper 2                     : 
TLFamily_DEVI      .         Hole Deviation                : 
TLFamily_GR        .         Gamma Ray                     : 
TLFamily_HAZI      .         Hole Azimuth                  : 
TLFamily_MD        .         Measured Depth                : 
TLFamily_P1AZ      .         Pad A Azimuth                 : 
TLFamily_RB        .         Relative Bearing              : 
~Curve Information
#_______________________________________________________________________________
#
#LOGNAME           .UNIT     LOG_ID                        : DESCRIPTION
#_______________________________________________________________________________
MD                 .m                                      :  
C13                .mm                                     : Caliper 1-3 
C24                .mm                                     : Caliper 2-4 
DEVI               .deg                                    : Deviation 
GR                 .gAPI                                   : Gamma Ray 
HAZI               .deg                                    : Hole Azimuth 
P1AZ               .deg                                    : Pad 1 Azimuth 
RB                 .deg                                    : Relative Bearing 
~Ascii
# ...
108.0515999999999 158.652    162.4817   0.1865234  57.21138   297.9992   128.6617   190.6625  
108.2039999999999 158.652    163.1724   0.1890564  59.74303   298.4211   129.2192   190.7981  
108.3563999999999 158.652    164.2086   0.1919861  60.72812   298.7916   129.6538   190.8622  
108.5087999999999 158.652    163.1724   0.1936035  60.72807   299.3638   128.6406   189.2768  
108.6611999999999 158.9993   162.8271   0.1932983  61.81791   299.8686   128.1317   188.2631  
108.8135999999999 159.3466   162.8271   0.1906433  61.53715   299.8894   128.8666   188.9772  
108.9659999999999 159.3466   162.8271   0.1855774  59.0111    299.7256   130.3136   190.588   
109.1183999999999 160.736    162.8271   0.1786194  51.18473   299.3615   130.3115   190.95    
109.2707999999999 160.3886   167.6623   0.1721497  45.66452   299.1064   130.6516   191.5452  
109.4231999999999 159.3466   164.8993   0.1656799  39.67628   298.1889   131.5478   193.3589  
109.5755999999999 161.0833   164.8993   0.1599121  35.64769   298.1294   133.4097   195.2803  
109.7279999999999 161.4306   163.1724   0.1524353  32.63721   298.193    134.238    196.045   
109.8803999999999 160.0413   164.2086   0.148468   33.38563   298.0177   136.4731   198.4555  
110.0327999999999 160.736    164.8993   0.1457214  34.22761   298.7437   136.2318   197.4881  
110.1851999999999 160.736    164.8993   0.1451721  36.10979   299.8491   135.737    195.8879  
110.3375999999999 160.736    165.2447   0.1466064  37.04551   302.0473   136.3017   194.2544  
110.4899999999999 161.0833   166.2808   0.1440125  41.34933   304.2019   137.2309   193.0291  
110.6423999999999 160.0413   164.8993   0.1434021  43.72709   307.8588   137.5608   189.7019  
110.7947999999999 161.4306   165.9354   0.1414795  45.59849   311.5515   137.9165   186.365   
110.9471999999999 161.0833   164.8993   0.1411743  45.31784   315.6271   139.2693   183.6422  
111.0995999999999 161.4306   164.2086   0.1416016  44.92152   318.9421   139.7726   180.8305  
111.2519999999999 161.4306   164.8993   0.1442261  43.70506   322.6764   138.5682   175.8918  
111.4043999999999 161.4306   164.8993   0.1480713  45.93954   326.3578   137.6361   171.2783  
111.5567999999999 161.4306   164.8993   0.1506653  43.87018   328.9483   137.5058   168.5575  
111.7091999999999 161.4306   165.2447   0.1569519  44.43155   332.0187   137.6266   165.6078  
111.8615999999999 160.3886   164.8993   0.1611633  42.4503    334.9013   138.1664   163.2651  
112.0139999999999 161.4306   165.5901   0.1662903  43.47953   336.6994   137.8314   161.132   
112.1663999999999 161.4306   164.8993   0.1693115  43.04467   338.8167   138.1967   159.38    
112.3187999999999 161.4306   164.8993   0.1697998  44.47564   340.5329   137.9239   157.3909  
112.4711999999999 161.4306   164.8993   0.170105   47.09538   341.3666   138.4173   157.0507  
112.6235999999999 162.82     165.2447   0.1680603  48.37225   341.7098   138.974    157.2642  
112.7759999999999 164.2093   164.8993   0.1627808  48.22916   341.0858   140.1957   159.1098  
112.9283999999999 164.2093   165.5901   0.153595   46.35777   339.3925   142.575    163.1826  
113.0807999999999 161.4306   164.8993   0.1426086  47.9484    337.2171   143.2036   165.9865  
113.2331999999999 163.1673   166.9716   0.1334839  48.14661   334.7825   143.939    169.1564  
113.3855999999999 162.82     165.2447   0.1213989  53.19905   330.6795   145.9302   175.2506  
113.5379999999999 162.82     168.3531   0.1110535  54.60255   326.4999   148.0382   181.5383  
113.6903999999999 160.736    163.8632   0.1028748  58.0092    323.2184   148.8631   185.6447  
113.8427999999999 164.2093   168.3531   0.0944519  56.23157   319.1182   149.0865   189.9682  
113.9951999999999 164.2093   168.3531   0.08901978 54.64083   317.3735   149.256    191.8825  
114.1475999999999 160.0413   163.8632   0.08560181 50.15003   318.2724   151.6443   193.3719  
114.2999999999999 161.4306   163.1724   0.08325195 46.87531   319.0576   153.6849   194.6274  
114.4523999999999 161.4306   164.2086   0.08267212 43.88142   324.4817   155.6678   191.1861  
114.6047999999999 158.9993   163.8632   0.08273315 41.82275   331.4439   158.482    187.0381  
114.7571999999999 153.7893   160.064    0.08517456 42.94554   336.6667   160.2591   183.5924  
114.9095999999999 159.3466   164.2086   0.08712769 53.51813   344.5583   160.7437   176.1854  
115.0619999999999 160.0413   164.8993   0.09088135 65.97323   351.9083   161.3087   169.4005  
115.2143999999999 160.3886   162.8271   0.08847046 72.80332   358.1407   161.557    163.4164  
115.3667999999999 160.736    162.8271   0.08694458 74.1132    3.82489    161.3795   157.5546  
115.5191999999999 160.736    163.8632   0.07888794 73.32064   10.39417   161.0206   150.6265  
115.6715999999999 160.736    163.5178   0.07073975 74.72417   17.25122   160.7349   143.4836  
115.8239999999999 159.3466   162.4817   0.0657959  68.36187   22.94086   160.6179   137.677   
115.9763999999999 160.736    163.8632   0.05966187 62.59404   28.51849   159.9402   131.4217  
116.1287999999999 159.3466   162.8271   0.05563354 54.12366   31.0813    160.0002   128.9189  
116.2811999999999 160.736    162.8271   0.05422974 50.28749   30.81833   158.6866   127.8683  
116.4335999999999 160.736    164.5539   0.05343628 47.66759   28.4126    159.1039   130.6913  
116.5859999999999 159.694    164.8993   0.0552063  48.09143   21.46744   160.3199   138.8525  
116.7383999999999 160.0413   163.1724   0.0579834  51.57544   15.07166   160.9      145.8283  
116.8907999999999 160.736    160.7548   0.06253052 51.48187   7.768982   160.5318   152.7628  
117.0431999999999 160.0413   163.1724   0.06539917 54.66301   3.762604   160.7662   157.0035  
117.1955999999999 161.0833   162.8271   0.06884766 53.17693   359.0173   160.6439   161.6266  
117.3479999999999 160.736    162.1363   0.06948853 52.52198   354.9718   160.3908   165.419   
117.5003999999999 160.736    164.2085   0.06637573 50.2765    352.1484   159.9763   167.828   
117.6527999999999 160.3886   162.4817   0.06164551 52.45591   348.493    159.6877   171.1948  
117.8051999999999 160.736    161.4455   0.0534668  56.3857    341.0333   158.9158   177.8826  
117.9575999999999 160.0413   162.8271   0.04864502 57.69547   333.5178   158.9185   185.4007  
118.1099999999999 159.3466   163.1724   0.04385376 53.83196   315.5767   158.5679   202.9912  
118.2623999999999 160.736    162.8271   0.04501343 52.24138   296.447    157.6088   221.1618  
118.4147999999999 160.0413   162.8271   0.05163574 50.95915   282.5259   157.9161   235.3902  
118.5671999999999 160.0413   162.1363   0.0586853  52.32952   272.5893   158.0401   245.4508  
118.7195999999999 160.0413   162.1363   0.06692505 53.45219   266.3543   157.9771   251.6228  
118.8719999999999 160.736    162.1363   0.07550049 57.63501   262.5917   158.5933   256.0016  
119.0243999999999 160.0413   162.8271   0.08288574 64.38811   257.9201   158.5074   260.5873  
119.1767999999999 159.3466   161.1002   0.08544922 70.65692   255.8327   158.6431   262.8104  
119.3291999999999 160.736    162.1363   0.09057617 74.96087   253.2374   158.0325   264.795   
119.4815999999999 160.0413   162.8271   0.09375    79.99686   252.422    159.5231   267.1012  
119.6339999999999 160.0413   162.4817   0.09384155 86.04002   250.9378   159.8546   268.9167  
119.7863999999999 160.3886   162.8271   0.0930481  96.70609   252.516    160.2902   267.7743  
119.9387999999999 161.4306   162.8271   0.090271   105.5012   253.6374   159.7018   266.0645  
120.0911999999999 161.4306   163.1724   0.0874939  106.6898   254.6893   159.9445   265.2552  
120.2435999999999 160.0413   162.8271   0.08135986 107.0639   257.6671   160.9848   263.3177  
120.3959999999999 160.0413   163.1724   0.07641602 108.0933   260.2096   162.8168   262.6072  
120.5483999999999 159.694    162.8271   0.06600952 111.2634   261.3923   164.5161   263.1238  
120.7007999999999 159.3466   164.2085   0.06152344 110.7022   265.2264   164.6774   259.4511  
120.8531999999999 160.0413   162.8271   0.0513916  104.059    264.7914   166.0214   261.23    
