~Version
 VERS              .         2.0                           : CWLS LOG ASCII STANDARD - VERSION 2.0
 WRAP              .         NO                            : ONE LINE PER DEPTH STEP
 DLM               .         SPACE                         : DELIMITING CHARACTER(SPACE TAB OR COMMA)
~Well Information
#_______________________________________________________________________________
#
#PARAMETER_NAME    .UNIT     VALUE                         : DESCRIPTION
#_______________________________________________________________________________
STRT               .m        69.1895999999999              : First reference value
STOP               .m        290.9316                      : Last reference value
STEP               .m        0.1524                        : Step increment
NULL               .         -9999                         : Missing value
COMP               .                                       : Company
WELL               .         F                             : Well name
FLD                .                                       : Field
LOC                .                                       : Location
CNTY               .                                       : County
STAT               .                                       : State
CTRY               .                                       : Country
SRVC               .                                       : Service Company
DATE               .                                       : Date
API                .                                       : API number
~Parameter Information Block
#_______________________________________________________________________________
#
#PARAMETER_NAME    .UNIT     VALUE                         : DESCRIPTION
#_______________________________________________________________________________
SET                .         Inclination                   : 
TLFamily_C13       .         Caliper 1                     : 
TLFamily_C24       .         Caliper 2                     : 
TLFamily_DEVI      .         Hole Deviation                : 
TLFamily_GR        .         Gamma Ray                     : 
TLFamily_HAZI      .         Hole Azimuth                  : 
TLFamily_MD        .         Measured Depth                : 
TLFamily_P1AZ      .         Pad A Azimuth                 : 
TLFamily_RB        .         Relative Bearing              : 
~Curve Information
#_______________________________________________________________________________
#
#LOGNAME           .UNIT     LOG_ID                        : DESCRIPTION
#_______________________________________________________________________________
MD                 .m                                      :  
C13                .mm                                     : Caliper 1-3 
C24                .mm                                     : Caliper 2-4 
DEVI               .deg                                    : Deviation 
GR                 .gAPI                                   : Gamma Ray 
HAZI               .deg                                    : Hole Azimuth 
P1AZ               .deg                                    : Pad 1 Azimuth 
RB                 .deg                                    : Relative Bearing 
~Ascii
# ...
95.0975999999999 160.736    162.8271   0.1957092  73.61789   275.1427   133.8967   218.754   
95.2499999999999 159.3466   163.8632   0.1946106  74.51505   275.8369   133.687    217.8501  
95.4023999999999 160.736    162.8271   0.1940613  76.66699   276.0278   133.2955   217.2677  
95.5547999999999 159.3466   162.8271   0.1933899  80.33218   276.1834   132.8311   216.6477  
95.7071999999999 161.4306   162.8271   0.1926575  77.99317   276.5696   132.1928   215.6232  
95.8595999999999 161.0833   162.8271   0.1918335  79.11597   276.5621   131.3744   214.8122  
96.0119999999999 160.736    162.8271   0.1922607  76.24317   276.9695   131.418    214.4485  
96.1643999999999 159.3466   162.1363   0.1916199  78.0208    277.298    131.2958   213.9978  
96.3167999999999 160.736    161.7909   0.1933594  76.99162   278.0942   130.7086   212.6144  
96.4691999999999 161.4306   163.5178   0.1966553  79.8095    279.147    131.0381   211.8911  
96.6215999999999 160.0413   163.5178   0.1998596  81.05885   280.0551   131.4342   211.3792  
96.7739999999999 160.736    162.8271   0.2044983  83.49156   280.9254   131.3614   210.436   
96.9263999999999 161.4306   163.5178   0.2109375  81.8073    281.5733   132.4669   210.8936  
97.0787999999999 160.3886   162.8271   0.217865   74.17918   281.788    132.722    210.9341  
97.2311999999999 158.652    161.7909   0.2235107  70.34315   282.1903   132.6777   210.4874  
97.3835999999999 159.3466   162.1363   0.2294922  65.84128   281.8116   133.7496   211.938   
97.5359999999999 158.652    161.4455   0.2337341  72.40726   281.4991   133.7294   212.2303  
97.6883999999999 158.9993   162.1363   0.2356567  74.46551   280.8798   132.7022   211.8224  
97.8407999999999 158.652    162.1363   0.2360535  78.23004   280.3951   132.5453   212.1502  
97.9931999999999 159.3466   162.1363   0.2342224  77.01369   279.3125   132.4536   213.1411  
98.1455999999999 159.3466   162.8271   0.2318726  76.57883   278.5931   131.9002   213.3071  
98.2979999999999 158.9993   161.7909   0.2290344  79.00059   279.0145   131.9994   212.9849  
98.4503999999999 160.0413   162.1363   0.2270813  82.18156   279.2942   131.7415   212.4473  
98.6027999999999 160.736    162.8271   0.2266235  90.30501   280.3553   130.7464   210.3911  
98.7551999999999 159.3466   163.5178   0.2227478  96.57368   280.6682   129.6856   209.0174  
98.9075999999999 160.3886   163.5178   0.2216187  102.2811   281.4625   129.3674   207.905   
99.0599999999999 160.736    162.8271   0.2175903  99.73863   280.9969   129.1237   208.1268  
99.2123999999999 161.0833   162.8271   0.2160645  94.21825   280.6385   128.9791   208.3405  
99.3647999999999 159.8029   162.6329   0.2156677  91.41138   280.3931   128.4277   208.0346  
99.5171999999999 159.3466   162.8271   0.2181091  92.07161   279.7288   128.1151   208.3862  
99.6695999999999 161.0833   162.8271   0.2213745  95.34656   279.1254   128.31     209.1846  
99.8219999999999 161.0833   162.8271   0.2251282  98.15344   278.7125   127.6359   208.9234  
99.9743999999999 160.3886   164.2086   0.2302246  98.45047   278.3926   126.9938   208.6012  
100.1267999999999 161.0833   162.8271   0.2346497  96.11133   278.4857   127.0399   208.5542  
100.2791999999999 160.736    164.8993   0.2412415  82.35756   279.1223   126.7317   207.6094  
100.4315999999999 161.0833   163.1724   0.2446899  66.89783   279.0829   126.8542   207.7713  
100.5839999999999 160.736    162.8271   0.2497864  51.79554   280.4502   126.2413   205.7911  
100.7363999999999 160.736    162.1363   0.2521362  49.92433   281.6819   126.3823   204.7003  
100.8887999999999 161.0833   164.5539   0.2503662  53.49621   282.0171   128.078    206.0609  
101.0411999999999 160.736    163.1724   0.2503662  58.02573   283.0725   129.0565   205.984   
101.1935999999999 160.3886   163.5178   0.2456665  55.31237   283.3025   129.6028   206.3002  
101.3459999999999 158.652    164.2085   0.2415466  52.30196   283.6251   131.9429   208.3177  
101.4983999999999 158.3047   164.2086   0.2387695  52.62672   284.1306   134.7813   210.6506  
101.6507999999999 160.0413   162.8271   0.2353516  55.53818   284.4561   135.0815   210.6254  
101.8031999999999 160.0413   162.4817   0.2322693  57.40931   284.6657   134.3388   209.673   
101.9555999999999 160.0413   162.1363   0.2296143  58.20726   285.1511   134.5561   209.405   
102.1079999999999 159.3466   162.8271   0.2279053  61.37743   285.9946   134.0739   208.0793  
102.2603999999999 159.3466   162.8271   0.2255249  62.21962   286.772    133.2711   206.4991  
102.4127999999999 159.3466   163.1724   0.2225342  59.97415   287.9874   133.2697   205.2823  
102.5651999999999 159.3466   162.4817   0.2207336  56.50681   289.527    133.6569   204.1299  
102.7175999999999 160.3886   162.8271   0.2161255  57.16159   291.0207   134.1634   203.1427  
102.8699999999999 160.3886   162.8271   0.2110291  58.37796   293.1483   133.3755   200.2273  
103.0223999999999 159.3466   162.8271   0.2063599  61.5481    294.5709   132.6056   198.0347  
103.1747999999999 160.736    162.8271   0.1982117  61.82888   296.5771   132.0454   195.4683  
103.3271999999999 159.694    162.8271   0.1898804  62.29671   298.1113   131.4027   193.2914  
103.4795999999999 160.736    163.1724   0.1801758  61.19046   299.0136   131.2154   192.2018  
103.6319999999999 160.736    162.8271   0.1701355  60.6511    299.9417   130.6307   190.6891  
103.7843999999999 160.3886   162.8271   0.1587219  60.93171   299.8021   130.6901   190.888   
103.9367999999999 160.3886   163.1724   0.1467896  59.90255   299.7211   130.6513   190.9302  
104.0891999999999 160.736    163.8632   0.1355286  60.79415   298.8861   131.2757   192.3895  
104.2415999999999 159.3466   162.8271   0.1237488  59.48432   297.1659   130.5851   193.4192  
104.3939999999999 159.3466   162.8271   0.1115112  62.6654    294.6458   129.9072   195.2615  
104.5463999999999 159.3466   162.8271   0.1032715  60.58501   292.6827   129.1812   196.4985  
104.6987999999999 160.0413   163.1724   0.09463501 63.25978   289.7918   129.6446   199.8528  
104.8511999999999 160.0413   163.1724   0.08926392 64.28904   287.6307   129.8326   202.2018  
105.0035999999999 159.3466   162.8271   0.08569336 68.54339   287.0372   129.1633   202.1261  
105.1559999999999 159.3466   162.4817   0.08459473 73.7941    287.6339   128.3198   200.6859  
105.3083999999999 159.694    162.8271   0.08563232 77.2559    288.763    127.4987   198.7356  
105.4607999999999 159.3466   162.8271   0.08908081 77.06338   290.4424   127.0018   196.5594  
105.6131999999999 158.9993   162.8271   0.09298706 71.57046   292.6874   126.6552   193.9678  
105.7655999999999 159.3466   162.8271   0.09994507 62.30779   294.4356   126.7821   192.3466  
105.9179999999999 158.652    162.4817   0.10849    57.54156   296.5143   126.8175   190.3032  
106.0703999999999 158.652    162.4817   0.1156006  56.00056   298.1299   127.652    189.5221  
106.2227999999999 158.652    161.4455   0.1230469  59.4623    299.335    128.0784   188.7435  
106.3751999999999 158.652    162.8271   0.1309204  57.77807   300.8468   129.4526   188.6058  
106.5275999999999 158.652    162.8271   0.1399841  56.13812   302.1979   129.7581   187.5602  
106.6799999999999 158.652    162.8271   0.1451416  55.51073   302.6754   129.3499   186.6745  
106.8323999999999 158.652    162.8271   0.1530762  60.46958   303.0518   129.431    186.3792  
106.9847999999999 158.9993   162.8271   0.1583557  65.14766   302.6142   129.3026   186.6884  
107.1371999999999 158.652    162.8271   0.1624756  67.32716   302.2217   128.9685   186.7468  
107.2895999999999 158.652    161.4455   0.1656494  64.23953   301.0463   128.9046   187.8583  
107.4419999999999 159.3466   161.4455   0.1686401  62.58832   299.8523   129.2766   189.4242  
107.5943999999999 158.652    162.1363   0.1737366  57.1066    298.6976   129.2145   190.5169  
107.7467999999999 158.652    162.1363   0.1763916  55.98387   298.3522   128.9554   190.6033  
107.8991999999999 158.9993   162.8271   0.1813965  54.49796   297.8524   128.6573   190.8048  
