~Version
 VERS              .         2.0                           : CWLS LOG ASCII STANDARD - VERSION 2.0
 WRAP              .         NO                            : ONE LINE PER DEPTH STEP
 DLM               .         SPACE                         : DELIMITING CHARACTER(SPACE TAB OR COMMA)
~Well Information
#_______________________________________________________________________________
#
#PARAMETER_NAME    .UNIT     VALUE                         : DESCRIPTION
#_______________________________________________________________________________
STRT               .m        69.1895999999999              : First reference value
STOP               .m        290.9316                      : Last reference value
STEP               .m        0.1524                        : Step increment
NULL               .         -9999                         : Missing value
COMP               .                                       : Company
WELL               .         F                             : Well name
FLD                .                                       : Field
LOC                .                                       : Location
CNTY               .                                       : County
STAT               .                                       : State
CTRY               .                                       : Country
SRVC               .                                       : Service Company
DATE               .                                       : Date
API                .                                       : API number
~Parameter Information Block
#_______________________________________________________________________________
#
#PARAMETER_NAME    .UNIT     VALUE                         : DESCRIPTION
#_______________________________________________________________________________
SET                .         Inclination                   : 
TLFamily_C13       .         Caliper 1                     : 
TLFamily_C24       .         Caliper 2                     : 
TLFamily_DEVI      .         Hole Deviation                : 
TLFamily_GR        .         Gamma Ray                     : 
TLFamily_HAZI      .         Hole Azimuth                  : 
TLFamily_MD        .         Measured Depth                : 
TLFamily_P1AZ      .         Pad A Azimuth                 : 
TLFamily_RB        .         Relative Bearing              : 
~Curve Information
#_______________________________________________________________________________
#
#LOGNAME           .UNIT     LOG_ID                        : DESCRIPTION
#_______________________________________________________________________________
MD                 .m                                      :  
C13                .mm                                     : Caliper 1-3 
C24                .mm                                     : Caliper 2-4 
DEVI               .deg                                    : Deviation 
GR                 .gAPI                                   : Gamma Ray 
HAZI               .deg                                    : Hole Azimuth 
P1AZ               .deg                                    : Pad 1 Azimuth 
RB                 .deg                                    : Relative Bearing 
~Ascii
# ...
133.9595999999999 161.4306   164.8993   0.2267456  48.732     19.23212   200.1699   180.9378  
134.1119999999999 161.4306   163.1724   0.2373657  51.44317   19.25131   200.0962   180.8449  
134.2643999999999 161.4306   164.2086   0.245575   54.10706   19.23907   200.1136   180.8746  
134.4167999999999 163.862    164.8993   0.2585144  51.39372   19.15601   201.424    182.268   
134.5691999999999 164.2093   164.8993   0.2708435  49.41246   19.24133   201.8441   182.6027  
134.7215999999999 164.2093   164.8993   0.2844238  50.72239   19.55267   203.3516   183.799   
134.8739999999999 164.2093   164.2086   0.2934875  54.27782   19.87445   203.6902   183.8158  
135.0263999999999 161.4306   164.8993   0.3048096  53.88156   20.7117    206.663    185.9513  
135.1787999999999 162.4726   165.2447   0.3139648  52.57164   21.85153   211.0193   189.1677  
135.3311999999999 164.2093   166.9716   0.317688   52.29797   23.14481   211.7434   188.5986  
135.4835999999999 162.82     164.8993   0.3202515  54.63295   25.14801   211.4339   186.2859  
135.6359999999999 160.0413   164.2085   0.3187256  54.35228   27.78528   213.2179   185.4327  
135.7883999999999 160.3886   163.5178   0.3152466  53.65717   30.92493   215.1788   184.2539  
135.9407999999999 161.4306   162.8271   0.3095703  53.67222   33.69458   216.4684   182.7739  
136.0931999999999 158.9993   161.4455   0.301178   53.29798   37.39462   217.515    180.1204  
136.2455999999999 159.3466   161.1002   0.2882996  52.39552   41.21255   217.697    176.4845  
136.3979999999999 161.4306   162.8271   0.2720947  51.17925   45.0589    217.8094   172.7505  
136.5503999999999 161.4306   164.8993   0.2585144  53.70546   47.87167   217.8908   170.0191  
136.7027999999999 158.652    162.4817   0.2359314  55.99497   51.63474   218.8028   167.168   
136.8551999999999 158.652    162.1363   0.2120361  54.77864   55.25333   219.7496   164.4962  
137.0075999999999 158.652    162.8271   0.1891174  54.77862   58.26758   220.1817   161.9141  
137.1599999999999 158.652    162.1363   0.1622009  53.49066   62.55377   221.0037   158.4499  
137.3123999999999 158.652    162.8271   0.1352844  54.61337   67.99078   223.3559   155.3652  
137.4647999999999 158.652    162.8271   0.1115723  52.64853   74.82703   224.0424   149.2154  
137.6171999999999 158.652    162.8271   0.09616089 52.74758   81.47235   224.437    142.9647  
137.7695999999999 158.652    162.8271   0.08117676 50.87641   90.215     224.9197   134.7047  
137.9219999999999 158.652    162.8271   0.07183838 51.71851   98.9108    225.8783   126.9675  
138.0743999999999 158.652    163.1724   0.06546021 53.00652   103.7643   226.736    122.9718  
138.2267999999999 158.652    162.8271   0.0619812  57.40394   106.2414   227.8146   121.5732  
138.3791999999999 158.652    163.1724   0.05880737 57.96523   103.4104   229.3654   125.955   
138.5315999999999 158.652    161.7909   0.05630493 56.28099   96.27374   229.2869   133.0131  
138.6839999999999 158.652    161.4455   0.06030273 53.3806    88.517     230.4097   141.8927  
138.8363999999999 158.652    161.7909   0.06704712 53.00628   78.80276   231.9202   153.1175  
138.9887999999999 158.652    162.1363   0.08050537 52.67624   72.27136   233.2952   161.0238  
139.1411999999999 158.652    161.4455   0.0987854  52.58257   70.31674   233.339    163.0222  
139.2935999999999 158.3047   162.4817   0.1161499  53.04508   70.30429   232.9972   162.6929  
139.4459999999999 151.0107   157.301    0.1376953  49.77017   71.75949   232.4889   160.7294  
139.5983999999999 149.274    152.4658   0.1577454  47.91007   73.9512    233.1138   159.1626  
139.7507999999999 158.652    160.064    0.1761169  42.1146    76.19308   232.8363   156.6432  
139.9031999999999 159.3466   161.4455   0.1912537  41.36609   78.73322   232.8586   154.1254  
140.0555999999999 160.0413   162.1363   0.1977234  42.00999   79.8075    233.2567   153.4492  
140.2079999999999 161.0833   162.1363   0.2034607  49.21436   81.33954   233.7001   152.3605  
140.3603999999999 164.2093   164.8993   0.2028809  53.07253   81.80963   236.0015   154.1918  
140.5127999999999 161.4306   163.1724   0.1984863  53.82103   81.9295    237.1219   155.1924  
140.6651999999999 160.736    162.8271   0.1953125  53.60081   81.26685   236.9512   155.6844  
140.8175999999999 161.4306   162.8271   0.1893921  56.01145   80.27301   237.4345   157.1615  
140.9699999999999 161.4306   163.5178   0.1846619  57.49187   79.07687   237.0701   157.9933  
141.1223999999999 161.4306   163.5178   0.1789551  55.74721   77.20276   237.0082   159.8054  
141.2747999999999 160.736    162.8271   0.175354   54.15669   76.06302   237.4132   161.3502  
141.4271999999999 161.4306   163.5178   0.1704102  50.78845   74.36166   237.6292   163.2675  
141.5795999999999 161.4306   164.8993   0.1656189  51.72413   73.34857   238.287    164.9385  
141.7319999999999 164.2093   166.2808   0.1616516  50.97559   72.1701    238.5409   166.3708  
141.8843999999999 164.2093   164.8993   0.1575012  53.25409   72.14948   238.7536   166.6041  
142.0367999999999 164.2093   164.5539   0.1528625  56.99673   71.94016   241.2769   169.3367  
142.1891999999999 161.4306   163.5178   0.1478271  59.24212   72.0889    243.7887   171.6998  
142.3415999999999 158.9993   161.1002   0.1420593  61.19044   72.8172    245.3072   172.49    
142.4939999999999 158.652    161.4455   0.13797    57.72844   72.96094   245.7788   172.8179  
142.6463999999999 159.3466   161.4455   0.1321716  59.176     72.98132   247.2521   174.2708  
142.7987999999999 158.9993   161.4455   0.1283569  60.67308   71.3284    249.7417   178.4133  
142.9511999999999 158.9993   161.4455   0.1262817  59.83112   69.40182   252.1316   182.7298  
143.1035999999999 159.3466   161.4455   0.1263733  58.94506   65.25381   252.5299   187.2761  
143.2559999999999 159.3466   161.1002   0.1299133  58.86792   60.55576   252.6709   192.1151  
143.4083999999999 159.3466   161.4455   0.1357422  58.68073   56.54398   253.2203   196.6763  
143.5607999999999 159.3466   161.4455   0.1429749  57.46434   53.48883   253.8901   200.4012  
143.7131999999999 159.3466   161.4455   0.1542053  53.40265   51.13055   254.9236   203.793   
143.8655999999999 159.3466   161.1002   0.1678467  52.93481   49.94669   256.2544   206.3077  
144.0179999999999 159.3466   161.1002   0.1767273  50.78295   49.88318   256.8428   206.9597  
144.1703999999999 159.3466   161.1002   0.1902466  52.26887   50.51028   257.6707   207.1604  
144.3227999999999 157.9573   161.4455   0.2016296  50.11692   51.78702   258.9207   207.1337  
144.4751999999999 158.9993   161.1002   0.2137451  50.39743   52.88144   260.2767   207.3953  
144.6275999999999 160.3886   162.8271   0.2225342  51.68531   53.7959    260.658    206.8621  
144.7799999999999 160.736    162.4817   0.2347107  53.65025   54.46762   260.2924   205.8247  
144.9323999999999 162.82     166.9716   0.2459106  53.74404   54.69199   261.0107   206.3186  
145.0847999999999 160.736    164.2085   0.2528687  55.0154    54.8407    261.7976   206.957   
145.2371999999999 161.4306   163.8632   0.2628174  56.53429   54.61621   262.9772   208.361   
145.3895999999999 161.4306   162.8271   0.2702026  60.18317   54.41776   262.5002   208.0825  
145.5419999999999 161.0833   161.7909   0.277832   59.43633   54.37558   262.058    207.6824  
145.6943999999999 161.4306   161.7909   0.2853699  62.50186   54.33676   261.2382   206.9014  
145.8467999999999 161.778    162.8271   0.2905273  59.50779   54.45184   260.97     206.5182  
145.9991999999999 161.4306   163.5178   0.2953491  58.1027    54.62643   260.9508   206.3244  
146.1515999999999 160.736    162.8271   0.2972717  55.57656   54.83691   261.1342   206.2973  
146.3039999999999 161.4306   162.1363   0.2947388  56.91951   55.12878   260.5715   205.4427  
146.4563999999999 160.736    162.8271   0.291626   60.28778   54.60846   260.4379   205.8295  
146.6087999999999 160.736    162.1363   0.2833557  58.32309   53.90631   260.1026   206.1963  
146.7611999999999 160.0413   162.1363   0.2746582  58.00927   52.08221   261.1625   209.0803  
