~Version
 VERS              .         2.0                           : CWLS LOG ASCII STANDARD - VERSION 2.0
 WRAP              .         NO                            : ONE LINE PER DEPTH STEP
 DLM               .         SPACE                         : DELIMITING CHARACTER(SPACE TAB OR COMMA)
~Well Information
#_______________________________________________________________________________
#
#PARAMETER_NAME    .UNIT     VALUE                         : DESCRIPTION
#_______________________________________________________________________________
STRT               .m        69.1895999999999              : First reference value
STOP               .m        290.9316                      : Last reference value
STEP               .m        0.1524                        : Step increment
NULL               .         -9999                         : Missing value
COMP               .                                       : Company
WELL               .         F                             : Well name
FLD                .                                       : Field
LOC                .                                       : Location
CNTY               .                                       : County
STAT               .                                       : State
CTRY               .                                       : Country
SRVC               .                                       : Service Company
DATE               .                                       : Date
API                .                                       : API number
~Parameter Information Block
#_______________________________________________________________________________
#
#PARAMETER_NAME    .UNIT     VALUE                         : DESCRIPTION
#_______________________________________________________________________________
SET                .         Inclination                   : 
TLFamily_C13       .         Caliper 1                     : 
TLFamily_C24       .         Caliper 2                     : 
TLFamily_DEVI      .         Hole Deviation                : 
TLFamily_GR        .         Gamma Ray                     : 
TLFamily_HAZI      .         Hole Azimuth                  : 
TLFamily_MD        .         Measured Depth                : 
TLFamily_P1AZ      .         Pad A Azimuth                 : 
TLFamily_RB        .         Relative Bearing              : 
~Curve Information
#_______________________________________________________________________________
#
#LOGNAME           .UNIT     LOG_ID                        : DESCRIPTION
#_______________________________________________________________________________
MD                 .m                                      :  
C13                .mm                                     : Caliper 1-3 
C24                .mm                                     : Caliper 2-4 
DEVI               .deg                                    : Deviation 
GR                 .gAPI                                   : Gamma Ray 
HAZI               .deg                                    : Hole Azimuth 
P1AZ               .deg                                    : Pad 1 Azimuth 
RB                 .deg                                    : Relative Bearing 
~Ascii
# ...
224.6375999999999 159.3466   160.7548   0.4281006  56.32514   340.45     358.6094   18.15939  
224.7899999999999 159.3466   161.1002   0.4234619  57.85669   340.0877   358.0482   17.96045  
224.9423999999999 159.3466   160.7548   0.4198914  53.45897   339.4824   357.2019   17.71954  
225.0947999999999 160.0413   160.7548   0.4156189  48.40675   339.1766   356.4401   17.26349  
225.2471999999999 160.736    161.1002   0.4122009  40.51308   339.0049   356.0555   17.05051  
225.3995999999999 161.4306   164.8993   0.4088745  36.39639   338.7027   357.5275   18.82474  
225.5519999999999 161.4306   162.8271   0.4072266  33.58935   338.4672   357.2504   18.7832   
225.7043999999999 161.4306   164.2086   0.4075928  33.30855   338.253    356.8225   18.56946  
225.8567999999999 161.4306   164.2085   0.4055786  41.35486   338.1274   356.0676   17.94016  
226.0091999999999 161.0833   162.8271   0.4073486  54.82806   338.1336   356.3563   18.22272  
226.1615999999999 160.0413   162.4817   0.4061279  67.83337   338.1864   356.1548   17.96832  
226.3139999999999 160.736    162.8271   0.4050903  68.11414   338.2604   354.6983   16.4379   
226.4663999999999 160.0413   163.1724   0.4050903  59.22557   338.2169   353.1569   14.94006  
226.6187999999999 158.652    161.1002   0.4049377  49.40137   338.0976   352.4994   14.40179  
226.7711999999999 161.4306   164.8993   0.4047241  41.72919   337.9424   352.5853   14.64291  
226.9235999999999 161.4306   164.5539   0.403656   37.89312   337.5514   352.3548   14.80344  
227.0759999999999 161.4306   164.8993   0.4023743  36.30255   337.2345   351.6728   14.43829  
227.2283999999999 159.694    162.8271   0.4019165  40.88712   336.7328   351.5666   14.8338   
227.3807999999999 160.0413   162.8271   0.4005737  48.74642   336.2583   352.166    15.90778  
227.5331999999999 161.4306   163.5178   0.4023743  56.5452    335.4689   352.9095   17.44052  
227.6855999999999 161.4306   163.1724   0.4032898  61.46474   334.5562   352.8715   18.31528  
227.8379999999999 161.4306   163.8632   0.4034729  52.85688   333.7577   353.7531   19.99536  
227.9903999999999 161.4306   164.8993   0.4055176  40.28637   332.9941   355.2308   22.23669  
228.1427999999999 161.4306   165.2447   0.4067688  27.22687   332.3229   356.2561   23.93317  
228.2951999999999 162.1253   167.6623   0.4098206  24.32642   331.667    357.4356   25.76855  
228.4475999999999 164.2093   165.5901   0.4122009  27.97044   331.1179   358.2806   27.16266  
228.5999999999999 162.1253   165.5901   0.4129944  30.21594   330.8212   358.2625   27.44138  
228.7523999999999 162.1253   165.2447   0.4147644  33.02283   330.8051   357.9811   27.17609  
228.9047999999999 162.1253   164.8993   0.4149475  31.6244    330.86     357.2944   26.43442  
229.0571999999999 161.4306   164.5539   0.4147339  30.87587   331.0741   355.8151   24.74106  
229.2095999999999 162.1253   164.8993   0.4126892  29.37885   331.5019   354.707    23.20511  
229.3619999999999 161.4306   164.8993   0.4101868  29.4478    331.9107   353.3147   21.40399  
229.5143999999999 161.4306   164.8993   0.4051514  28.23153   332.5066   351.341    18.83444  
229.6667999999999 161.4306   164.8993   0.3997192  27.6701    333.1911   350.287    17.09595  
229.8191999999999 160.736    164.2085   0.3952942  28.51469   334.08     349.1206   15.04053  
229.9715999999999 159.3466   162.8271   0.3907776  32.3409    334.6985   347.6258   12.92737  
230.1239999999999 159.3466   162.4817   0.3861694  34.30584   335.598    346.5253   10.92728  
230.2763999999999 158.652    163.5178   0.3815613  37.88327   336.1184   345.5688   9.450378  
230.4287999999999 160.736    166.9716   0.3772888  41.44868   336.2811   345.6687   9.387604  
230.5811999999999 160.0413   165.9354   0.3735962  39.95166   335.8901   344.1444   8.254303  
230.7335999999999 161.4306   165.5901   0.3687134  32.8409    335.1675   343.9491   8.781616  
230.8859999999999 161.4306   163.8632   0.3666382  23.85867   333.7227   343.6971   9.974365  
231.0383999999999 161.4306   164.2086   0.3640442  25.44929   331.84     342.3737   10.53372  
231.1907999999999 161.4306   164.2085   0.3626709  27.16295   329.4619   342.6219   13.15991  
231.3431999999999 161.778    165.5901   0.363678   30.06341   327.1777   345.4633   18.28558  
231.4955999999999 164.2093   166.6262   0.3681946  30.34411   325.7218   346.4191   20.69724  
231.6479999999999 164.2093   167.6623   0.3733826  31.53079   324.172    346.5858   22.41382  
231.8003999999999 162.4726   164.8993   0.3821106  32.84074   323.3637   347.6698   24.30609  
231.9527999999999 164.2093   167.6623   0.3898315  30.7823    322.9769   348.0809   25.104    
232.1051999999999 164.2093   167.6623   0.397522   27.41412   322.9245   349.0981   26.17352  
232.2575999999999 164.2093   167.6623   0.4023132  24.8878    323.0803   349.7065   26.62613  
232.4099999999999 164.2093   167.6623   0.4085693  26.2252    323.1191   349.6635   26.54437  
232.5623999999999 164.2093   168.3531   0.4139709  31.9523    322.8406   350.162    27.32141  
232.7147999999999 162.82     167.6623   0.4193726  37.78623   322.3907   351.9095   29.51886  
232.8671999999999 159.3466   163.1724   0.4216003  44.86958   321.7557   352.8354   31.07971  
233.0195999999999 161.4306   164.2086   0.4263306  47.37606   320.735    351.4066   30.6716   
233.1719999999999 164.2093   164.8993   0.4306946  48.65306   319.5829   350.4088   30.8259   
233.3243999999999 164.2093   166.9716   0.4368286  43.2263    318.4519   350.3614   31.90952  
233.4767999999999 164.2093   165.2447   0.4425354  40.23236   317.4643   350.0366   32.57236  
233.6291999999999 162.1253   164.8993   0.4489136  37.23822   316.8301   349.8999   33.06982  
233.7815999999999 161.778    165.5901   0.4546509  39.20299   316.3632   349.904    33.54074  
233.9339999999999 159.3466   161.4455   0.460968   38.64154   315.9581   350.3957   34.43756  
234.0863999999999 164.2093   165.5901   0.4666138  37.61238   315.7846   350.5319   34.74731  
234.2387999999999 166.6406   170.4253   0.4700012  34.24417   315.7646   350.2586   34.49402  
234.3911999999999 164.2093   167.6623   0.4712219  31.71799   315.5026   349.6883   34.18567  
234.5435999999999 161.4306   165.5901   0.4735413  30.68879   315.1443   348.6438   33.49945  
234.6959999999999 161.778    164.5539   0.4766541  30.0338    314.4325   348.1927   33.76022  
234.8483999999999 164.2093   166.9716   0.479126   34.0571    313.607    348.5908   34.9838   
235.0007999999999 156.568    162.8271   0.4838562  42.29068   313.0781   347.9751   34.897    
235.1531999999999 159.3466   161.4455   0.4896545  50.43076   312.4522   349.2336   36.78134  
235.3055999999999 159.3466   161.1002   0.4932861  51.92772   312.1195   348.9789   36.85941  
235.4579999999999 161.778    164.2085   0.4971619  44.34914   311.8813   348.8867   37.00546  
235.6103999999999 164.2093   165.5901   0.4967957  34.61852   311.6051   348.9346   37.32947  
235.7627999999999 164.2093   164.8993   0.4928589  27.13344   311.6934   349.547    37.85361  
235.9151999999999 162.1253   163.1724   0.4851074  26.75911   311.6859   350.0227   38.33688  
236.0675999999999 159.3466   162.8271   0.4775085  31.62446   311.6548   349.2555   37.60068  
236.2199999999999 159.3466   162.8271   0.4671936  38.45461   311.1719   349.5837   38.41187  
236.3723999999999 164.2093   164.8993   0.4553528  38.26752   310.4264   349.7584   39.33194  
236.5247999999999 164.2093   165.5901   0.4438782  34.80564   308.6181   351.3245   42.70636  
236.6771999999999 164.5567   165.5901   0.4420166  31.25011   307.459    351.0757   43.61676  
236.8295999999999 164.2093   164.8993   0.4483337  30.22093   305.8599   354.7317   48.87173  
236.9819999999999 167.3353   170.4253   0.4578552  26.94622   304.3911   355.4871   51.09595  
237.1343999999999 169.072    173.8791   0.4695435  26.47842   303.4059   355.7913   52.38535  
237.2867999999999 167.6826   168.3531   0.4813232  30.31443   302.4477   355.0274   52.57974  
237.4391999999999 172.5453   169.3892   0.4971924  35.64763   302.0069   353.171    51.16412  
