~Version
 VERS              .         2.0                           : CWLS LOG ASCII STANDARD - VERSION 2.0
 WRAP              .         NO                            : ONE LINE PER DEPTH STEP
 DLM               .         SPACE                         : DELIMITING CHARACTER(SPACE TAB OR COMMA)
~Well Information
#_______________________________________________________________________________
#
#PARAMETER_NAME    .UNIT     VALUE                         : DESCRIPTION
#_______________________________________________________________________________
STRT               .m        69.1895999999999              : First reference value
STOP               .m        290.9316                      : Last reference value
STEP               .m        0.1524                        : Step increment
NULL               .         -9999                         : Missing value
COMP               .                                       : Company
WELL               .         F                             : Well name
FLD                .                                       : Field
LOC                .                                       : Location
CNTY               .                                       : County
STAT               .                                       : State
CTRY               .                                       : Country
SRVC               .                                       : Service Company
DATE               .                                       : Date
API                .                                       : API number
~Parameter Information Block
#_______________________________________________________________________________
#
#PARAMETER_NAME    .UNIT     VALUE                         : DESCRIPTION
#_______________________________________________________________________________
SET                .         Inclination                   : 
TLFamily_C13       .         Caliper 1                     : 
TLFamily_C24       .         Caliper 2                     : 
TLFamily_DEVI      .         Hole Deviation                : 
TLFamily_GR        .         Gamma Ray                     : 
TLFamily_HAZI      .         Hole Azimuth                  : 
TLFamily_MD        .         Measured Depth                : 
TLFamily_P1AZ      .         Pad A Azimuth                 : 
TLFamily_RB        .         Relative Bearing              : 
~Curve Information
#_______________________________________________________________________________
#
#LOGNAME           .UNIT     LOG_ID                        : DESCRIPTION
#_______________________________________________________________________________
MD                 .m                                      :  
C13                .mm                                     : Caliper 1-3 
C24                .mm                                     : Caliper 2-4 
DEVI               .deg                                    : Deviation 
GR                 .gAPI                                   : Gamma Ray 
HAZI               .deg                                    : Hole Azimuth 
P1AZ               .deg                                    : Pad 1 Azimuth 
RB                 .deg                                    : Relative Bearing 
~Ascii
# ...
250.5455999999999 159.694    162.8271   0.6073914  91.74162   316.478    2.565216   46.08722  
250.6979999999999 159.3466   161.7909   0.611908   96.6511    315.8362   3.157227   47.32101  
250.8503999999999 159.3466   162.1363   0.6152039  95.90257   315.3276   3.473114   48.14554  
251.0027999999999 159.3466   161.4455   0.6170959  92.88866   314.6074   3.484924   48.8775   
251.1551999999999 159.3466   161.1002   0.6174011  83.53239   313.8817   4.040222   50.15857  
251.3075999999999 159.3466   160.7548   0.6162109  82.40997   313.009    3.98114    50.97217  
251.4599999999999 159.3466   160.7548   0.6164246  87.20125   312.1218   3.197174   51.07541  
251.6123999999999 159.3466   162.8271   0.6154175  91.91394   311.3968   2.594055   51.1973   
251.7647999999999 159.3466   161.1002   0.6185608  93.5042    310.6002   2.157104   51.55688  
251.9171999999999 159.3466   161.1002   0.6236877  92.1008    309.8605   1.631683   51.77115  
252.0695999999999 160.736    162.8271   0.6304016  93.37607   309.3994   1.761261   52.36188  
252.2219999999999 160.0413   162.1363   0.6412048  92.81492   309.0522   2.442078   53.38983  
252.3743999999999 160.0413   162.8271   0.6514587  90.10162   308.9358   2.859253   53.92346  
252.5267999999999 159.3466   161.4455   0.6653748  86.07843   308.9119   2.456848   53.54492  
252.6791999999999 160.0413   161.4455   0.6795349  77.65755   308.9984   1.728912   52.73047  
252.8315999999999 159.3466   160.7548   0.693573   67.27206   309.186    1.210327   52.02432  
252.9839999999999 158.652    161.1002   0.7064514  59.97413   309.3772   0.7539673  51.3768   
253.1363999999999 159.3466   160.064    0.7150574  61.84542   309.5269   0.1806641  50.65381  
253.2887999999999 159.3466   160.7548   0.723938   69.89175   309.6521   359.0251   49.37296  
253.4411999999999 159.694    161.1002   0.7309265  69.70464   309.7108   358.6571   48.94626  
253.5935999999999 160.0413   162.1363   0.7355957  69.51746   309.7884   359.2042   49.4158   
253.7459999999999 159.694    161.1002   0.7385559  69.04977   309.9227   359.4028   49.48013  
253.8983999999999 160.3886   160.7548   0.7389832  74.19562   310.1255   359.1087   48.98325  
254.0507999999999 161.4306   162.1363   0.7387085  77.84478   310.2516   0.08944702 49.83783  
254.2031999999999 161.4306   162.1363   0.7368164  77.84467   310.6833   0.2058105  49.52246  
254.3555999999999 160.736    160.7548   0.7346191  77.09623   311.2375   359.0065   47.76901  
254.5079999999999 158.652    161.1002   0.7314758  77.00253   311.7529   358.8527   47.09985  
254.6603999999999 158.652    160.7548   0.7275696  78.59315   312.2494   358.0543   45.8049   
254.8127999999999 158.652    160.7548   0.723053   81.96147   312.6976   357.4221   44.72443  
254.9651999999999 158.652    160.7548   0.7201233  87.75748   313.1838   357.4755   44.29169  
255.1175999999999 158.652    161.1002   0.7145386  95.80393   313.5492   357.0164   43.46722  
255.2699999999999 158.652    162.4817   0.7103882  95.05536   313.9901   357.0533   43.0632   
255.4223999999999 159.3466   161.7909   0.7058411  92.7212    314.2628   356.5327   42.26987  
255.5747999999999 158.9993   161.1002   0.7019348  90.80598   314.3492   356.1173   41.7681   
255.7271999999999 158.9993   161.4455   0.6996155  96.60681   314.464    356.1542   41.69019  
255.8795999999999 159.3466   162.1363   0.6965027  101.0979   314.4319   356.0466   41.61469  
256.0319999999999 158.652    161.7909   0.6966858  103.0131   314.5612   355.6311   41.06992  
256.1843999999999 158.9993   161.7909   0.6968689  104.0425   314.6586   355.0686   40.41     
256.3367999999999 158.652    161.4455   0.6958008  101.5163   314.6251   353.6811   39.05603  
256.4891999999999 158.9993   161.4455   0.6969299  95.15413   314.7444   352.7156   37.97119  
256.6415999999999 159.3466   161.4455   0.6956177  90.56927   314.7153   352.4178   37.70245  
256.7939999999999 159.3466   161.7909   0.6941833  86.07806   314.7777   352.4149   37.63715  
256.9463999999999 159.3466   162.1363   0.6940308  81.11916   314.8366   353.2336   38.39706  
257.0987999999999 158.9993   161.4455   0.6911316  76.32797   314.5932   353.5419   38.94867  
257.2511999999999 159.3466   162.1363   0.6893616  76.04735   314.6082   354.2663   39.65811  
257.4035999999999 159.3466   160.7548   0.6850891  81.09979   314.2567   354.9311   40.67441  
257.5559999999999 158.652    161.4455   0.6809998  85.51691   313.972    354.9051   40.93307  
257.7083999999999 160.0413   162.1363   0.6760559  86.17191   313.7663   354.4424   40.67612  
257.8607999999999 159.3466   162.1363   0.6728821  84.30071   313.5721   354.7145   41.1424   
258.0131999999999 158.9993   160.7548   0.6716919  81.11947   313.5067   354.0089   40.50226  
258.1655999999999 158.652    160.7548   0.670166   79.31213   313.633    353.6904   40.05743  
258.3179999999999 158.652    161.1002   0.6722107  79.40585   314.0242   352.9332   38.909    
258.4703999999999 159.3466   162.8271   0.6724854  79.78011   314.6508   353.4797   38.82892  
258.6227999999999 158.652    160.7548   0.6742554  84.58148   315.457    353.0638   37.60675  
258.7751999999999 159.3466   161.1002   0.6755981  87.51622   316.0956   351.9191   35.82349  
258.9275999999999 159.3466   162.1363   0.6768188  92.84944   316.9459   351.9141   34.96823  
259.0799999999999 159.3466   160.7548   0.6762085  95.00129   317.8459   351.3264   33.4805   
259.2323999999999 159.3466   162.4817   0.674408   98.89642   318.6746   351.2172   32.54266  
259.3847999999999 159.3466   162.1363   0.6703796  97.96069   319.3766   351.6762   32.29962  
259.5371999999999 159.3466   161.7909   0.6664124  92.25346   319.943    351.9972   32.0542   
259.6895999999999 159.3466   161.7909   0.6601563  82.80361   320.545    352.9048   32.35977  
259.8419999999999 159.3466   161.7909   0.6532288  74.75726   321.2271   353.0497   31.82263  
259.9943999999999 159.3466   160.7548   0.6452637  74.85071   321.8439   352.1999   30.35602  
260.1467999999999 159.694    162.8271   0.6388855  79.80945   322.2075   351.628    29.4205   
260.2991999999999 158.652    161.7909   0.6309509  85.3049    322.7066   351.6036   28.89706  
260.4515999999999 158.652    161.1002   0.6250916  87.0827    322.9749   351.7919   28.81705  
260.6039999999999 159.3466   162.1363   0.6217041  88.48608   323.249    351.394    28.14505  
260.7563999999999 158.9993   161.7909   0.6195679  91.78571   323.5674   351.2037   27.63635  
260.9087999999999 158.652    161.1002   0.618988   93.45508   323.7313   351.4155   27.6842   
261.0611999999999 159.3466   162.1363   0.6216125  91.20966   323.7453   351.4859   27.74063  
261.2135999999999 159.3466   161.4455   0.6242371  89.33839   323.7162   351.2623   27.54614  
261.3659999999999 158.652    161.1002   0.6288757  88.51084   323.5301   351.0536   27.52353  
261.5183999999999 159.3466   162.8271   0.633728   93.75054   323.4474   350.2472   26.79971  
261.6707999999999 159.3466   162.8271   0.6398926  95.69052   323.1381   349.5061   26.36807  
261.8231999999999 159.3466   163.5178   0.6445923  100.7431   322.9414   349.2402   26.2988   
261.9755999999999 159.3466   161.1002   0.6516418  99.54338   322.4509   349.3507   26.89987  
262.1279999999999 159.3466   163.5178   0.6588745  98.12511   322.0672   350.0591   27.99191  
262.2803999999999 159.3466   162.8271   0.6646423  94.19546   321.8494   351.4965   29.64713  
262.4327999999999 159.3466   162.8271   0.6712646  90.71697   321.6151   352.9838   31.36877  
262.5851999999999 159.3466   162.8271   0.6759949  84.67476   321.4676   353.295    31.82739  
262.7375999999999 161.4306   165.5901   0.6819153  73.63431   321.3775   353.871    32.49344  
262.8899999999999 161.4306   165.5901   0.6867065  61.93892   321.4084   353.8846   32.47617  
263.0423999999999 162.1253   165.5901   0.6879272  50.05648   321.3893   354.4806   33.09131  
263.1947999999999 161.4306   165.5901   0.6879272  42.47779   321.368    354.6475   33.27948  
263.3471999999999 164.2093   166.6262   0.688385   39.10944   321.3193   354.4217   33.10239  
