~Version
 VERS              .         2.0                           : CWLS LOG ASCII STANDARD - VERSION 2.0
 WRAP              .         NO                            : ONE LINE PER DEPTH STEP
 DLM               .         SPACE                         : DELIMITING CHARACTER(SPACE TAB OR COMMA)
~Well Information
#_______________________________________________________________________________
#
#PARAMETER_NAME    .UNIT     VALUE                         : DESCRIPTION
#_______________________________________________________________________________
STRT               .m        69.1895999999999              : First reference value
STOP               .m        290.9316                      : Last reference value
STEP               .m        0.1524                        : Step increment
NULL               .         -9999                         : Missing value
COMP               .                                       : Company
WELL               .         F                             : Well name
FLD                .                                       : Field
LOC                .                                       : Location
CNTY               .                                       : County
STAT               .                                       : State
CTRY               .                                       : Country
SRVC               .                                       : Service Company
DATE               .                                       : Date
API                .                                       : API number
~Parameter Information Block
#_______________________________________________________________________________
#
#PARAMETER_NAME    .UNIT     VALUE                         : DESCRIPTION
#_______________________________________________________________________________
SET                .         Inclination                   : 
TLFamily_C13       .         Caliper 1                     : 
TLFamily_C24       .         Caliper 2                     : 
TLFamily_DEVI      .         Hole Deviation                : 
TLFamily_GR        .         Gamma Ray                     : 
TLFamily_HAZI      .         Hole Azimuth                  : 
TLFamily_MD        .         Measured Depth                : 
TLFamily_P1AZ      .         Pad A Azimuth                 : 
TLFamily_RB        .         Relative Bearing              : 
~Curve Information
#_______________________________________________________________________________
#
#LOGNAME           .UNIT     LOG_ID                        : DESCRIPTION
#_______________________________________________________________________________
MD                 .m                                      :  
C13                .mm                                     : Caliper 1-3 
C24                .mm                                     : Caliper 2-4 
DEVI               .deg                                    : Deviation 
GR                 .gAPI                                   : Gamma Ray 
HAZI               .deg                                    : Hole Azimuth 
P1AZ               .deg                                    : Pad 1 Azimuth 
RB                 .deg                                    : Relative Bearing 
~Ascii
# ...
276.4535999999999 158.652    160.064    0.6577454  118.8254   309.6042   323.6101   14.00592  
276.6059999999999 158.652    160.064    0.6517029  118.8721   309.793    323.5617   13.76874  
276.7583999999999 159.3466   160.064    0.6445923  122.0299   309.8017   323.1351   13.33337  
276.9107999999999 161.4306   163.1724   0.6388855  119.5514   309.848    320.4144   10.56644  
277.0631999999999 164.2093   168.0077   0.6369019  115.5958   310.2037   318.2304   8.026733  
277.2155999999999 164.5567   168.3531   0.6381531  115.5958   310.6864   317.534    6.847534  
277.3679999999999 161.4306   165.5901   0.6421509  115.5958   311.2053   315.7858   4.580566  
277.5203999999999 158.652    161.7909   0.6481628  115.5958   312.0067   315.5614   3.554657  
277.6727999999999 158.652    162.8271   0.6516418  115.5958   312.5318   315.8002   3.268341  
277.8251999999999 158.652    162.4817   0.6585999  115.5958   313.4521   315.8021   2.349945  
277.9775999999999 158.652    162.4817   0.6629639  115.5958   314.2579   315.8054   1.547485  
278.1299999999999 161.4306   165.9354   0.6637573  115.5958   314.7183   315.4503   0.7319336 
278.2823999999999 159.694    164.8993   0.661377   115.5958   315.0765   314.5186   359.4421  
278.4347999999999 157.2626   162.8271   0.6575317  115.5958   315.4871   312.9312   357.4441  
278.5871999999999 156.568    162.8271   0.6540222  115.5958   315.5554   311.457    355.9016  
278.7395999999999 158.652    162.8271   0.6480408  115.5958   315.5583   314.9943   359.436   
278.8919999999999 165.2513   165.2447   0.6420593  115.5958   315.1683   319.8345   4.666199  
279.0443999999999 164.2093   169.7346   0.6377869  115.5958   314.7369   324.0396   9.302673  
279.1967999999999 159.3467   164.2085   0.6366272  115.5958   314.2959   323.2004   8.904449  
279.3491999999999 156.568    160.4094   0.6369324  115.5958   313.7117   322.9313   9.219543  
279.5015999999999 158.652    162.8271   0.6388855  115.5958   313.268    321.6922   8.424194  
279.6539999999999 158.652    162.1363   0.6422424  115.5958   312.7684   320.2389   7.470428  
279.8063999999999 158.652    162.8271   0.6481323  115.5958   312.3907   321.4455   9.054749  
279.9587999999999 158.652    162.1363   0.6546631  115.5958   312.2757   321.3795   9.103821  
280.1111999999999 158.652    161.7909   0.6583862  115.5958   312.3568   320.8594   8.502686  
280.2635999999999 158.652    161.1002   0.6601257  115.5958   312.4163   320.0511   7.634827  
280.4159999999999 156.568    160.064    0.6627808  115.5958   312.6175   319.0899   6.472382  
280.5683999999999 156.568    160.064    0.6628418  115.5958   312.7629   318.8877   6.124786  
280.7207999999999 156.568    160.064    0.6626587  115.5958   312.8878   318.3242   5.436432  
280.8731999999999 156.568    160.064    0.6611023  115.5958   313.1498   317.5751   4.425232  
281.0255999999999 156.568    160.064    0.6601563  115.5958   313.2293   316.8285   3.599152  
281.1779999999999 156.568    160.064    0.6596375  115.5958   313.4055   316.0324   2.626892  
281.3303999999999 156.568    160.064    0.6600342  115.5958   313.6323   315.0252   1.392914  
281.4827999999999 156.568    160.064    0.6603088  115.5958   313.9742   314.2911   0.316925  
281.6351999999999 156.568    160.064    0.6608276  115.5958   314.4565   312.0717   357.6152  
281.7875999999999 156.568    160.064    0.6624451  115.5958   315.2393   308.6429   353.4036  
281.9399999999999 156.568    160.064    0.6638794  115.5958   316.1879   304.2229   348.035   
282.0923999999999 156.568    160.064    0.6647644  115.5958   317.1079   310.5704   353.4625  
282.2447999999999 156.568    160.064    0.6670532  115.5958   318.1748   310.3031   352.1283  
282.3971999999999 156.568    160.064    0.668335   115.5958   319.1957   309.2371   350.0414  
282.5495999999999 156.568    160.064    0.6687317  115.5958   319.8297   308.5244   348.6948  
282.7019999999999 156.568    160.064    0.6691895  115.5958   320.491    307.6005   347.1095  
282.8543999999999 156.568    160.064    0.6680908  115.5958   320.864    306.7673   345.9033  
283.0067999999999 156.568    160.064    0.6644592  115.5958   321.1333   305.8231   344.6898  
283.1591999999999 156.568    160.064    0.6599426  115.5958   321.3593   304.9582   343.5988  
283.3115999999999 156.568    160.064    0.6550293  115.5958   321.4254   304.5429   343.1175  
283.4639999999999 156.568    160.064    0.6472473  115.5958   321.5602   304.2328   342.6726  
283.6163999999999 156.568    160.064    0.6414795  115.5958   321.7249   303.8992   342.1743  
283.7687999999999 156.568    160.064    0.6330872  115.5958   321.9155   303.0129   341.0974  
283.9211999999999 156.568    160.064    0.6256714  115.5958   322.1519   302.0893   339.9374  
284.0735999999999 156.568    160.064    0.6199951  115.5958   322.3336   301.0692   338.7356  
284.2259999999999 156.568    160.064    0.6130676  115.5958   322.316    300.395    338.079   
284.3783999999999 156.568    160.064    0.605011   115.5958   322.1367   299.6964   337.5598  
284.5307999999999 155.8733   160.064    0.5964355  115.5958   321.6412   298.7948   337.1536  
284.6831999999999 155.8733   160.064    0.5898743  115.5958   320.9954   298.0793   337.0839  
284.8355999999999 153.7893   160.064    0.5780029  115.5958   319.7274   297.572    337.8446  
284.9879999999999 153.7893   160.064    0.5648499  115.5958   317.9847   297.3945   339.4098  
285.1403999999999 153.7893   158.6826   0.5498657  115.5958   315.8792   296.061    340.1818  
285.2927999999999 151.7053   149.012    0.5346375  115.5958   313.281    292.2543   338.9733  
285.4451999999999 148.2319   142.1045   0.5201416  115.5958   310.1537   289.4291   339.2755  
285.5975999999999 153.442    151.0842   0.5084229  115.5958   306.7294   288.7779   342.0485  
285.7499999999999 153.7893   157.4844   0.4986572  115.5958   302.9586   289.2288   346.2702  
285.9023999999999 153.7893   157.9918   0.4964905  115.5958   298.9663   289.1168   350.1505  
286.0547999999999 153.0946   157.301    0.4992981  115.5958   297.0923   289.0838   351.9915  
286.2071999999999 153.0946   157.301    0.5054016  115.5958   294.1774   288.4517   354.2742  
286.3595999999999 153.0946   157.301    0.5139465  115.5958   293.0942   289.0212   355.927   
286.5119999999999 153.0946   157.301    0.5223389  115.5958   292.4844   289.1017   356.6174  
286.6643999999999 153.442    157.301    0.5293884  115.5958   292.6953   288.9229   356.2276  
286.8167999999999 153.7893   157.301    0.5345764  115.5958   293.1582   289.6117   356.4535  
286.9691999999999 153.7893   157.301    0.5367126  115.5958   294.1033   282.6995   348.5963  
287.1215999999999 153.7893   157.9918   0.5383301  115.5958   295.1687   286.9703   351.8016  
287.2739999999999 153.7893   157.301    0.5379639  115.5958   296.1049   285.943    349.8381  
287.4263999999999 153.7893   157.301    0.5384216  115.5958   296.5944   285.15     348.5556  
287.5787999999999 153.7893   157.301    0.5380554  115.5958   297.1193   283.8871   346.7678  
287.7311999999999 153.0946   157.301    0.5374146  115.5958   297.2499   282.9787   345.7288  
287.8835999999999 153.0946   157.301    0.5384521  115.5958   297.2474   281.9313   344.6839  
288.0359999999999 153.0946   157.301    0.5404663  115.5958   296.8769   280.6647   343.7878  
288.1883999999999 153.0946   157.301    0.5420532  115.5958   296.3759   279.8817   343.5059  
288.3407999999999 153.0946   157.301    0.5446777  115.5958   295.9513   280.0972   344.1459  
288.4931999999999 153.0946   157.301    0.5484009  115.5958   295.7107   272.795    337.0843  
288.6455999999999 153.0946   156.6103   0.5500183  115.5958   295.5926   272.8136   337.221   
288.7979999999999 153.0946   155.9195   0.5534363  115.5958   295.5811   276.6522   341.0712  
288.9503999999999 153.0946   155.2288   0.5557556  115.5958   295.8346   274.9203   339.0857  
289.1027999999999 153.0946   155.2288   0.5578003  115.5958   295.9379   274.2261   338.2882  
289.2551999999999 151.358    154.538    0.5599976  115.5958   296.0913   273.2672   337.1759  
