~Version
 VERS              .         2.0                           : CWLS LOG ASCII STANDARD - VERSION 2.0
 WRAP              .         NO                            : ONE LINE PER DEPTH STEP
 DLM               .         SPACE                         : DELIMITING CHARACTER(SPACE TAB OR COMMA)
~Well Information
#_______________________________________________________________________________
#
#PARAMETER_NAME    .UNIT     VALUE                         : DESCRIPTION
#_______________________________________________________________________________
STRT               .m        69.1895999999999              : First reference value
STOP               .m        290.9316                      : Last reference value
STEP               .m        0.1524                        : Step increment
NULL               .         -9999                         : Missing value
COMP               .                                       : Company
WELL               .         F                             : Well name
FLD                .                                       : Field
LOC                .                                       : Location
CNTY               .                                       : County
STAT               .                                       : State
CTRY               .                                       : Country
SRVC               .                                       : Service Company
DATE               .                                       : Date
API                .                                       : API number
~Parameter Information Block
#_______________________________________________________________________________
#
#PARAMETER_NAME    .UNIT     VALUE                         : DESCRIPTION
#_______________________________________________________________________________
SET                .         Inclination                   : 
TLFamily_C13       .         Caliper 1                     : 
TLFamily_C24       .         Caliper 2                     : 
TLFamily_DEVI      .         Hole Deviation                : 
TLFamily_GR        .         Gamma Ray                     : 
TLFamily_HAZI      .         Hole Azimuth                  : 
TLFamily_MD        .         Measured Depth                : 
TLFamily_P1AZ      .         Pad A Azimuth                 : 
TLFamily_RB        .         Relative Bearing              : 
~Curve Information
#_______________________________________________________________________________
#
#LOGNAME           .UNIT     LOG_ID                        : DESCRIPTION
#_______________________________________________________________________________
MD                 .m                                      :  
C13                .mm                                     : Caliper 1-3 
C24                .mm                                     : Caliper 2-4 
DEVI               .deg                                    : Deviation 
GR                 .gAPI                                   : Gamma Ray 
HAZI               .deg                                    : Hole Azimuth 
P1AZ               .deg                                    : Pad 1 Azimuth 
RB                 .deg                                    : Relative Bearing 
~Ascii
# ...
185.7755999999999 156.568    160.7548   0.3082275  69.33057   7.815186   34.64825   26.8331   
185.9279999999999 156.568    161.1002   0.2999878  70.26624   8.124023   35.52304   27.39902  
186.0803999999999 156.568    160.064    0.2880554  70.35973   8.239227   36.48593   28.2467   
186.2327999999999 156.568    160.7548   0.2805176  69.58912   8.942413   37.30182   28.35944  
186.3851999999999 156.2207   160.064    0.2672119  71.46037   8.743011   39.08682   30.34381  
186.5375999999999 149.9687   152.4658   0.2555542  66.50143   8.624451   42.73267   34.10822  
186.6899999999999 153.7893   159.0279   0.2442627  62.78097   8.228943   45.03223   36.80331  
186.8423999999999 158.652    160.4094   0.2412415  62.47269   7.671204   45.67288   38.00168  
186.9947999999999 158.9993   160.7548   0.2360535  66.96378   6.138611   45.9339    39.79529  
187.1471999999999 158.9993   161.4455   0.2359314  78.47218   4.777649   46.75644   41.97882  
187.2995999999999 160.736    162.1363   0.2416382  82.33581   4.202881   46.94705   42.74417  
187.4519999999999 160.736    162.8271   0.2464905  88.69817   2.754852   46.94412   44.1893   
187.6043999999999 160.736    162.8271   0.2547607  90.0079    2.331635   47.36792   45.03625  
187.7567999999999 160.736    162.8271   0.2643433  92.68268   1.553131   48.36826   46.81512  
187.9091999999999 160.736    162.8271   0.2718811  96.33177   0.700531   49.07156   48.37103  
188.0615999999999 160.736    162.8271   0.2776184  98.48374   0.4069824  49.7561    49.34909  
188.2139999999999 160.736    162.8271   0.2846985  101.7971   0.002593994 50.65161   50.64902  
188.3663999999999 160.736    162.8271   0.2904053  98.70919   359.9254   51.01529   51.0899   
188.5187999999999 160.736    161.4455   0.2955017  96.55716   359.8815   51.04654   51.16504  
188.6711999999999 160.736    162.8271   0.2999878  95.90219   359.9847   50.35138   50.36661  
188.8235999999999 160.736    162.8271   0.3050842  97.74615   0.2001953  50.8331    50.6329   
188.9759999999999 160.736    162.8271   0.3098145  97.46554   0.4441528  50.83017   50.38602  
189.1283999999999 160.736    162.8271   0.3146973  97.09103   0.8925476  51.24701   50.35446  
189.2807999999999 159.3466   162.1363   0.3193359  96.74419   1.034546   51.86014   50.82559  
189.4331999999999 158.9993   161.7909   0.3235168  99.27043   1.561096   52.10397   50.54291  
189.5855999999999 160.736    162.4817   0.3273926  99.27067   1.945709   51.81158   49.86591  
189.7379999999999 160.736    164.2086   0.3302002  99.45808   2.184784   50.51578   48.33099  
189.8903999999999 160.0413   163.8632   0.3327026  97.86746   2.310669   49.46716   47.15649  
190.0427999999999 160.3886   163.8632   0.3343811  97.96101   2.562012   48.49213   45.93011  
190.1951999999999 159.3466   162.4817   0.3364563  92.62769   2.773224   47.81119   45.03796  
190.3475999999999 159.3466   162.8271   0.3374023  93.93785   2.957886   47.90866   44.95078  
190.4999999999999 159.3466   161.4455   0.3376465  94.312     3.290619   47.92545   44.63483  
190.6523999999999 160.736    162.8271   0.3370667  95.62183   3.247406   47.83817   44.59076  
190.8047999999999 160.3886   162.8271   0.3381958  89.91421   3.270508   47.9053    44.63483  
190.9571999999999 160.3886   162.8271   0.3375549  87.38821   3.60434    47.57904   43.9747   
191.1095999999999 164.2093   165.5901   0.3370972  87.01408   3.624512   46.34805   42.72351  
191.2619999999999 161.4306   165.9354   0.336853   89.16595   3.906799   44.20715   40.30035  
191.4143999999999 161.4306   164.8993   0.3367004  87.01395   3.977173   44.04349   40.06631  
191.5667999999999 161.4306   165.5901   0.3357544  85.98466   3.86087    45.47385   41.61298  
191.7191999999999 161.778    166.6262   0.3374023  82.05509   3.966583   45.32352   41.35693  
191.8715999999999 161.4306   167.6623   0.3368835  78.78019   4.077545   43.70404   39.62653  
192.0239999999999 161.4306   164.8993   0.339386   75.8798    4.438599   45.53696   41.09836  
192.1763999999999 164.2093   170.7707   0.3421021  75.13126   3.98764    47.22577   43.2381   
192.3287999999999 164.2093   173.1884   0.3444824  74.75718   4.351715   45.08105   40.72934  
192.4811999999999 162.82     166.9716   0.3502808  77.20078   3.670502   46.04028   42.36978  
192.6335999999999 164.2093   168.0077   0.3540955  78.4172    3.470367   46.66693   43.19653  
192.7859999999999 164.2093   167.6623   0.3580322  82.81465   3.781158   46.70236   42.9212   
192.9383999999999 164.2093   168.3531   0.3639526  81.49369   3.00061    46.51178   43.51117  
193.0907999999999 164.2093   165.9354   0.371521   78.9675    2.996826   46.01639   43.01959  
193.2431999999999 164.2093   164.8993   0.3791504  79.43533   2.53714    47.44403   44.90689  
193.3955999999999 158.9993   161.7909   0.3887939  82.71014   2.151123   46.94806   44.79694  
193.5479999999999 164.2093   168.3531   0.4013977  84.95564   1.651672   47.30441   45.65274  
193.7003999999999 164.2093   173.1884   0.4128723  83.0897    1.542236   47.3902    45.84796  
193.8527999999999 164.2093   168.6984   0.4288635  80.37634   1.985748   51.88495   49.89917  
194.0051999999999 162.1253   165.5901   0.4457703  78.78567   1.978699   54.69522   52.71652  
194.1575999999999 161.0833   162.8271   0.455719   77.75119   2.165222   56.06821   53.90298  
194.3099999999999 161.4306   167.6623   0.4680176  81.08643   2.276245   56.28317   54.00693  
194.4623999999999 161.4306   164.8993   0.4775391  82.30287   2.208405   57.77478   55.56638  
194.6147999999999 159.694    162.8271   0.4849548  84.4547    2.556885   59.05756   56.50067  
194.7671999999999 159.3466   161.7909   0.486084   84.95564   3.082275   59.71924   56.63696  
194.9195999999999 161.4306   162.4817   0.4874878  86.92039   3.119812   60.15097   57.03116  
195.0719999999999 160.736    164.2085   0.4856873  84.67483   3.434296   61.40219   57.9679   
195.2243999999999 159.694    164.8993   0.4848938  81.30645   3.133484   62.16055   59.02707  
195.3767999999999 159.3466   162.1363   0.4851379  82.24227   3.336945   62.19464   58.8577   
195.5291999999999 158.9993   161.4455   0.4845886  86.0785    3.502441   62.44003   58.93759  
195.6815999999999 158.652    160.7548   0.4838257  90.10168   3.903931   63.3649    59.46097  
195.8339999999999 161.4306   166.6262   0.4849548  94.59248   4.511261   65.28775   60.77649  
195.9863999999999 164.2093   169.3892   0.4898987  97.68015   4.542847   65.2811    60.73828  
196.1387999999999 164.2093   168.0077   0.4914856  97.77364   4.829132   64.28806   59.45889  
196.2911999999999 164.2093   168.3531   0.4958191  95.71545   4.949646   65.00381   60.05414  
196.4435999999999 164.2093   168.6984   0.496582   93.75043   5.506592   68.02155   62.51498  
196.5959999999999 164.2093   168.0077   0.4969482  93.28265   5.818359   68.89627   63.07791  
196.7483999999999 164.2093   166.9716   0.5015259  94.16868   5.456177   69.85782   64.40167  
196.9007999999999 162.82     168.0077   0.5031128  96.88185   5.928009   69.97034   64.04233  
197.0531999999999 164.2093   167.6623   0.5055542  98.37882   5.465332   68.19943   62.7341   
197.2055999999999 164.2093   168.3531   0.504364   98.70891   5.527069   68.28662   62.75955  
197.3579999999999 161.778    164.8993   0.5002747  95.80868   5.4133     67.32507   61.91174  
197.5103999999999 161.4306   164.8993   0.502594   96.92837   5.325409   66.46448   61.1391   
197.6627999999999 162.82     165.2447   0.4994507  96.46052   4.998474   65.97217   60.97369  
197.8151999999999 161.4306   165.5901   0.4993591  96.83479   4.706299   64.9769    60.2706   
197.9675999999999 161.4306   165.5901   0.498291   96.40867   4.545959   65.01511   60.46915  
198.1199999999999 162.1253   168.0077   0.4973145  96.2219    4.253571   66.48026   62.22668  
198.2723999999999 161.4306   165.9354   0.4960022  99.12215   4.201019   67.00305   62.80203  
198.4247999999999 162.82     167.6623   0.4976501  99.92575   4.181488   67.1091    62.92761  
198.5771999999999 164.2093   169.0438   0.499939   100.7676   3.914948   66.75665   62.84174  
