~Version
 VERS              .         2.0                           : CWLS LOG ASCII STANDARD - VERSION 2.0
 WRAP              .         NO                            : ONE LINE PER DEPTH STEP
 DLM               .         SPACE                         : DELIMITING CHARACTER(SPACE TAB OR COMMA)
~Well Information
#_______________________________________________________________________________
#
#PARAMETER_NAME    .UNIT     VALUE                         : DESCRIPTION
#_______________________________________________________________________________
STRT               .m        69.1895999999999              : First reference value
STOP               .m        290.9316                      : Last reference value
STEP               .m        0.1524                        : Step increment
NULL               .         -9999                         : Missing value
COMP               .                                       : Company
WELL               .         F                             : Well name
FLD                .                                       : Field
LOC                .                                       : Location
CNTY               .                                       : County
STAT               .                                       : State
CTRY               .                                       : Country
SRVC               .                                       : Service Company
DATE               .                                       : Date
API                .                                       : API number
~Parameter Information Block
#_______________________________________________________________________________
#
#PARAMETER_NAME    .UNIT     VALUE                         : DESCRIPTION
#_______________________________________________________________________________
SET                .         Inclination                   : 
TLFamily_C13       .         Caliper 1                     : 
TLFamily_C24       .         Caliper 2                     : 
TLFamily_DEVI      .         Hole Deviation                : 
TLFamily_GR        .         Gamma Ray                     : 
TLFamily_HAZI      .         Hole Azimuth                  : 
TLFamily_MD        .         Measured Depth                : 
TLFamily_P1AZ      .         Pad A Azimuth                 : 
TLFamily_RB        .         Relative Bearing              : 
~Curve Information
#_______________________________________________________________________________
#
#LOGNAME           .UNIT     LOG_ID                        : DESCRIPTION
#_______________________________________________________________________________
MD                 .m                                      :  
C13                .mm                                     : Caliper 1-3 
C24                .mm                                     : Caliper 2-4 
DEVI               .deg                                    : Deviation 
GR                 .gAPI                                   : Gamma Ray 
HAZI               .deg                                    : Hole Azimuth 
P1AZ               .deg                                    : Pad 1 Azimuth 
RB                 .deg                                    : Relative Bearing 
~Ascii
# ...
263.4995999999999 166.988    168.3531   0.6864624  40.98068   321.3344   354.3046   32.97018  
263.6519999999999 164.2093   167.6623   0.6855469  45.38812   321.1313   354.2552   33.1239   
263.8043999999999 164.2093   168.3531   0.6837769  48.28858   320.8464   354.584    33.73764  
263.9567999999999 166.988    168.3531   0.6821594  52.9668    320.6334   355.3231   34.68967  
264.1091999999999 164.2093   168.0077   0.6826477  57.26091   320.3794   357.0658   36.68643  
264.2615999999999 164.2093   168.0077   0.6836853  60.90982   319.9672   357.8246   37.85742  
264.4139999999999 164.2093   168.0077   0.6843567  61.73715   319.7775   357.9389   38.16138  
264.5663999999999 164.2093   168.3531   0.6882324  58.18165   319.6526   358.6417   38.98907  
264.7187999999999 164.2093   168.3531   0.6918335  50.3224    319.6491   359.9437   40.29465  
264.8711999999999 164.904    168.3531   0.6959534  42.75843   319.6304   359.4493   39.81888  
265.0235999999999 164.2093   168.3531   0.7008057  41.04477   319.5318   358.8874   39.35556  
265.1759999999999 165.946    168.0077   0.705719   48.01789   319.4659   358.4689   39.00293  
265.3283999999999 164.2093   167.6623   0.7072449  53.80905   319.4293   358.2781   38.84885  
265.4807999999999 164.2093   167.6623   0.7088013  56.83256   319.2844   358.1309   38.8465   
265.6331999999999 164.2093   169.0438   0.7068787  56.1281    319.0534   357.7709   38.71756  
265.7855999999999 165.8455   169.4786   0.706665   56.04431   318.7421   356.6803   37.9382   
265.9379999999999 164.2093   168.3531   0.7045593  54.07949   318.222    356.4133   38.19131  
266.0903999999999 164.2093   167.317    0.7030029  51.36622   317.772    356.6429   38.87097  
266.2427999999999 166.9745   170.4253   0.7064819  47.15599   317.5085   358.0901   40.5816   
266.3951999999999 168.3773   171.1161   0.708313   48.27875   317.3362   358.1866   40.8504   
266.5475999999999 166.988    171.1161   0.7163086  49.40151   317.4745   357.3245   39.85004  
266.6999999999999 169.072    171.4615   0.7257385  53.25236   317.7602   355.7639   38.00366  
266.8523999999999 164.2093   168.0077   0.7330017  53.11477   318.3558   353.7533   35.39752  
267.0047999999999 162.82     169.3892   0.7428284  53.27734   319.2048   352.1264   32.92157  
267.1571999999999 161.4306   162.8271   0.7532959  56.16297   319.9553   351.9391   31.98383  
267.3095999999999 161.6008   164.7232   0.7579956  64.44045   320.484    351.4612   30.97726  
267.4619999999999 164.2093   167.317    0.7600098  68.30111   321.0421   350.5024   29.46027  
267.6143999999999 164.2093   167.6623   0.7575684  69.23668   321.2217   350.7307   29.50897  
267.7667999999999 164.2093   167.6623   0.7524109  61.30854   321.1761   352.326    31.14996  
267.9191999999999 166.988    168.3531   0.7436523  59.53086   320.8871   352.3543   31.46725  
268.0715999999999 164.5567   167.6623   0.735321   57.19182   320.2334   352.2175   31.9841   
268.2239999999999 166.2933   168.3531   0.7278137  59.05326   319.3315   351.9857   32.65417  
268.3763999999999 165.5986   168.3531   0.723053   56.2463    318.3698   351.3183   32.94849  
268.5287999999999 161.4306   163.8632   0.7210083  51.5682    317.4905   351.1093   33.61884  
268.6811999999999 169.072    170.7707   0.7214661  48.55934   316.5941   350.4857   33.8916   
268.8335999999999 171.8506   174.2245   0.7263538  55.50705   315.4556   349.2591   33.8035   
268.9859999999999 169.7666   173.1884   0.7286682  59.88044   315.1154   348.9535   33.83804  
269.1383999999999 169.7666   172.1522   0.735199   78.04648   314.5936   348.3618   33.76828  
269.2907999999999 161.778    164.8993   0.7394714  93.99165   314.3407   347.3915   33.05081  
269.4431999999999 160.736    162.8271   0.7425842  105.5936   314.169    346.9548   32.7858   
269.5955999999999 158.652    161.1002   0.7442017  103.2398   314.2148   346.8154   32.60056  
269.7479999999999 158.652    161.1002   0.7469177  100.2065   314.1583   346.7265   32.56824  
269.9003999999999 158.652    160.064    0.7471924  96.37027   314.0573   346.3567   32.29941  
270.0527999999999 158.9993   160.064    0.7455139  95.8876    314.0253   346.2949   32.26962  
270.2051999999999 158.652    160.064    0.7448425  96.35542   313.9541   349.5699   35.61578  
270.3575999999999 158.9993   160.064    0.7436523  97.19736   313.9046   347.855    33.95044  
270.5099999999999 158.9993   160.7548   0.7439575  98.89645   313.8576   347.511    33.65332  
270.6623999999999 159.3466   160.7548   0.7449341  98.18239   313.8051   346.631    32.82581  
270.8147999999999 159.3466   161.1002   0.7468567  95.37554   313.9278   345.6882   31.76047  
270.9671999999999 159.3466   160.7548   0.7491455  98.65013   314.0389   345.3308   31.29193  
271.1195999999999 158.652    161.4455   0.7530518  98.47279   314.3536   344.6824   30.3288   
271.2719999999999 158.652    161.1002   0.7567139  100.1571   314.7395   344.3534   29.61386  
271.4243999999999 163.5146   165.9354   0.7603149  96.69513   315.1293   343.5636   28.4343   
271.5767999999999 158.652    161.7909   0.7631531  100.0193   315.4987   343.7356   28.23694  
271.7291999999999 158.652    160.7548   0.764801   105.175    315.9001   344.6111   28.71094  
271.8815999999999 158.9993   160.064    0.7655029  108.7306   316.1313   344.8972   28.7659   
272.0339999999999 158.652    160.064    0.7651062  111.163    316.3164   345.3464   29.03006  
272.1863999999999 158.9993   160.064    0.7631836  109.1245   316.3808   346.3434   29.96259  
272.3387999999999 159.3466   160.064    0.7616882  105.6625   316.4747   346.6374   30.16266  
272.4911999999999 159.3466   160.7548   0.7603149  100.9845   316.5753   345.896    29.32071  
272.6435999999999 160.0413   162.4817   0.7593384  101.142    316.6987   342.9165   26.2178   
272.7959999999999 161.4306   164.2085   0.7598572  102.6392   316.9369   342.55     25.61316  
272.9483999999999 160.0413   162.8271   0.7609253  108.6271   317.3074   342.87     25.56262  
273.1007999999999 158.652    160.064    0.7632751  107.5831   317.6922   342.7538   25.06155  
273.2531999999999 158.652    160.064    0.7648315  103.2789   318.0282   342.5289   24.50073  
273.4055999999999 158.652    161.4455   0.7652283  97.29105   318.3302   341.6808   23.35062  
273.5579999999999 159.3466   162.1363   0.7640381  94.54331   318.4286   340.8215   22.39285  
273.7103999999999 159.3466   161.4455   0.7597046  99.40865   318.4308   339.7173   21.28647  
273.8627999999999 159.3466   160.7548   0.7510071  99.57096   317.9391   339.207    21.26782  
274.0151999999999 159.3466   160.7548   0.7390442  90.91879   317.0175   339.5178   22.50031  
274.1675999999999 159.3466   161.4455   0.7245789  73.69334   315.7461   339.3141   23.56799  
274.3199999999999 164.2093   165.2447   0.7089539  63.22574   314.1905   339.2528   25.06238  
274.4723999999999 159.3467   161.4455   0.6932373  71.55274   312.1841   339.1407   26.9566   
274.6247999999999 159.3466   160.064    0.6838379  86.91078   310.6801   339.0909   28.41083  
274.7771999999999 162.1253   163.1724   0.6739502  103.2697   308.709    337.7072   28.99817  
274.9295999999999 160.0413   161.1002   0.6703491  112.5485   307.2548   336.2548   29        
275.0819999999999 158.652    160.064    0.6690369  118.257    306.3442   334.9893   28.64505  
275.2343999999999 157.9573   160.064    0.6701965  119.9391   305.9289   334.4622   28.53333  
275.3867999999999 157.9573   160.064    0.6748657  117.3893   306.1977   334.2893   28.09155  
275.5391999999999 157.9573   160.064    0.6778259  115.6269   306.6897   332.5992   25.90952  
275.6915999999999 157.9573   160.064    0.6795959  114.7502   307.2265   331.2321   24.00555  
275.8439999999999 157.9573   160.064    0.679657   116.6291   307.9028   329.0493   21.14655  
275.9963999999999 157.61     160.064    0.6776428  117.0353   308.6105   325.6971   17.08652  
276.1487999999999 158.9993   160.064    0.6724854  118.5268   309.1706   324.6117   15.44113  
276.3011999999999 160.0413   161.7909   0.6659851  118.7373   309.5025   323.6952   14.19263  
