~Version
 VERS              .         2.0                           : CWLS LOG ASCII STANDARD - VERSION 2.0
 WRAP              .         NO                            : ONE LINE PER DEPTH STEP
 DLM               .         SPACE                         : DELIMITING CHARACTER(SPACE TAB OR COMMA)
~Well Information
#_______________________________________________________________________________
#
#PARAMETER_NAME    .UNIT     VALUE                         : DESCRIPTION
#_______________________________________________________________________________
STRT               .m        69.1895999999999              : First reference value
STOP               .m        290.9316                      : Last reference value
STEP               .m        0.1524                        : Step increment
NULL               .         -9999                         : Missing value
COMP               .                                       : Company
WELL               .         F                             : Well name
FLD                .                                       : Field
LOC                .                                       : Location
CNTY               .                                       : County
STAT               .                                       : State
CTRY               .                                       : Country
SRVC               .                                       : Service Company
DATE               .                                       : Date
API                .                                       : API number
~Parameter Information Block
#_______________________________________________________________________________
#
#PARAMETER_NAME    .UNIT     VALUE                         : DESCRIPTION
#_______________________________________________________________________________
SET                .         Inclination                   : 
TLFamily_C13       .         Caliper 1                     : 
TLFamily_C24       .         Caliper 2                     : 
TLFamily_DEVI      .         Hole Deviation                : 
TLFamily_GR        .         Gamma Ray                     : 
TLFamily_HAZI      .         Hole Azimuth                  : 
TLFamily_MD        .         Measured Depth                : 
TLFamily_P1AZ      .         Pad A Azimuth                 : 
TLFamily_RB        .         Relative Bearing              : 
~Curve Information
#_______________________________________________________________________________
#
#LOGNAME           .UNIT     LOG_ID                        : DESCRIPTION
#_______________________________________________________________________________
MD                 .m                                      :  
C13                .mm                                     : Caliper 1-3 
C24                .mm                                     : Caliper 2-4 
DEVI               .deg                                    : Deviation 
GR                 .gAPI                                   : Gamma Ray 
HAZI               .deg                                    : Hole Azimuth 
P1AZ               .deg                                    : Pad 1 Azimuth 
RB                 .deg                                    : Relative Bearing 
~Ascii
# ...
211.6835999999999 159.3466   161.4455   0.5215149  75.50554   352.1316   23.99564   31.86407  
211.8359999999999 159.3466   161.1002   0.5197754  76.16053   352.3051   23.38858   31.08344  
211.9883999999999 160.0413   161.7909   0.5191345  79.65544   352.4814   23.08063   30.59918  
212.1407999999999 159.3466   162.4817   0.5186462  80.31026   352.717    22.81403   30.09705  
212.2931999999999 160.736    162.8271   0.5190125  70.11172   352.7909   22.77103   29.98013  
212.4455999999999 158.9993   162.1363   0.5209656  53.42455   352.93     22.65408   29.72406  
212.5979999999999 159.3466   161.4455   0.5236816  39.20299   352.6898   22.23657   29.54681  
212.7503999999999 158.652    161.1002   0.5254822  33.3086    352.361    21.931     29.57004  
212.9027999999999 158.652    160.7548   0.5274658  39.76433   352.2937   21.68045   29.38672  
213.0551999999999 158.652    160.7548   0.5290222  50.62323   352.0951   21.72467   29.62955  
213.2075999999999 159.3466   161.1002   0.5302429  65.68696   352.2057   21.34894   29.14322  
213.3599999999999 159.3466   162.1363   0.53125    74.38836   352.1114   21.16943   29.05807  
213.5123999999999 158.9993   161.4455   0.531311   79.24806   352.1891   21.05511   28.86603  
213.6647999999999 159.3466   162.1363   0.5303345  76.6282    352.3855   20.6683    28.28278  
213.8171999999999 159.3466   161.4455   0.5285339  74.85059   352.7892   19.39709   26.60791  
213.9695999999999 158.652    160.7548   0.5262146  72.17022   353.4831   18.41599   24.93292  
214.1219999999999 159.3466   162.1363   0.5252075  67.67919   353.8068   17.83643   24.0296   
214.2743999999999 158.652    161.7909   0.5232544  59.5392    354.2986   17.86694   23.56839  
214.4267999999999 158.9993   161.1002   0.5239868  47.81077   354.59     17.70566   23.11563  
214.5791999999999 158.652    160.7548   0.525238   43.31975   355.016    18.02939   23.01343  
214.7315999999999 158.652    161.1002   0.5267029  41.16774   355.3401   18.30734   22.96725  
214.8839999999999 158.652    160.7548   0.5278015  44.6296    355.1551   19.18881   24.03372  
215.0363999999999 158.652    160.7548   0.5305786  41.7292    354.9471   19.27139   24.32434  
215.1887999999999 158.652    161.1002   0.53302    37.61239   354.3303   19.19827   24.86801  
215.3411999999999 158.9993   161.4455   0.5354614  29.75313   353.4883   18.57269   25.08441  
215.4935999999999 159.3466   161.1002   0.5352783  26.29126   352.6876   17.70316   25.01559  
215.6459999999999 158.652    160.7548   0.53302    23.3908    351.9457   16.37097   24.42526  
215.7983999999999 158.652    161.4455   0.5305481  25.82349   351.4026   16.15555   24.75293  
215.9507999999999 158.652    161.1002   0.5239258  27.60122   350.87     16.37918   25.50916  
216.1031999999999 158.652    161.4455   0.5177612  34.24412   350.4555   17.93689   27.48135  
216.2555999999999 158.652    160.7548   0.508606   39.81401   350.3363   18.9411    28.60477  
216.4079999999999 158.652    161.1002   0.4986572  43.18217   350.2814   18.73007   28.44867  
216.5603999999999 158.652    161.1002   0.4917908  43.83717   350.3213   18.30661   27.98529  
216.7127999999999 158.9993   160.7548   0.484436   41.91625   350.2881   17.40506   27.11691  
216.8651999999999 158.652    160.7548   0.4799805  40.73301   350.2502   16.60318   26.35294  
217.0175999999999 158.9993   160.7548   0.4762878  40.26532   350.1947   16.01294   25.81824  
217.1699999999999 159.3466   162.8271   0.473877   48.12473   349.8802   16.06458   26.18433  
217.3223999999999 158.9993   161.1002   0.476532   60.62916   349.6465   15.69025   26.04379  
217.4747999999999 158.652    160.7548   0.4773254  71.01455   349.1797   14.99625   25.81662  
217.6271999999999 160.3886   162.8271   0.480957   68.4883    348.8181   15.61551   26.79742  
217.7795999999999 158.652    161.1002   0.48349    59.78703   348.6033   15.4361    26.83279  
217.9319999999999 158.652    161.4455   0.4847717  49.77576   348.1921   15.21921   27.02713  
218.0843999999999 158.652    160.7548   0.4863281  40.33075   348.0286   14.5394    26.5108   
218.2367999999999 158.652    160.7548   0.4862671  34.34262   347.6991   12.92465   25.22556  
218.3891999999999 158.652    160.7548   0.4855957  35.74608   347.4936   12.54144   25.04788  
218.5415999999999 158.652    161.1002   0.4857483  44.06816   347.4086   12.22382   24.81519  
218.6939999999999 158.9993   161.1002   0.4860535  49.68202   347.4612   11.7598    24.29858  
218.8463999999999 158.9993   161.1002   0.4864502  53.70538   347.4963   10.97769   23.48138  
218.9987999999999 159.3466   161.1002   0.4872742  54.36041   347.5448   10.34106   22.79623  
219.1511999999999 158.652    160.7548   0.4886475  64.18457   347.5587   9.986206   22.42755  
219.3035999999999 158.652    161.4455   0.4911804  72.6051    347.4054   9.942627   22.5372   
219.4559999999999 158.8308   160.9326   0.4950562  85.89115   347.1324   9.907104   22.77475  
219.6083999999999 159.3466   160.7548   0.497467   87.76242   346.9159   9.368896   22.45303  
219.7607999999999 158.9797   160.9177   0.5016174  88.32377   346.4791   9.254395   22.77527  
219.9131999999999 158.652    161.4455   0.5040588  84.37741   346.1031   9.515625   23.41248  
220.0655999999999 158.9993   160.7548   0.5085754  83.72247   345.8775   9.638428   23.76096  
220.2179999999999 158.652    160.7548   0.5100098  77.17326   345.7317   9.614899   23.88321  
220.3703999999999 158.652    160.7548   0.5115051  63.99738   345.5819   9.590698   24.00879  
220.5227999999999 159.694    161.4455   0.5157166  48.55939   345.5668   9.594788   24.02798  
220.6751999999999 158.652    160.7548   0.5214844  43.8063    345.3578   9.155243   23.79745  
220.8275999999999 159.3466   162.8271   0.5248718  38.92234   345.2746   8.831726   23.55716  
220.9799999999999 158.652    162.8271   0.5250549  36.2091    345.0633   8.172455   23.10919  
221.1323999999999 158.9993   161.4455   0.5263062  46.68824   344.9037   7.666931   22.76328  
221.2847999999999 158.652    160.7548   0.5253296  57.35438   344.3192   7.530182   23.21103  
221.4371999999999 158.652    160.7548   0.5236511  62.31314   343.6453   6.709381   23.06409  
221.5895999999999 158.652    160.7548   0.5195923  65.86845   343.126    5.749817   22.62378  
221.7419999999999 158.652    161.4455   0.5166321  63.99715   342.4505   5.482635   23.0321   
221.8943999999999 158.9993   161.1002   0.5118408  65.58781   341.6442   5.0867     23.44254  
222.0467999999999 158.652    160.7548   0.5056763  60.53534   340.8441   4.386658   23.54254  
222.1991999999999 158.652    160.7548   0.4989014  53.14388   340.1989   3.534332   23.33539  
222.3515999999999 158.652    160.7548   0.494751   44.06815   339.5574   2.646667   23.08929  
222.5039999999999 158.9993   160.7548   0.4869385  45.28453   339.2702   1.827606   22.5574   
222.6563999999999 158.9993   160.7548   0.4791565  51.02639   339.1229   0.718811   21.59595  
222.8087999999999 159.3466   161.1002   0.4718018  52.42989   339.0313   0.1047058  21.07343  
222.9611999999999 158.9993   160.064    0.4673767  42.82027   339.2433   0.3014221  21.0582   
223.1135999999999 159.3466   160.064    0.4608459  33.71014   339.4615   1.063507   21.60202  
223.2659999999999 162.82     163.8632   0.4562378  35.58144   339.7766   1.463135   21.68649  
223.4183999999999 164.2093   165.5901   0.4541321  43.60042   340.1714   0.9775391  20.80618  
223.5707999999999 161.0833   162.8271   0.4508362  47.81087   340.4648   359.562    19.09723  
223.7231999999999 160.736    162.8271   0.4492188  45.28475   340.7367   358.8117   18.07498  
223.8755999999999 159.694    161.4455   0.4467468  44.62992   340.8458   358.4426   17.5968   
224.0279999999999 160.0413   162.8271   0.4442749  44.53622   340.9599   358.4742   17.51428  
224.1803999999999 160.0413   162.8271   0.4412231  46.59456   340.9644   358.9282   17.96387  
224.3327999999999 160.736    163.5178   0.4364624  48.37214   340.8921   358.6931   17.80103  
224.4851999999999 159.3466   160.7548   0.4347229  53.05055   340.6595   358.8829   18.22339  
