~Version
 VERS              .         2.0                           : CWLS LOG ASCII STANDARD - VERSION 2.0
 WRAP              .         NO                            : ONE LINE PER DEPTH STEP
 DLM               .         SPACE                         : DELIMITING CHARACTER(SPACE TAB OR COMMA)
~Well Information
#_______________________________________________________________________________
#
#PARAMETER_NAME    .UNIT     VALUE                         : DESCRIPTION
#_______________________________________________________________________________
STRT               .m        69.1895999999999              : First reference value
STOP               .m        290.9316                      : Last reference value
STEP               .m        0.1524                        : Step increment
NULL               .         -9999                         : Missing value
COMP               .                                       : Company
WELL               .         F                             : Well name
FLD                .                                       : Field
LOC                .                                       : Location
CNTY               .                                       : County
STAT               .                                       : State
CTRY               .                                       : Country
SRVC               .                                       : Service Company
DATE               .                                       : Date
API                .                                       : API number
~Parameter Information Block
#_______________________________________________________________________________
#
#PARAMETER_NAME    .UNIT     VALUE                         : DESCRIPTION
#_______________________________________________________________________________
SET                .         Inclination                   : 
TLFamily_C13       .         Caliper 1                     : 
TLFamily_C24       .         Caliper 2                     : 
TLFamily_DEVI      .         Hole Deviation                : 
TLFamily_GR        .         Gamma Ray                     : 
TLFamily_HAZI      .         Hole Azimuth                  : 
TLFamily_MD        .         Measured Depth                : 
TLFamily_P1AZ      .         Pad A Azimuth                 : 
TLFamily_RB        .         Relative Bearing              : 
~Curve Information
#_______________________________________________________________________________
#
#LOGNAME           .UNIT     LOG_ID                        : DESCRIPTION
#_______________________________________________________________________________
MD                 .m                                      :  
C13                .mm                                     : Caliper 1-3 
C24                .mm                                     : Caliper 2-4 
DEVI               .deg                                    : Deviation 
GR                 .gAPI                                   : Gamma Ray 
HAZI               .deg                                    : Hole Azimuth 
P1AZ               .deg                                    : Pad 1 Azimuth 
RB                 .deg                                    : Relative Bearing 
~Ascii
# ...
82.14359999999991 161.4306   164.5539   0.4693604  81.30113   283.1609   129.6816   206.5208  
82.29599999999991 161.4306   163.5178   0.4633484  82.50095   283.8694   131.8627   207.9933  
82.44839999999991 160.736    163.1724   0.4548645  78.85737   284.2554   133.1283   208.8729  
82.60079999999991 160.0413   164.2085   0.4468384  70.71739   284.3166   132.9811   208.6645  
82.75319999999991 160.0413   164.8993   0.4371338  70.22213   284.3435   135.0884   210.7448  
82.90559999999991 160.0413   164.8993   0.4263     68.35094   284.0661   135.129    211.0629  
83.05799999999991 160.0413   164.8993   0.4151611  65.54398   283.506    135.5802   212.0742  
83.21039999999991 161.4306   165.2447   0.4026184  60.9868    282.7826   136.7534   213.9708  
83.36279999999991 161.4306   165.5901   0.3877869  68.84617   281.9964   138.6019   216.6055  
83.51519999999991 161.4306   164.8993   0.3734436  87.8394    280.9951   139.4473   218.4521  
83.66759999999991 161.778    165.2447   0.3583679  104.0865   279.8023   139.0245   219.2222  
83.81999999999991 159.3466   161.4455   0.3416138  116.1562   278.2737   139.2965   221.0227  
83.97239999999989 159.3466   161.7909   0.3243713  118.9301   276.1157   139.1712   223.0555  
84.12479999999989 160.3961   161.4455   0.3090515  122.1609   273.5508   138.435    224.8843  
84.27719999999989 160.736    162.1363   0.3022461  117.108    271.6595   138.4274   226.7679  
84.42959999999989 160.0413   162.1363   0.2948303  115.8314   269.0196   138.7045   229.6849  
84.58199999999989 160.3886   161.4455   0.2914429  116.0678   266.8505   138.4123   231.5619  
84.73439999999989 160.3886   162.4817   0.2913208  113.2612   264.994    137.7608   232.7668  
84.88679999999989 162.82     164.8993   0.2921753  108.1976   263.9377   138.077    234.1393  
85.03919999999989 161.4306   164.8993   0.2923889  105.9962   263.0506   138.1626   235.112   
85.19159999999991 164.2093   164.8993   0.2932434  113.762    262.8788   138.0117   235.1329  
85.34399999999991 164.2093   166.2808   0.2923279  117.0314   263.2012   138.5916   235.3904  
85.49639999999989 161.4306   164.8993   0.2911682  111.8854   264.1044   138.8084   234.704   
85.64879999999989 161.4306   164.8993   0.2893982  108.3629   265.1676   138.4826   233.315   
85.80119999999989 161.4306   165.2447   0.2875977  101.7364   266.0469   138.4971   232.4502  
85.95359999999989 161.0833   163.1724   0.285614   97.33895   266.96     138.0883   231.1283  
86.1059999999999 161.0833   164.5539   0.2845154  93.77264   267.4064   138.2123   230.806   
86.2583999999999 161.4306   165.2447   0.2826843  97.14091   267.6971   137.6972   230       
86.4107999999999 161.4306   164.8993   0.282959   103.7838   267.3304   137.4624   230.132   
86.5631999999999 164.2093   165.5901   0.2816772  109.3755   266.45     137.4612   231.0112  
86.7155999999999 163.5146   168.3531   0.2796631  114.1196   264.942    138.3273   233.3853  
86.8679999999999 164.2093   167.6623   0.2782593  116.4587   263.6738   138.5877   234.9139  
87.0203999999999 161.4306   164.8993   0.2771606  113.5417   261.8992   138.2325   236.3333  
87.1727999999999 161.4306   164.8993   0.2779846  110.669    260.3411   138.828    238.4869  
87.3251999999999 161.4306   164.8993   0.2771301  112.6338   259.4238   138.8109   239.3871  
87.4775999999999 161.4306   164.8993   0.2790222  119.0731   258.6854   138.6288   239.9434  
87.6299999999999 161.4306   164.2085   0.27948    125.2484   258.5208   138.3245   239.8037  
87.7823999999999 161.4306   164.8993   0.2816162  126.9379   258.5008   138.5063   240.0055  
87.9347999999999 161.4306   163.5178   0.2821655  118.9246   259.0214   139.9964   240.975   
88.0871999999999 161.0833   162.8271   0.2840576  114.1361   259.3111   141.2375   241.9265  
88.2395999999999 160.736    162.8271   0.2857056  103.558    259.6168   142.2073   242.5905  
88.3919999999999 160.0413   162.8271   0.287384   101.1693   259.4532   143.4695   244.0162  
88.5443999999999 160.0413   162.1363   0.2864075  96.03984   258.7538   144.0844   245.3306  
88.6967999999999 160.0413   162.8271   0.2875366  101.0703   258.1612   144.2172   246.056   
88.8491999999999 159.694    162.1363   0.2844849  99.2485    256.5338   143.938    247.4043  
89.0015999999999 159.3466   161.4455   0.2815857  102.8974   254.4763   143.4141   248.9377  
89.1539999999999 160.736    162.8271   0.2802124  101.2134   252.8063   143.7588   250.9525  
89.3063999999999 160.3886   162.8271   0.2773438  101.9621   250.282    143.8904   253.6084  
89.4587999999999 160.736    162.8271   0.2758484  98.39003   247.8337   144.7377   256.904   
89.6111999999999 160.736    162.8271   0.2747192  90.55273   245.8418   145.3345   259.4928  
89.7635999999999 160.736    162.8271   0.2742615  88.4941    244.7688   143.4215   258.6527  
89.9159999999999 160.0413   162.8271   0.2744751  87.76243   244.0304   143.1201   259.0897  
90.0683999999999 160.0413   162.8271   0.2763672  97.48186   244.2896   142.4397   258.1501  
90.2207999999999 160.0413   162.8271   0.2766113  100.9437   244.9994   141.3954   256.3959  
90.3731999999999 160.3886   163.5178   0.2794495  103.7561   246.3257   139.6816   253.3559  
90.5255999999999 161.0833   162.8271   0.2822876  97.96618   248.1593   138.2323   250.073   
90.6779999999999 161.4306   163.5178   0.2828674  93.6626    249.7468   137.9987   248.2519  
90.8303999999999 160.736    161.7909   0.2854004  90.98769   251.9018   137.3094   245.4076  
90.9827999999999 160.0413   162.8271   0.2867737  90.23923   253.8047   136.2063   242.4015  
91.1351999999999 160.736    162.1363   0.2870178  92.76521   255.5034   135.3654   239.862   
91.2875999999999 161.4306   164.5539   0.2872925  96.52975   256.9495   134.1883   237.2388  
91.4399999999999 161.0833   164.5539   0.2872314  97.09115   258.3698   133.2661   234.8963  
91.5923999999999 161.4306   166.2808   0.2858887  99.5293    259.8671   132.9998   233.1327  
91.7447999999999 160.736    164.5539   0.2843018  98.24706   260.676    133.5914   232.9155  
91.8971999999999 160.3886   163.5178   0.2805481  100.0633   261.699    133.7256   232.0266  
92.0495999999999 161.4306   163.5178   0.2753296  100.8999   262.296    133.17     230.874   
92.2019999999999 161.4306   164.8993   0.2698364  95.56674   262.9219   132.9293   230.0074  
92.3543999999999 159.3466   161.7909   0.2618713  90.71249   263.3237   132.5722   229.2485  
92.5067999999999 158.652    162.8271   0.2532349  82.9468    263.8958   132.5798   228.684   
92.6591999999999 158.9993   161.4455   0.2449951  79.11068   264.351    133.005    228.654   
92.8115999999999 159.3466   161.4455   0.2362671  80.83887   264.8212   133.4277   228.6065  
92.9639999999999 161.0833   164.2086   0.2273865  81.13043   264.8147   133.6111   228.7964  
93.1163999999999 161.4306   164.2085   0.2188416  83.46951   265.3595   134.0113   228.6517  
93.2687999999999 159.3466   162.8271   0.2149048  79.72696   265.6299   133.7523   228.1224  
93.4211999999999 161.4306   164.5539   0.2099304  79.71595   266.3699   134.3366   227.9667  
93.5735999999999 160.736    162.8271   0.2061768  80.99265   267.404    134.5671   227.1632  
93.7259999999999 160.736    162.8271   0.2047424  83.33176   267.7703   133.8035   226.0331  
93.8783999999999 159.3466   162.4817   0.2022095  82.77046   268.5469   133.2485   224.7016  
94.0307999999999 160.3886   163.8632   0.2002869  81.87899   269.4005   133.3038   223.9033  
94.1831999999999 160.736    162.8271   0.1991882  83.46953   270.4661   133.4022   222.9361  
94.3355999999999 161.4306   163.5178   0.1983032  86.36983   271.033    133.1493   222.1163  
94.4879999999999 159.3466   162.8271   0.1976624  86.56791   272.2433   132.7425   220.4992  
94.6403999999999 160.736    163.8632   0.1978149  84.79031   273.2087   133.4348   220.2261  
94.7927999999999 161.0833   163.1724   0.1966248  81.27342   273.9526   133.9809   220.0284  
94.9451999999999 160.736    162.8271   0.1961975  77.32182   274.7331   134.1443   219.4113  
