~Version
 VERS              .         2.0                           : CWLS LOG ASCII STANDARD - VERSION 2.0
 WRAP              .         NO                            : ONE LINE PER DEPTH STEP
 DLM               .         SPACE                         : DELIMITING CHARACTER(SPACE TAB OR COMMA)
~Well Information
#_______________________________________________________________________________
#
#PARAMETER_NAME    .UNIT     VALUE                         : DESCRIPTION
#_______________________________________________________________________________
STRT               .m        69.1895999999999              : First reference value
STOP               .m        290.9316                      : Last reference value
STEP               .m        0.1524                        : Step increment
NULL               .         -9999                         : Missing value
COMP               .                                       : Company
WELL               .         F                             : Well name
FLD                .                                       : Field
LOC                .                                       : Location
CNTY               .                                       : County
STAT               .                                       : State
CTRY               .                                       : Country
SRVC               .                                       : Service Company
DATE               .                                       : Date
API                .                                       : API number
~Parameter Information Block
#_______________________________________________________________________________
#
#PARAMETER_NAME    .UNIT     VALUE                         : DESCRIPTION
#_______________________________________________________________________________
SET                .         Inclination                   : 
TLFamily_C13       .         Caliper 1                     : 
TLFamily_C24       .         Caliper 2                     : 
TLFamily_DEVI      .         Hole Deviation                : 
TLFamily_GR        .         Gamma Ray                     : 
TLFamily_HAZI      .         Hole Azimuth                  : 
TLFamily_MD        .         Measured Depth                : 
TLFamily_P1AZ      .         Pad A Azimuth                 : 
TLFamily_RB        .         Relative Bearing              : 
~Curve Information
#_______________________________________________________________________________
#
#LOGNAME           .UNIT     LOG_ID                        : DESCRIPTION
#_______________________________________________________________________________
MD                 .m                                      :  
C13                .mm                                     : Caliper 1-3 
C24                .mm                                     : Caliper 2-4 
DEVI               .deg                                    : Deviation 
GR                 .gAPI                                   : Gamma Ray 
HAZI               .deg                                    : Hole Azimuth 
P1AZ               .deg                                    : Pad 1 Azimuth 
RB                 .deg                                    : Relative Bearing 
~Ascii
# ...
198.7295999999999 164.2093   171.1161   0.5003357  98.99023   3.832733   66.77448   62.94174  
198.8819999999999 164.2093   173.1884   0.5008545  99.36436   3.802063   66.16217   62.36011  
199.0343999999999 164.2093   172.1522   0.5011902  95.43472   3.861603   65.52896   61.66733  
199.1867999999999 164.2093   170.4253   0.5036621  95.52801   4.068695   64.17871   60.10999  
199.3391999999999 164.2093   171.8069   0.5042114  92.34708   3.902405   62.99188   59.08948  
199.4915999999999 164.2093   168.3531   0.5055237  100.1129   3.877472   61.60986   57.73239  
199.6439999999999 164.2093   167.317    0.5061951  100.4872   3.670746   59.6095    55.93875  
199.7963999999999 163.862    168.3531   0.5056152  102.3581   3.483765   58.84061   55.35684  
199.9487999999999 164.2093   170.7707   0.5081787  98.10362   3.399872   58.48386   55.08398  
200.1011999999999 164.2093   173.1884   0.5073853  98.01022   3.198151   59.00281   55.80466  
200.2535999999999 164.2093   171.4615   0.508728   97.35535   3.063416   58.03445   54.97104  
200.4059999999999 164.2093   170.4253   0.5069885  98.14793   2.771851   56.47525   53.70337  
200.5583999999999 164.2093   171.4615   0.5063782  97.39948   2.478729   56.27887   53.80014  
200.7107999999999 166.6406   171.1161   0.5033569  98.33512   2.402802   55.54196   53.13916  
200.8631999999999 166.2933   171.1161   0.5036316  95.43471   2.216583   54.02884   51.81226  
201.0155999999999 166.988    173.1884   0.5035095  93.09561   2.24234    50.41943   48.17709  
201.1679999999999 166.988    173.1884   0.5031128  90.19505   2.254211   48.71347   46.45926  
201.3203999999999 164.2093   171.1161   0.500885   87.94967   2.394653   47.73618   45.34152  
201.4727999999999 162.1253   167.6623   0.5020752  90.38208   2.292938   47.31589   45.02295  
201.6251999999999 161.4306   167.317    0.50177    90.75655   2.671539   47.15033   44.47879  
201.7775999999999 164.2093   170.4253   0.5006714  94.49888   2.967712   45.77527   42.80756  
201.9299999999999 161.778    165.5901   0.5000916  93.18913   2.900909   44.5477    41.64682  
202.0823999999999 161.4306   162.8271   0.5012817  91.41129   3.160522   44.18024   41.01971  
202.2347999999999 161.4306   165.5901   0.500061   88.8853    3.072388   43.44513   40.37274  
202.3871999999999 164.2093   170.4253   0.4985657  92.25358   3.197266   41.54364   38.34637  
202.5395999999999 164.2093   170.4253   0.4975281  95.24773   3.262543   39.9679    36.70535  
202.6919999999999 164.2093   168.3531   0.4947815  94.40535   3.439972   38.23608   34.79614  
202.8443999999999 164.2093   168.3531   0.492981   90.75629   3.36853    37.97864   34.61011  
202.9967999999999 164.2093   165.2447   0.4915771  84.6856    3.278717   36.94067   33.66196  
203.1491999999999 160.736    164.2085   0.4890137  78.13629   3.555939   35.92508   32.36914  
203.3015999999999 158.9993   161.4455   0.484314   74.4874    3.418823   35.3479    31.92908  
203.4539999999999 161.4306   164.8993   0.4816895  76.7218    3.493408   34.59528   31.10187  
203.6063999999999 160.0413   162.8271   0.4778442  77.00237   3.304443   35.63181   32.32739  
203.7587999999999 160.736    162.8271   0.473938   70.64571   3.166046   36.85553   33.68948  
203.9111999999999 161.4306   164.8993   0.4719238  66.62247   2.884644   37.50562   34.621    
204.0635999999999 160.736    163.8632   0.4725037  64.3771    2.464203   36.34726   33.88306  
204.2159999999999 160.0413   162.1363   0.4718323  65.96217   2.08139    35.6937    33.6123   
204.3683999999999 160.0413   162.4817   0.4727783  65.02656   1.646545   35.97574   34.32919  
204.5207999999999 159.3466   162.8271   0.4736938  69.89182   1.1745     36.2352    35.0607   
204.6731999999999 160.0413   162.8271   0.4745483  79.5287    0.921814   36.31628   35.39447  
204.8255999999999 161.0833   162.8271   0.4759521  84.11351   0.5362549  36.62943   36.09317  
204.9779999999999 164.2093   165.5901   0.4788208  86.07813   0.2285767  35.84723   35.61865  
205.1303999999999 161.4306   164.8993   0.4816284  76.25407   0.04833984 35.33908   35.29074  
205.2827999999999 159.3466   161.1002   0.4836426  73.07287   359.6342   34.73746   35.10333  
205.4351999999999 159.3466   160.7548   0.4866028  69.04986   359.6246   34.3996    34.77502  
205.5875999999999 159.3466   160.7548   0.4888916  71.95016   359.179    32.63113   33.45221  
205.7399999999999 160.3886   162.8271   0.4922791  74.10213   358.8455   28.38644   29.54095  
205.8923999999999 160.3886   162.8271   0.4950256  72.88565   358.5689   33.49692   34.92798  
206.0447999999999 161.778    163.8632   0.4979553  72.0547    358.3122   33.74826   35.43613  
206.1971999999999 160.0413   161.4455   0.5003357  70.5576    358.0014   33.47672   35.47528  
206.3495999999999 160.3886   162.8271   0.504303   73.9258    357.6685   33.22787   35.55942  
206.5019999999999 160.0413   162.8271   0.5076599  74.56973   357.4104   32.70258   35.29218  
206.6543999999999 161.4306   163.5178   0.5084229  78.87359   357.0587   32.41522   35.35651  
206.8067999999999 163.1673   163.8632   0.5095215  81.868     356.7534   32.25317   35.49979  
206.9591999999999 163.1673   165.2447   0.508606   77.8557    356.4214   31.603     35.18161  
207.1115999999999 158.9993   162.1363   0.5082703  65.24451   356.0965   31.09436   34.99789  
207.2639999999999 158.652    160.064    0.5055847  50.26877   355.8954   30.70761   34.81223  
207.4163999999999 158.652    160.064    0.5036316  41.65004   355.7461   30.38773   34.6416   
207.5687999999999 158.652    160.064    0.4996338  40.03976   355.9547   29.15405   33.19934  
207.7211999999999 158.9993   160.064    0.4960938  44.53611   356.0744   28.59082   32.51645  
207.8735999999999 161.4306   164.2085   0.4928894  48.74647   356.4368   28.53302   32.09625  
208.0259999999999 160.736    164.8993   0.4916077  52.67613   356.9771   28.64014   31.66306  
208.1783999999999 158.652    161.1002   0.4932556  53.799     357.4063   28.24335   30.8371   
208.3307999999999 158.652    161.1002   0.4961548  57.16731   357.9069   27.41632   29.50946  
208.4831999999999 158.652    160.7548   0.500946   58.85126   358.5185   27.2067    28.68823  
208.6355999999999 160.0413   162.1363   0.5097961  59.69336   358.6554   27.61115   28.95572  
208.7879999999999 158.652    161.7909   0.5177612  60.62897   358.6924   28.09003   29.39764  
208.9403999999999 160.736    162.4817   0.5276184  60.34839   358.6269   28.19818   29.57129  
209.0927999999999 160.3886   162.8271   0.537323   59.53388   358.5802   27.40628   28.82611  
209.2451999999999 160.736    164.2085   0.5429382  59.97215   358.2531   26.68347   28.43042  
209.3975999999999 158.652    161.4455   0.5452271  59.37782   357.808    27.14441   29.3364   
209.5499999999999 161.0833   162.8271   0.5488281  63.13704   357.6267   27.17548   29.54874  
209.7023999999999 161.0833   163.8632   0.5472412  65.08174   356.9954   26.47079   29.47543  
209.8547999999999 160.0413   161.7909   0.5455933  65.02126   356.5618   26.15738   29.59555  
210.0071999999999 160.3886   162.8271   0.5440369  66.19323   356.0087   26.92673   30.91803  
210.1595999999999 159.3466   162.1363   0.5395203  69.04983   355.5112   27.04333   31.5321   
210.3119999999999 160.3886   162.4817   0.5361938  74.66341   354.7408   26.92606   32.18527  
210.4643999999999 160.736    162.8271   0.5326233  74.28921   354.0341   27.20859   33.17444  
210.6167999999999 160.0413   162.1363   0.5319519  80.09018   353.5818   26.84225   33.26044  
210.7691999999999 161.0833   163.8632   0.5293579  82.33573   352.8252   26.92746   34.10229  
210.9215999999999 159.3466   162.1363   0.530426   87.01398   352.5816   26.85547   34.27383  
211.0739999999999 161.4306   164.8993   0.5314636  83.73924   352.1757   27.17014   34.99448  
211.2263999999999 161.4306   162.8271   0.5285034  85.70415   351.876    26.92917   35.05319  
211.3787999999999 161.0833   163.1724   0.525238   84.20708   351.8609   25.01849   33.15762  
211.5311999999999 159.694    161.4455   0.5244751  80.18365   351.7803   24.56061   32.78027  
