~Version
 VERS              .         2.0                           : CWLS LOG ASCII STANDARD - VERSION 2.0
 WRAP              .         NO                            : ONE LINE PER DEPTH STEP
 DLM               .         SPACE                         : DELIMITING CHARACTER(SPACE TAB OR COMMA)
~Well Information
#_______________________________________________________________________________
#
#PARAMETER_NAME    .UNIT     VALUE                         : DESCRIPTION
#_______________________________________________________________________________
STRT               .m        69.1895999999999              : First reference value
STOP               .m        290.9316                      : Last reference value
STEP               .m        0.1524                        : Step increment
NULL               .         -9999                         : Missing value
COMP               .                                       : Company
WELL               .         F                             : Well name
FLD                .                                       : Field
LOC                .                                       : Location
CNTY               .                                       : County
STAT               .                                       : State
CTRY               .                                       : Country
SRVC               .                                       : Service Company
DATE               .                                       : Date
API                .                                       : API number
~Parameter Information Block
#_______________________________________________________________________________
#
#PARAMETER_NAME    .UNIT     VALUE                         : DESCRIPTION
#_______________________________________________________________________________
SET                .         Inclination                   : 
TLFamily_C13       .         Caliper 1                     : 
TLFamily_C24       .         Caliper 2                     : 
TLFamily_DEVI      .         Hole Deviation                : 
TLFamily_GR        .         Gamma Ray                     : 
TLFamily_HAZI      .         Hole Azimuth                  : 
TLFamily_MD        .         Measured Depth                : 
TLFamily_P1AZ      .         Pad A Azimuth                 : 
TLFamily_RB        .         Relative Bearing              : 
~Curve Information
#_______________________________________________________________________________
#
#LOGNAME           .UNIT     LOG_ID                        : DESCRIPTION
#_______________________________________________________________________________
MD                 .m                                      :  
C13                .mm                                     : Caliper 1-3 
C24                .mm                                     : Caliper 2-4 
DEVI               .deg                                    : Deviation 
GR                 .gAPI                                   : Gamma Ray 
HAZI               .deg                                    : Hole Azimuth 
P1AZ               .deg                                    : Pad 1 Azimuth 
RB                 .deg                                    : Relative Bearing 
~Ascii
# ...
146.9135999999999 160.0413   162.1363   0.2651062  54.03566   50.5589    261.6806   211.1217  
147.0659999999999 160.0413   162.1363   0.2549133  57.591     47.68378   261.312    213.6282  
147.2183999999999 160.0413   162.1363   0.2453308  61.80156   44.71719   261.1582   216.441   
147.3707999999999 160.0413   161.4455   0.2400513  66.75498   42.42859   261.6607   219.2321  
147.5231999999999 159.694    161.1002   0.2355957  68.15839   39.84943   262.3078   222.4584  
147.6755999999999 160.0413   161.4455   0.2349854  69.18752   37.74854   262.9922   225.2437  
147.8279999999999 160.0413   161.4455   0.2360229  67.4592    36.86392   264.1293   227.2654  
147.9803999999999 160.3886   161.4455   0.237915   68.48833   36.57251   264.3527   227.7802  
148.1327999999999 160.736    160.7548   0.2400208  64.09081   36.97867   264.0409   227.0622  
148.2851999999999 160.736    161.1002   0.2418213  61.37758   38.23407   264.7686   226.5345  
148.4375999999999 160.736    161.1002   0.2417908  56.02252   39.97217   265.9122   225.9401  
148.5899999999999 160.736    161.4455   0.2402039  55.64825   41.19998   266.2381   225.0381  
148.7423999999999 161.0833   164.2085   0.2362061  56.95805   43.92801   267.2402   223.3122  
148.8947999999999 161.4306   162.1363   0.2312317  59.78697   46.76263   267.9765   221.2138  
149.0471999999999 159.3466   161.7909   0.2245178  58.47709   50.12582   268.706    218.5802  
149.1995999999999 158.9993   160.7548   0.2192993  58.85132   53.17361   269.0014   215.8278  
149.3519999999999 159.3466   160.7548   0.2132568  55.52697   57.10498   269.3405   212.2355  
149.5043999999999 160.736    163.1724   0.2095642  59.83089   60.95709   270.8464   209.8893  
149.6567999999999 161.4306   162.8271   0.2058716  60.86012   64.44711   271.0363   206.5892  
149.8091999999999 161.0833   164.5539   0.2043152  64.74574   67.04556   271.4216   204.3761  
149.9615999999999 161.4306   162.8271   0.2023621  63.67793   69.52722   272.5217   202.9945  
150.1139999999999 160.736    163.1724   0.2006836  62.74228   71.73068   273.442    201.7113  
150.2663999999999 158.652    161.4455   0.2010193  62.46169   73.64658   274.8073   201.1607  
150.4187999999999 158.652    161.1002   0.2017517  62.50028   74.65173   276.4292   201.7775  
150.5711999999999 158.652    161.1002   0.2029114  63.48      75.90567   278.4868   202.5811  
150.7235999999999 159.3466   160.7548   0.2047729  63.57359   76.67844   280.7383   204.0598  
150.8759999999999 161.4306   162.8271   0.2048035  60.95927   77.61359   282.2457   204.6321  
151.0283999999999 161.4306   162.8271   0.2054443  59.13749   78.44125   282.5079   204.0667  
151.1807999999999 161.4306   162.8271   0.2037964  57.02391   79.54993   281.6017   202.0518  
151.3331999999999 161.0833   162.8271   0.2002563  55.70866   80.1795    281.3296   201.1501  
151.4855999999999 161.4306   164.8993   0.1962585  57.20564   80.6037    281.4116   200.8079  
151.6379999999999 161.4306   162.8271   0.1893921  61.7518    80.74435   282.0966   201.3523  
151.7903999999999 160.0413   162.8271   0.182251   65.64287   80.82147   282.4576   201.6361  
151.9427999999999 160.0413   162.8271   0.1743469  65.64289   81.05066   284.4576   203.4069  
152.0951999999999 158.9993   162.1363   0.1686401  62.64888   80.75394   285.5463   204.7924  
152.2475999999999 159.3466   161.1002   0.1627808  63.15524   81.01044   285.6867   204.6762  
152.3999999999999 158.652    161.1002   0.1575928  61.39961   80.78442   284.996    204.2116  
152.5523999999999 159.3466   160.7548   0.1552734  60.46396   80.29001   284.6205   204.3305  
152.7047999999999 159.3466   160.064    0.1552734  58.12492   80.26266   284.5192   204.2565  
152.8571999999999 158.652    161.1002   0.1556396  61.19057   79.68991   283.1082   203.4183  
153.0095999999999 158.652    161.1002   0.1563416  63.06174   79.44528   284.2443   204.799   
153.1619999999999 158.652    161.4455   0.1573486  64.79539   78.83148   283.9674   205.1359  
153.3143999999999 159.3466   162.1363   0.1575623  63.11118   78.28662   284.0108   205.7241  
153.4667999999999 158.652    161.1002   0.1585083  64.04691   77.38434   284.4581   207.0737  
153.6191999999999 158.652    160.7548   0.1587524  65.533     76.3674    285.4742   209.1068  
153.7715999999999 159.3466   161.1002   0.1585388  67.31061   75.25705   285.5601   210.3031  
153.9239999999999 158.652    161.4455   0.1587524  65.86864   74.78799   285.8005   211.0125  
154.0763999999999 158.652    161.1002   0.158905   64.89437   73.96826   285.7423   211.774   
154.2287999999999 158.652    161.4455   0.1600647  65.17519   73.40027   286.4234   213.0231  
154.3811999999999 158.652    161.4455   0.1591187  66.76016   73.53989   286.5059   212.966   
154.5335999999999 158.652    161.4455   0.1600647  68.35083   73.35135   286.1953   212.844   
154.6859999999999 159.3466   160.7548   0.1598511  69.47347   73.64368   286.6646   213.0209  
154.8383999999999 158.9993   161.1002   0.1588745  68.68102   74.31351   287.1721   212.8586  
154.9907999999999 158.9993   161.4455   0.1588135  71.58138   74.8342    288.6234   213.7892  
155.1431999999999 158.652    161.1002   0.1579895  69.89732   75.71356   289.2535   213.5399  
155.2955999999999 159.3466   160.7548   0.1576843  72.97936   76.54932   289.8703   213.321   
155.4479999999999 158.652    161.1002   0.1572266  69.06613   77.21756   290.747    213.5294  
155.6003999999999 158.652    160.7548   0.1573792  69.25327   77.60028   291.2175   213.6172  
155.7527999999999 159.3466   161.1002   0.157959   65.04621   77.8707    292.0247   214.154   
155.9051999999999 158.652    161.1002   0.1591187  63.6594    78.01801   292.3483   214.3303  
156.0575999999999 158.652    161.1002   0.1609802  62.63029   77.85132   293.0618   215.2105  
156.2099999999999 159.3466   161.4455   0.163269   64.49813   77.21957   293.3208   216.1012  
156.3623999999999 158.652    160.7548   0.1662903  66.80421   76.60132   294.0146   217.4133  
156.5147999999999 158.652    161.4455   0.1698914  65.85748   75.7431    295.0948   219.3517  
156.6671999999999 158.652    160.7548   0.1733398  66.69976   75.13611   294.6302   219.494   
156.8195999999999 158.652    161.4455   0.1768799  66.79328   74.70038   294.1288   219.4284  
156.9719999999999 158.9993   161.1002   0.1805725  69.8918    74.38895   293.8113   219.4224  
157.1243999999999 158.652    161.4455   0.1826782  69.89169   74.30728   293.1281   218.8208  
157.2767999999999 159.3466   161.4455   0.1834412  71.20158   74.48929   292.8134   218.3241  
157.4291999999999 158.9993   161.4455   0.1831665  72.60509   74.67725   292.4142   217.7369  
157.5815999999999 158.652    161.4455   0.1817322  73.16672   74.84509   292.1669   217.3218  
157.7339999999999 158.652    161.1002   0.1800232  70.64602   75.25739   292.1674   216.91    
157.8863999999999 158.652    161.1002   0.1777649  69.33598   75.27859   292.6409   217.3623  
158.0387999999999 158.652    161.4455   0.1751709  66.89225   75.20999   293.9111   218.7011  
158.1911999999999 158.652    160.7548   0.1722412  65.57696   74.97406   293.1257   218.1516  
158.3435999999999 158.652    161.1002   0.1702576  60.61816   74.35568   292.8214   218.4657  
158.4959999999999 158.652    161.4455   0.1681213  59.92455   73.75354   291.9384   218.1849  
158.6483999999999 159.3466   161.1002   0.1668091  58.52112   72.8869    291.147    218.2601  
158.8007999999999 159.3466   161.4455   0.1660461  61.4216    71.72568   290.4744   218.7487  
158.9531999999999 158.652    161.4455   0.1659241  63.34247   70.52756   290.506    219.9784  
159.1055999999999 158.652    161.4455   0.1654663  65.68138   69.05252   290.3839   221.3314  
159.2579999999999 158.652    161.1002   0.1645813  67.02444   67.39545   290.1649   222.7695  
159.4103999999999 159.3466   161.4455   0.1626282  67.86642   65.86444   290.4323   224.5679  
159.5627999999999 159.3466   161.1002   0.1603088  69.27007   64.62411   290.506    225.8819  
159.7151999999999 158.9993   160.7548   0.1559448  69.23698   63.49689   291.8765   228.3796  
