~Version
 VERS              .         2.0                           : CWLS LOG ASCII STANDARD - VERSION 2.0
 WRAP              .         NO                            : ONE LINE PER DEPTH STEP
 DLM               .         SPACE                         : DELIMITING CHARACTER(SPACE TAB OR COMMA)
~Well Information
#_______________________________________________________________________________
#
#PARAMETER_NAME    .UNIT     VALUE                         : DESCRIPTION
#_______________________________________________________________________________
STRT               .m        69.1895999999999              : First reference value
STOP               .m        290.9316                      : Last reference value
STEP               .m        0.1524                        : Step increment
NULL               .         -9999                         : Missing value
COMP               .                                       : Company
WELL               .         F                             : Well name
FLD                .                                       : Field
LOC                .                                       : Location
CNTY               .                                       : County
STAT               .                                       : State
CTRY               .                                       : Country
SRVC               .                                       : Service Company
DATE               .                                       : Date
API                .                                       : API number
~Parameter Information Block
#_______________________________________________________________________________
#
#PARAMETER_NAME    .UNIT     VALUE                         : DESCRIPTION
#_______________________________________________________________________________
SET                .         Inclination                   : 
TLFamily_C13       .         Caliper 1                     : 
TLFamily_C24       .         Caliper 2                     : 
TLFamily_DEVI      .         Hole Deviation                : 
TLFamily_GR        .         Gamma Ray                     : 
TLFamily_HAZI      .         Hole Azimuth                  : 
TLFamily_MD        .         Measured Depth                : 
TLFamily_P1AZ      .         Pad A Azimuth                 : 
TLFamily_RB        .         Relative Bearing              : 
~Curve Information
#_______________________________________________________________________________
#
#LOGNAME           .UNIT     LOG_ID                        : DESCRIPTION
#_______________________________________________________________________________
MD                 .m                                      :  
C13                .mm                                     : Caliper 1-3 
C24                .mm                                     : Caliper 2-4 
DEVI               .deg                                    : Deviation 
GR                 .gAPI                                   : Gamma Ray 
HAZI               .deg                                    : Hole Azimuth 
P1AZ               .deg                                    : Pad 1 Azimuth 
RB                 .deg                                    : Relative Bearing 
~Ascii
# ...
159.8675999999999 159.3466   160.7548   0.1506653  70.33763   62.3949    294.5102   232.1153  
160.0199999999999 159.3466   161.4455   0.1440735  72.77028   61.21414   297.4153   236.2011  
160.1723999999999 159.3466   161.1002   0.1385498  80.06818   61.17456   300.0325   238.858   
160.3247999999999 159.3466   161.4455   0.132019   84.52625   59.98669   301.9756   241.9889  
160.4771999999999 160.3886   161.4455   0.1262817  90.88836   59.54031   303.084    243.5437  
160.6295999999999 161.4306   162.8271   0.1214905  89.85926   59.17212   303.4517   244.2796  
160.7819999999999 161.4306   162.8271   0.1172791  93.72289   58.75089   303.8814   245.1305  
160.9343999999999 161.4306   162.8271   0.1130981  93.44234   58.27234   304.6739   246.4016  
161.0867999999999 161.4306   162.8271   0.1105652  96.71692   57.24835   304.1723   246.924   
161.2391999999999 161.4306   162.8271   0.1095581  94.93367   56.94193   303.8784   246.9365  
161.3915999999999 161.4306   162.8271   0.1085815  97.36633   55.6405    304.1556   248.5151  
161.5439999999999 164.2093   164.8993   0.1092834  94.98892   54.3898    303.722    249.3322  
161.6963999999999 160.736    162.4817   0.1082458  95.86395   53.56345   303.1315   249.568   
161.8487999999999 159.3466   161.4455   0.1082458  90.25016   52.38144   304.705    252.3236  
162.0011999999999 159.3466   161.4455   0.1078491  92.81467   51.02164   306.102    255.0804  
162.1535999999999 160.0413   162.8271   0.1092529  94.91166   49.07742   307.5577   258.4803  
162.3059999999999 160.0413   162.8271   0.1110535  101.5546   47.37546   309.0518   261.6763  
162.4583999999999 160.0413   162.8271   0.1132813  101.461    45.39798   309.651    264.253   
162.6107999999999 160.3886   162.8271   0.1156921  98.42867   43.76593   310.4748   266.7089  
162.7631999999999 160.0413   163.8632   0.1192627  96.22719   42.18253   310.7871   268.6046  
162.9155999999999 160.0413   162.8271   0.1229248  97.06951   40.97223   311.1446   270.1724  
163.0679999999999 161.4306   164.8993   0.12677    96.97574   39.98392   311.3545   271.3706  
163.2203999999999 161.4306   164.2086   0.1296997  98.46155   39.66684   310.9433   271.2764  
163.3727999999999 161.4306   165.2447   0.1326904  102.2975   39.50568   307.7759   268.2703  
163.5251999999999 164.2093   165.5901   0.1373291  107.4437   37.83386   307.4557   269.6218  
163.6775999999999 164.2093   170.4253   0.1387024  106.8493   37.74847   307.5324   269.7839  
163.8299999999999 165.5986   168.3531   0.1427917  103.2939   35.00418   303.6033   268.5992  
163.9823999999999 165.2513   168.3531   0.1454163  99.19358   32.79562   304.4094   271.6138  
164.1347999999999 163.1673   168.0077   0.1470947  102.2812   30.90329   304.6421   273.7388  
164.2871999999999 166.6406   170.4253   0.1500244  103.2168   28.73883   306.6116   277.8728  
164.4395999999999 166.6406   168.0077   0.1525879  106.3814   26.12509   307.3062   281.1811  
164.5919999999999 165.2513   169.3892   0.1578064  104.182    24.57196   306.131    281.5591  
164.7443999999999 162.82     164.8993   0.1629333  104.2754   22.72559   304.3271   281.6016  
164.8967999999999 161.4306   162.8271   0.1667175  102.2172   20.67273   304.2752   283.6025  
165.0491999999999 168.03     163.8632   0.1723022  101.5162   19.31137   304.6065   285.2951  
165.2015999999999 166.988    164.8993   0.1764832  101.9456   18.51797   304.1169   285.599   
165.3539999999999 161.4306   162.8271   0.1809692  101.197    18.94238   302.254    283.3116  
165.5063999999999 160.736    162.8271   0.1867981  98.57716   18.33057   302.9603   284.6297  
165.6587999999999 159.3466   162.8271   0.1897583  97.8672    18.41589   304.2485   285.8326  
165.8111999999999 159.3466   162.8271   0.1940613  101.175    17.90768   304.0673   286.1596  
165.9635999999999 159.694    162.8271   0.1980591  101.8301   16.63757   303.9243   287.2868  
166.1159999999999 159.3466   162.8271   0.2010803  98.55521   16.58383   304.1047   287.5209  
166.2683999999999 159.694    162.8271   0.2027893  94.59253   16.315     305.0288   288.7138  
166.4207999999999 158.652    161.4455   0.2042236  95.87469   16.4184    306.4133   289.9949  
166.5731999999999 158.652    161.7909   0.2050171  97.74623   16.10687   308.2457   292.1388  
166.7255999999999 158.652    162.1363   0.2055054  96.43616   16.51117   309.5708   293.0596  
166.8779999999999 158.652    162.1363   0.2062073  95.84206   16.41986   310.4186   293.9988  
167.0303999999999 158.652    162.1363   0.208374   94.90645   16.97049   311.5001   294.5296  
167.1827999999999 158.652    162.4817   0.2098389  93.93788   17.70535   312.6595   294.9541  
167.3351999999999 158.652    160.7548   0.2112732  91.75276   18.18213   313.8077   295.6255  
167.4875999999999 157.2626   160.064    0.2137756  93.34324   18.83975   315.0136   296.1739  
167.6399999999999 158.652    161.4455   0.2155151  92.9471    19.47797   316.1796   296.7016  
167.7923999999999 158.652    160.7548   0.2171631  96.03468   20.10699   316.8933   296.7863  
167.9447999999999 158.652    161.4455   0.2198792  92.75996   20.55908   317.2776   296.7185  
168.0971999999999 158.652    161.1002   0.2216187  94.59253   21.02673   317.9967   296.97    
168.2495999999999 158.652    161.1002   0.223938   89.07222   21.52097   318.6339   297.1129  
168.4019999999999 158.652    160.7548   0.2258301  92.31944   21.60776   318.7487   297.1409  
168.5543999999999 158.652    161.4455   0.2268982  91.10298   21.98889   319.0266   297.0377  
168.7067999999999 158.652    161.4455   0.2287903  95.40716   22.02048   319.7321   297.7116  
168.8591999999999 158.652    161.7909   0.230957   92.15993   21.82709   319.9718   298.1447  
169.0115999999999 157.9573   161.1002   0.2325134  90.10167   21.79849   320.3753   298.5768  
169.1639999999999 157.2626   161.1002   0.2336426  88.83002   21.66412   320.8861   299.222   
169.3163999999999 158.652    161.1002   0.2351379  89.01696   21.50052   321.1793   299.6788  
169.4687999999999 158.652    161.1002   0.2360535  89.01698   21.31082   321.2468   299.936   
169.6211999999999 158.652    161.4455   0.2364807  88.79155   21.39523   321.172    299.7767  
169.7735999999999 157.9573   160.7548   0.2368164  83.9264    21.25623   321.6663   300.41    
169.9259999999999 158.652    161.4455   0.2366028  83.68417   21.4592    322.4751   301.0159  
170.0783999999999 158.652    161.4455   0.2355347  80.5966    21.76813   323.1807   301.4126  
170.2307999999999 158.652    161.4455   0.2358704  83.59052   21.91342   323.4048   301.4914  
170.3831999999999 158.652    161.1002   0.2344971  84.11342   22.21292   324.5805   302.3676  
170.5355999999999 157.61     160.064    0.2322083  90.19504   22.45309   325.7234   303.2704  
170.6879999999999 158.652    161.1002   0.2333374  94.23492   22.47086   325.9861   303.5152  
170.8403999999999 158.652    161.7909   0.232605   98.16444   22.65744   326.5332   303.8758  
170.9927999999999 158.652    161.1002   0.2339172  94.88977   22.95938   327.2031   304.2437  
171.1451999999999 158.652    162.1363   0.2356262  91.78558   23.36166   327.8863   304.5246  
171.2975999999999 158.652    161.4455   0.2372131  92.25356   23.57187   328.043    304.4711  
171.4499999999999 158.652    161.7909   0.2387695  93.94847   24.06717   328.6267   304.5595  
171.6023999999999 158.652    160.7548   0.2410278  97.78452   24.2012    329.0494   304.8482  
171.7547999999999 158.652    161.1002   0.2440491  99.65579   24.67615   329.2434   304.5672  
171.9071999999999 158.652    161.1002   0.2455444  101.2355   25.40991   328.1825   302.7726  
172.0595999999999 158.652    161.1002   0.2477417  100.8613   25.96918   328.4807   302.5115  
172.2119999999999 158.652    160.064    0.2489624  98.42863   26.78586   329.6784   302.8925  
172.3643999999999 158.652    160.064    0.2489319  94.40544   27.30466   330.1673   302.8626  
172.5167999999999 158.652    160.064    0.2504883  91.9728    27.58621   330.4988   302.9126  
172.6691999999999 158.652    160.064    0.2506104  91.59835   28.06708   330.8221   302.755   
