~Version
 VERS              .         2.0                           : CWLS LOG ASCII STANDARD - VERSION 2.0
 WRAP              .         NO                            : ONE LINE PER DEPTH STEP
 DLM               .         SPACE                         : DELIMITING CHARACTER(SPACE TAB OR COMMA)
~Well Information
#_______________________________________________________________________________
#
#PARAMETER_NAME    .UNIT     VALUE                         : DESCRIPTION
#_______________________________________________________________________________
STRT               .m        69.1895999999999              : First reference value
STOP               .m        290.9316                      : Last reference value
STEP               .m        0.1524                        : Step increment
NULL               .         -9999                         : Missing value
COMP               .                                       : Company
WELL               .         F                             : Well name
FLD                .                                       : Field
LOC                .                                       : Location
CNTY               .                                       : County
STAT               .                                       : State
CTRY               .                                       : Country
SRVC               .                                       : Service Company
DATE               .                                       : Date
API                .                                       : API number
~Parameter Information Block
#_______________________________________________________________________________
#
#PARAMETER_NAME    .UNIT     VALUE                         : DESCRIPTION
#_______________________________________________________________________________
SET                .         Inclination                   : 
TLFamily_C13       .         Caliper 1                     : 
TLFamily_C24       .         Caliper 2                     : 
TLFamily_DEVI      .         Hole Deviation                : 
TLFamily_GR        .         Gamma Ray                     : 
TLFamily_HAZI      .         Hole Azimuth                  : 
TLFamily_MD        .         Measured Depth                : 
TLFamily_P1AZ      .         Pad A Azimuth                 : 
TLFamily_RB        .         Relative Bearing              : 
~Curve Information
#_______________________________________________________________________________
#
#LOGNAME           .UNIT     LOG_ID                        : DESCRIPTION
#_______________________________________________________________________________
MD                 .m                                      :  
C13                .mm                                     : Caliper 1-3 
C24                .mm                                     : Caliper 2-4 
DEVI               .deg                                    : Deviation 
GR                 .gAPI                                   : Gamma Ray 
HAZI               .deg                                    : Hole Azimuth 
P1AZ               .deg                                    : Pad 1 Azimuth 
RB                 .deg                                    : Relative Bearing 
~Ascii
69.1895999999999 176.0186   169.3892   0.4936829  67.6739    272.5482   76.85275   164.3046  
69.3419999999999 172.5453   165.2447   0.31604    69.63854   268.5014   77.59818   169.0967  
69.4943999999999 174.6293   164.2086   0.3930359  67.75086   265.3767   78.0488    172.6721  
69.6467999999999 174.9766   169.7346   0.4246216  70.72282   264.2343   77.77634   173.542   
69.7991999999999 176.0186   170.7707   0.4543152  75.8689    263.1595   77.51996   174.3605  
69.9515999999999 175.1425   171.1161   0.4900208  79.93616   262.0468   76.30792   174.2612  
70.1039999999999 175.324    172.1522   0.5173645  82.66058   261.0066   76.65182   175.6453  
70.2563999999999 175.324    171.1161   0.5359802  82.47347   260.8493   76.93289   176.0836  
70.4087999999999 172.5453   167.6623   0.5437317  84.30069   261.3441   77.70093   176.3568  
70.5611999999999 174.6293   167.6623   0.5463562  86.62871   261.9264   79.03067   177.1042  
70.7135999999999 173.24     167.6623   0.5464478  84.38331   263.1352   81.43381   178.2986  
70.8659999999999 171.8506   167.6623   0.5462341  88.89625   264.6633   81.47818   176.8149  
71.0183999999999 169.7666   170.4253   0.5424805  89.28136   265.8534   81.11288   175.2595  
71.1707999999999 172.198    174.5699   0.5358582  95.39041   267.4663   84.42783   176.9615  
71.3231999999999 169.7666   175.2606   0.525116   92.41862   268.8278   86.82239   177.9946  
71.4755999999999 167.3353   171.4615   0.5130005  94.85144   270.0804   88.52164   178.4413  
71.6279999999999 165.2513   174.5699   0.5014038  93.86068   270.8007   90.0282    179.2275  
71.7803999999999 169.072    171.1161   0.4875488  97.83982   271.4427   89.07367   177.6309  
71.9327999999999 174.6293   168.3531   0.4743042  95.02187   271.3487   86.5199    175.1712  
72.0851999999999 176.366    170.4253   0.4649658  95.70435   271.2557   84.07397   172.8183  
72.2375999999999 175.324    168.6984   0.4567871  93.01279   270.3057   81.26672   170.9611  
72.3899999999999 175.324    174.2245   0.4520874  93.49171   268.8401   80.52411   171.6841  
72.5423999999999 174.6293   173.8791   0.4503784  93.20557   267.3071   81.18106   173.874   
72.6947999999999 177.408    175.9514   0.4519043  91.9674    266.0264   81.67987   175.6534  
72.8471999999999 177.408    178.7144   0.4538879  91.09213   264.4512   82.51578   178.0646  
72.9995999999999 177.408    180.4413   0.4565735  92.50123   262.878    81.5571    178.6791  
73.1519999999999 177.408    178.7144   0.4588623  95.40157   261.9735   81.75842   179.785   
73.3043999999999 177.408    178.7144   0.4606323  98.57171   260.7704   82.25714   181.4867  
73.4567999999999 178.45     180.7866   0.4593811  94.92271   259.7056   82.50388   182.7983  
73.6091999999999 178.1026   180.7866   0.4540405  93.45879   258.9592   82.61731   183.6581  
73.7615999999999 179.492    180.7866   0.4513855  92.47374   258.5549   82.10297   183.5481  
73.9139999999999 180.534    181.4774   0.442627   94.25121   258.1569   81.272     183.1151  
74.0663999999999 178.7973   181.4774   0.4356995  85.7314    258.0726   81.95685   183.8842  
74.2187999999999 171.8506   178.369    0.432312   72.63252   258.6403   82.66681   184.0265  
74.3711999999999 169.072    170.7707   0.4291992  57.44233   258.8892   81.49338   182.6042  
74.5235999999999 163.5146   168.0077   0.4290161  50.304     259.8447   83.05093   183.2062  
74.6759999999999 157.61     164.8993   0.4305725  49.32971   260.5525   83.95505   183.4025  
74.8283999999999 159.694    167.6623   0.4320984  48.52068   261.4523   87.14291   185.6906  
74.9807999999999 161.0833   162.8271   0.4371643  49.51691   262.313    88.36029   186.0473  
75.1331999999999 161.4306   162.8271   0.4442749  47.31001   262.7143   89.54443   186.8301  
75.2855999999999 161.4306   164.5539   0.4455566  43.85918   262.4133   91.31705   188.9038  
75.4379999999999 160.3886   164.8993   0.4554138  41.27239   262.258    92.93283   190.6748  
75.5903999999999 159.694    162.8271   0.463501   43.18223   261.8565   94.02011   192.1636  
75.7427999999999 160.3886   162.8271   0.4687195  47.38168   261.1457   96.98236   195.8367  
75.8951999999999 161.4306   162.8271   0.4790344  53.63393   260.6765   99.11728   198.4408  
76.0475999999999 161.4306   162.4817   0.4861755  54.43755   260.4164   101.4915   201.0751  
76.1999999999999 153.7893   160.064    0.4954529  54.79515   260.2115   103.3533   203.1418  
76.3523999999999 158.3047   162.8271   0.500061   50.88193   260.4621   104.8103   204.3482  
76.5047999999999 164.2093   163.8632   0.5034485  46.67154   260.9955   107.2794   206.284   
76.6571999999999 163.1673   165.2447   0.501709   46.12674   262.03     109.7249   207.6949  
76.8095999999999 160.736    161.4455   0.4994812  44.98742   263.6679   111.1964   207.5285  
76.9619999999999 164.2093   165.2447   0.4913635  47.51366   265.7512   112.1338   206.3826  
77.1143999999999 159.694    162.8271   0.4827576  49.29131   268.4903   114.4343   205.944   
77.2667999999999 160.736    162.8271   0.476593   56.22599   270.966    115.7196   204.7536  
77.4191999999999 161.778    165.5901   0.4702454  62.40128   272.9603   115.885    202.9247  
77.5715999999999 161.4306   165.2447   0.4634399  65.76958   274.4243   114.7592   200.3349  
77.7239999999999 161.4306   165.2447   0.4563599  66.66124   274.934    114.1643   199.2303  
77.8763999999999 161.4306   163.8632   0.4520569  65.53837   274.9746   114.2686   199.294   
78.0287999999999 161.4306   164.8993   0.4448242  63.41401   273.6286   115.3982   201.7696  
78.1811999999999 161.4306   163.5178   0.4406128  60.44214   271.8472   117.079    205.2318  
78.3335999999999 161.4306   161.1002   0.4360352  59.88062   269.855    117.5157   207.6608  
78.4859999999999 161.4306   162.8271   0.4359436  59.29159   267.3031   117.3003   209.9972  
78.6383999999999 161.4306   163.5178   0.4386597  57.50827   264.6111   117.295    212.6839  
78.7907999999999 161.4306   162.1363   0.4416504  50.95891   262.9815   117.8821   214.9006  
78.94319999999991 164.2093   167.6623   0.4500122  48.27868   261.0741   118.2587   217.1846  
79.09559999999991 164.2093   165.9354   0.4581909  45.90108   260.1663   118.939    218.7727  
79.24799999999991 164.2093   164.8993   0.4676514  51.14077   260.4648   119.6917   219.2269  
79.40039999999991 164.2093   164.8993   0.4739685  54.28879   260.6264   120.1339   219.5075  
79.55279999999991 161.4306   164.5539   0.4810791  56.76542   261.9829   119.5947   217.6117  
79.70519999999991 161.4306   164.8993   0.4863586  55.73623   263.3531   117.9301   214.577   
79.85759999999991 161.4306   164.5539   0.4875793  54.51997   265.0341   118.4263   213.3922  
80.00999999999991 159.3466   164.8993   0.4854126  52.53853   266.2297   119.0037   212.7739  
80.16239999999991 161.0833   164.5539   0.4803772  49.07662   267.8755   119.1467   211.2712  
80.31479999999991 161.4306   162.1363   0.4729309  46.45133   269.2256   119.0211   209.7955  
80.46719999999991 161.4306   162.8271   0.4654846  44.90491   270.1214   118.7497   208.6283  
80.61959999999991 161.4306   164.2086   0.4577942  47.80537   271.2702   119.7238   208.4536  
80.77199999999991 161.4306   163.8632   0.4510193  51.37183   272.2616   122.2197   209.9581  
80.92439999999991 161.4306   164.8993   0.4472961  54.99876   273.1638   123.4895   210.3257  
81.07679999999991 161.4306   164.8993   0.4455872  52.47245   274.2579   124.4256   210.1676  
81.22919999999991 161.4306   164.8993   0.4487     52.27982   275.616    123.8288   208.2128  
81.38159999999991 161.4306   164.8993   0.4525146  57.13417   276.6117   124.0506   207.4388  
81.53399999999991 161.4306   163.1724   0.4596863  65.83553   278.1109   126.6929   208.582   
81.68639999999991 158.8234   164.379    0.4674377  71.91718   279.5858   125.2849   205.6991  
81.83879999999991 158.3047   163.1724   0.4709473  74.38277   281.017    125.2053   204.1882  
81.99119999999991 160.736    163.5178   0.4706726  76.81013   282.0782   127.1518   205.0736  
