~Version
 VERS              .         2.0                           : CWLS LOG ASCII STANDARD - VERSION 2.0
 WRAP              .         NO                            : ONE LINE PER DEPTH STEP
 DLM               .         SPACE                         : DELIMITING CHARACTER(SPACE TAB OR COMMA)
~Well Information
#_______________________________________________________________________________
#
#PARAMETER_NAME    .UNIT     VALUE                         : DESCRIPTION
#_______________________________________________________________________________
STRT               .m        69.1895999999999              : First reference value
STOP               .m        290.9316                      : Last reference value
STEP               .m        0.1524                        : Step increment
NULL               .         -9999                         : Missing value
COMP               .                                       : Company
WELL               .         F                             : Well name
FLD                .                                       : Field
LOC                .                                       : Location
CNTY               .                                       : County
STAT               .                                       : State
CTRY               .                                       : Country
SRVC               .                                       : Service Company
DATE               .                                       : Date
API                .                                       : API number
~Parameter Information Block
#_______________________________________________________________________________
#
#PARAMETER_NAME    .UNIT     VALUE                         : DESCRIPTION
#_______________________________________________________________________________
SET                .         Inclination                   : 
TLFamily_C13       .         Caliper 1                     : 
TLFamily_C24       .         Caliper 2                     : 
TLFamily_DEVI      .         Hole Deviation                : 
TLFamily_GR        .         Gamma Ray                     : 
TLFamily_HAZI      .         Hole Azimuth                  : 
TLFamily_MD        .         Measured Depth                : 
TLFamily_P1AZ      .         Pad A Azimuth                 : 
TLFamily_RB        .         Relative Bearing              : 
~Curve Information
#_______________________________________________________________________________
#
#LOGNAME           .UNIT     LOG_ID                        : DESCRIPTION
#_______________________________________________________________________________
MD                 .m                                      :  
C13                .mm                                     : Caliper 1-3 
C24                .mm                                     : Caliper 2-4 
DEVI               .deg                                    : Deviation 
GR                 .gAPI                                   : Gamma Ray 
HAZI               .deg                                    : Hole Azimuth 
P1AZ               .deg                                    : Pad 1 Azimuth 
RB                 .deg                                    : Relative Bearing 
~Ascii
# ...
121.0055999999999 160.0413   163.5178   0.04226685 103.2664   264.7946   166.7587   261.9641  
121.1579999999999 160.3886   162.8271   0.03833008 97.5591    263.6369   167.2357   263.5987  
121.3103999999999 161.4306   163.8632   0.03237915 101.7254   258.6985   168.2515   269.5529  
121.4627999999999 160.736    163.8632   0.02612305 102.6887   250.9782   168.6456   277.6673  
121.6151999999999 160.736    162.8271   0.02398682 103.9049   240.6743   169.486    288.8117  
121.7675999999999 160.0413   163.5178   0.02481079 101.3292   229.5879   169.7604   300.1725  
121.9199999999999 161.4306   164.8993   0.02636719 103.0132   218.9521   168.4703   309.5181  
122.0723999999999 160.736    162.8271   0.02859497 107.8787   214.3566   168.4191   314.0625  
122.2247999999999 160.0413   162.8271   0.03378296 109.6562   211.2931   168.5969   317.3038  
122.3771999999999 160.0413   162.8271   0.03765869 108.9901   210.0782   168.3591   318.2809  
122.5295999999999 160.736    162.4817   0.04293823 105.4347   210.734    169.7103   318.9762  
122.6819999999999 160.0413   162.8271   0.04956055 104.3121   212.9568   170.9391   317.9823  
122.8343999999999 160.736    162.8271   0.04934692 102.8261   213.8747   170.9126   317.0379  
122.9867999999999 159.694    162.8271   0.05307007 102.5454   216.5308   170.6902   314.1594  
123.1391999999999 160.736    163.1724   0.05084229 102.639    218.0932   170.8402   312.747   
123.2915999999999 159.694    162.8271   0.04989624 100.3      218.3847   170.8502   312.4656  
123.4439999999999 161.4306   162.8271   0.04858398 103.2941   220.3263   170.8121   310.4859  
123.5963999999999 161.4306   163.1724   0.04821777 103.949    220.0118   170.6433   310.6315  
123.7487999999999 161.4306   162.8271   0.04714966 101.7972   219.2991   170.7878   311.4886  
123.9011999999999 160.0413   162.8271   0.04550171 96.55736   216.6906   170.5456   313.855   
124.0535999999999 160.0413   162.8271   0.04431152 95.15402   212.8525   171.1083   318.2557  
124.2059999999999 160.0413   163.8632   0.04074097 94.31168   206.9746   171.0335   324.0589  
124.3583999999999 160.0413   164.2085   0.03860474 95.1208    202.049    171.2194   329.1704  
124.5107999999999 160.0413   163.5178   0.0390625  92.40746   195.4987   171.3065   335.8078  
124.6631999999999 160.736    163.8632   0.03857422 93.24954   191.3008   171.5182   340.2175  
124.8155999999999 160.0413   162.8271   0.03894043 95.3411    187.5293   171.3857   343.8564  
124.9679999999999 161.0833   163.5178   0.03863525 100.9272   186.1996   170.7341   344.5345  
125.1203999999999 160.0413   163.1724   0.03601074 101.5823   185.0422   170.5443   345.502   
125.2727999999999 161.4306   163.8632   0.03192139 100.0853   184.6188   168.7372   344.1183  
125.4251999999999 160.3886   164.8993   0.0302124  96.61794   188.0397   169.3239   341.2842  
125.5775999999999 160.736    162.8271   0.02563477 98.02145   189.7703   169.1953   339.425   
125.7299999999999 160.0413   163.8632   0.02252197 97.74072   196.239    168.8654   332.6264  
125.8823999999999 160.0413   162.8271   0.0166626  98.5223    203.8234   168.492    324.6686  
126.0347999999999 160.0413   162.8271   0.01098633 95.10992   226.0539   167.9926   301.9387  
126.1871999999999 160.0413   162.8271   0.009185791 93.05166   252.0015   167.1086   275.107   
126.3395999999999 160.0413   162.8271   0.01153564 89.87031   293.0962   166.8405   233.7443  
126.4919999999999 160.736    162.8271   0.01617432 90.76193   308.566    166.867    218.301   
126.6443999999999 160.3886   162.4817   0.02032471 89.91971   316.7685   167.0594   210.2909  
126.7967999999999 159.3466   162.8271   0.02502441 90.29408   320.224    167.2943   207.0703  
126.9491999999999 158.652    162.4817   0.02859497 86.92586   321.1906   166.8978   205.7072  
127.1015999999999 158.652    162.4817   0.03009033 80.37634   321.4319   166.7476   205.3157  
127.2539999999999 158.652    161.4455   0.03262329 70.36507   321.637    166.2234   204.5864  
127.4063999999999 158.652    162.1363   0.03262329 62.83599   319.9532   166.387    206.4338  
127.5587999999999 158.652    160.7548   0.03375244 59.56149   316.6436   166.9415   210.298   
127.7111999999999 158.652    162.1363   0.03570557 57.13429   316.4547   167.1423   210.6876  
127.8635999999999 158.652    161.4455   0.03823853 54.92721   314.1386   166.9976   212.8589  
128.0159999999999 158.9993   162.8271   0.04241943 55.05371   313.2919   166.832    213.5401  
128.1683999999999 160.736    161.7909   0.04901123 54.11268   309.46     166.6087   217.1487  
128.3207999999999 161.4306   162.8271   0.05621338 56.73246   311.0292   166.9766   215.9474  
128.4731999999999 162.1253   164.2085   0.06604004 58.00926   309.831    170.016    220.185   
128.6255999999999 161.4306   162.8271   0.07757568 57.1671    312.554    173.3977   220.8438  
128.7779999999999 161.4306   163.8632   0.08731079 55.29575   315.299    176.8779   221.5789  
128.9303999999999 161.4306   164.8993   0.1003723  53.23739   320.8023   181.4216   220.6194  
129.0827999999999 159.3466   164.2085   0.1149292  56.51225   327.3837   185.2776   217.8939  
129.2351999999999 161.4306   164.8993   0.130188   59.50645   334.4035   186.874    212.4704  
129.3875999999999 159.694    163.8632   0.1450195  59.78714   340.6217   186.9413   206.3195  
129.5399999999999 152.4      157.9918   0.164856   58.98903   347.6086   188.7766   201.1681  
129.6923999999999 146.5996   151.9996   0.1879272  53.18805   353.4781   189.7432   196.2651  
129.8447999999999 156.568    159.3733   0.2128296  47.66772   358.3503   187.46     189.1098  
129.9971999999999 158.652    160.064    0.2332458  41.62461   1.968597   187.354    185.3854  
130.1495999999999 159.3466   160.7548   0.2521057  39.37902   4.337494   187.4404   183.1029  
130.3019999999999 158.652    160.7548   0.2663574  40.68895   6.22699    187.6174   181.3904  
130.4543999999999 158.652    160.7548   0.2800293  42.0759    7.818481   187.8728   180.0543  
130.6067999999999 158.652    161.1002   0.2907104  41.60812   8.802307   188.009    179.2067  
130.7591999999999 158.652    161.1002   0.2906189  40.11111   9.43573    188.1908   178.7551  
130.9115999999999 158.652    161.1002   0.2923584  41.10179   10.35483   188.2531   177.8983  
131.0639999999999 159.3466   161.4455   0.2871094  46.62214   11.45901   187.8372   176.3782  
131.2163999999999 162.82     162.8271   0.2784729  55.13626   12.42111   187.9597   175.5386  
131.3687999999999 164.2093   164.8993   0.2670898  62.26909   12.97922   189.6914   176.7122  
131.5211999999999 164.2093   164.5539   0.2579651  65.8245    14.14154   191.2634   177.1219  
131.6735999999999 164.2093   163.1724   0.2472229  68.16388   14.1424    192.1245   177.9821  
131.8259999999999 164.2093   164.8993   0.2388611  66.67786   14.49469   192.7998   178.3051  
131.9783999999999 164.2093   164.8993   0.231842   63.77736   14.35452   193.9447   179.5902  
132.1307999999999 161.4306   162.8271   0.2281494  57.60201   14.36478   194.594    180.2292  
132.2831999999999 162.82     162.8271   0.2235718  51.2617    14.05893   195.442    181.3831  
132.4355999999999 164.2093   163.8632   0.22052    48.45478   13.58264   196.0006   182.418   
132.5879999999999 164.2093   165.2447   0.219635   48.17407   13.71887   196.4924   182.7735  
132.7403999999999 164.2093   164.2085   0.2176208  51.36626   13.9827    198.4017   184.419   
132.8927999999999 164.2093   165.5901   0.2161865  55.5711    15.03      199.9845   184.9545  
133.0451999999999 159.694    162.8271   0.2140503  57.81671   15.93643   199.635    183.6986  
133.1975999999999 158.652    162.1363   0.2131042  55.85192   16.82089   199.3121   182.4912  
133.3499999999999 161.4306   162.8271   0.211731   53.61185   17.78867   198.902    181.1133  
133.5023999999999 164.2093   165.2447   0.210968   51.98822   18.32132   199.1763   180.8549  
133.6547999999999 160.3886   161.1002   0.21521    52.11135   18.72458   199.5583   180.8337  
133.8071999999999 161.4306   164.8993   0.2188721  48.60542   19.19986   199.8573   180.6575  
