~Version
 VERS              .         2.0                           : CWLS LOG ASCII STANDARD - VERSION 2.0
 WRAP              .         NO                            : ONE LINE PER DEPTH STEP
 DLM               .         SPACE                         : DELIMITING CHARACTER(SPACE TAB OR COMMA)
~Well Information
#_______________________________________________________________________________
#
#PARAMETER_NAME    .UNIT     VALUE                         : DESCRIPTION
#_______________________________________________________________________________
STRT               .M        0                             : First reference value
STOP               .M        294.2844                      : Last reference value
STEP               .M        0.1524                        : Step increment
NULL               .         -9999                         : Missing value
COMP               .                                       : Company
WELL               .         F                             : Well name
FLD                .                                       : Field
LOC                .                                       : Location
CNTY               .                                       : County
STAT               .                                       : State
CTRY               .                                       : Country
SRVC               .                                       : Service Company
DATE               .                                       : Date
API                .                                       : API number
~Parameter Information Block
#_______________________________________________________________________________
#
#PARAMETER_NAME    .UNIT     VALUE                         : DESCRIPTION
#_______________________________________________________________________________
SET                .         Logs                          : 
TLFamily_DEPT      .         Measured Depth                : 
TLFamily_DT        .         Compressional Slowness        : 
TLFamily_GR        .         Gamma Ray                     : 
TLFamily_ILD       .         Resistivity - Deep            : 
TLFamily_NPOR_LIM  .         Thermal Neutron Porosity Limestone: 
TLFamily_PEF       .         Photoelectric Factor          : 
TLFamily_RHO       .         Bulk Density                  : 
~Curve Information
#_______________________________________________________________________________
#
#LOGNAME           .UNIT     LOG_ID                        : DESCRIPTION
#_______________________________________________________________________________
DEPT               .M                                      : 1 Depth Index - Measured Depth 
DT                 .US/M                                   : 111 1 1 DELTA-T (ALSO CALLED SLOWNESS OR INTERVAL TRANSIT TIME) (F14 
GR                 .GAPI                                   : 45 GAMMA RAY (F14.5) **MERGED** 
ILD                .OHMM                                   : 22 ARRAY INDUCTION ONE FOOT RESISTIVITY A90 (F14 
NPOR_LIM           .V/V                                    : 75 ENHANCED THERMAL NEUTRON POROSITY (MATRIX LIMESTONE) (F14.5) **MERGED** 
PEF                .B/E                                    : 80 HIGH RESOLUTION FORMATION PHOTOELECTRIC FACTOR (F14 
RHO                .K/M3                                   : 82 STANDARD RESOLUTION FORMATION DENSITY (F14 
~Ascii
# ...
14.6304    -9999      31.3748    12.3198    0.6384     9.976699829101563 2142.7764 
14.7828    -9999      31.0702    12.3198    0.6052     10         2146.8113 
14.9352    -9999      31.1949    12.3198    0.6175     9.980400085449219 2148.572  
15.0876    -9999      32.3802    12.3198    0.5679     9.966500282287598 2152.3904 
15.24      -9999      34.1195    12.3198    0.5471     9.990599632263184 2153.7752 
15.3924    -9999      36.6865    12.3198    0.5512     10         2151.7524 
15.5448    -9999      38.8695    12.3198    0.5992     9.89210033416748 2149.3669 
15.6972    -9999      38.3082    12.3198    0.5647     9.791600227355957 2180.3994 
15.8496    -9999      34.3065    12.3198    0.5503     9.846099853515625 2219.0056 
16.002     -9999      30.9239    12.3198    0.566      10         2271.1128 
16.1544    -9999      29.3646    12.3198    0.635      10         2262.4094 
16.3068    -9999      30.8214    12.3198    0.5704     9.734499931335449 2224.0618 
16.4592    -9999      32.6352    12.3198    0.6018     9.993100166320801 2164.2893 
16.6116    -9999      33.7579    12.3198    0.5998     9.990599632263184 2129.0332 
16.764     -9999      34.7336    12.3198    0.5218     9.948300361633301 2121.374  
16.9164    -9999      34.1818    12.3198    0.5534     9.773599624633789 2118.1931 
17.0688    -9999      32.2481    12.3198    0.5832     9.767800331115723 2114.6614 
17.2212    -9999      31.8114    12.3198    0.6523     9.670599937438965 2108.5493 
17.3736    -9999      31.6506    12.3198    0.6085     9.628000259399414 2106.4736 
17.526     -9999      31.4011    12.3198    0.6145     9.553400039672852 2109.7749 
17.6784    -9999      29.2804    12.3198    0.6638     9.522800445556641 2111.9744 
17.8308    -9999      29.8154    12.3198    0.7556     9.559700012207031 2110.1023 
17.9832    -9999      34.0426    12.3198    0.672      9.490900039672852 2102.3323 
18.1356    -9999      39.5941    12.3198    0.619      9.40310001373291 2097.2583 
18.288     -9999      42.5258    12.3198    0.5567     9.430999755859375 2097.8479 
18.4404    -9999      41.7292    12.3198    0.5361     9.383099555969238 2102.7407 
18.5928    -9999      39.3974    12.3198    0.5569     9.339599609375 2105.8284 
18.7452    -9999      38.0874    12.3198    0.5968     9.466400146484375 2108.3699 
18.8976    -9999      39.7717    12.3198    0.5162     9.351699829101563 2106.3604 
19.05      -9999      39.858     12.3198    0.5597     9.125100135803223 2103.7395 
19.2024    -9999      40.8561    12.3198    0.5104     9.187000274658203 2102.5491 
19.3548    -9999      40.2277    12.3198    0.5287     9.23289966583252 2106.7869 
19.5072    -9999      39.2919    12.3198    0.6046     9.268099784851074 2113.2312 
19.6596    -9999      37.4206    12.3198    0.6965     9.289799690246582 2115.6577 
19.812     -9999      37.4877    12.3198    0.7919     9.145700454711914 2113.9228 
19.9644    -9999      39.4837    12.3198    0.7354     9.19279956817627 2114.6516 
20.1168    -9999      40.0452    12.3198    0.6952     9.141599655151367 2109.7146 
20.2692    -9999      41.355     12.3198    0.6836     9.195899963378906 2108.5769 
20.4216    -9999      42.4154    12.3198    0.7004     9.139200210571289 2110.823  
20.574     -9999      43.0318    12.3198    0.6145     9.123600006103516 2114.1958 
20.7264    -9999      40.5991    12.3198    0.6957     9.194399833679199 2116.2607 
20.8788    -9999      37.9171    12.3198    0.6405     9.246299743652344 2117.6355 
21.0312    -9999      35.6164    12.3198    0.7115     9.310999870300293 2121.1411 
21.1836    -9999      35.0528    12.3198    0.6268     9.258199691772461 2112.8943 
21.336     -9999      35.8012    12.3198    0.6702     9.289299964904785 2105.6074 
21.4884    -9999      39.3566    12.3198    0.6766     9.181500434875488 2115.7869 
21.6408    -9999      42.9144    12.3198    0.6717     9.232399940490723 2141.5244 
21.7932    -9999      43.9364    12.3198    0.7054     9.20259952545166 2161.002  
21.9456    -9999      43.0008    12.3198    0.6471     9.155599594116211 2160.3801 
22.098     -9999      42.8761    12.3198    0.6943     9.221500396728516 2149.5349 
22.2504    -9999      44.5363    12.3198    0.6854     9.270000457763672 2134.4966 
22.4028    -9999      47.4791    12.3198    0.6734     9.399800300598145 2126.8015 
22.5552    -9999      45.3583    12.3198    0.6257     9.34220027923584 2126.6394 
22.7076    -9999      42.0138    12.3198    0.6586     9.532999992370605 2132.6213 
22.86      -9999      39.6948    12.3198    0.6811     9.527199745178223 2136.5093 
23.0124    -9999      37.1996    12.3198    0.869      9.465999603271484 2141.426  
23.1648    -9999      36.6768    12.3198    0.72       9.44279956817627 2155.2224 
23.3172    -9999      35.8659    12.3198    0.6497     9.429499626159668 2170.3648 
23.4696    -9999      37.1758    12.3198    0.6922     9.486599922180176 2179.8279 
23.622     -9999      37.1758    12.3198    0.7442     9.587800025939941 2185.1584 
23.7744    -9999      35.2422    12.3198    0.7154     9.575499534606934 2192.0056 
23.9268    -9999      35.4918    12.3198    0.6143     9.593199729919434 2200.8386 
24.0792    -9999      35.6789    12.3198    0.668      9.580100059509277 2208.2918 
24.2316    -9999      35.9259    12.3198    0.6501     9.674500465393066 2216.4109 
24.384     -9999      35.0526    12.3198    0.6618     9.809800148010254 2233.0798 
24.5364    -9999      33.119     12.3198    0.6492     9.794400215148926 2243.5981 
24.6888    -9999      32.6849    12.3198    0.7473     9.990400314331055 2252.544  
24.8412    -9999      34.8057    12.3198    0.6336     9.972800254821777 2261.1001 
24.9936    -9999      37.1758    12.3198    0.7455     10         2272.6094 
25.146     -9999      38.0635    12.3198    0.6005     10         2285.1553 
25.2984    -9999      36.5663    12.3198    0.6041     9.921899795532227 2295.2314 
25.4508    -9999      35.3189    12.3198    0.538      10         2299.2639 
25.6032    -9999      35.2421    12.3198    0.6386     9.969400405883789 2298.5571 
25.7556    -9999      34.1194    12.3198    0.6801     9.985099792480469 2289.8481 
25.908     -9999      36.8015    12.3198    0.7339     9.992899894714355 2289.155  
26.0604    -9999      36.3026    12.3198    0.7427     9.937999725341797 2293.3106 
26.2128    -9999      37.6748    12.3198    0.6878     10         2303.573  
26.3652    -9999      35.2421    12.3198    0.6246     9.957200050354004 2310.8635 
26.5176    -9999      33.8698    12.3198    0.6213     9.97700023651123 2319.5679 
26.67      -9999      33.2461    12.3198    0.6072     10         2324.144  
26.8224    -9999      34.1818    12.3198    0.62       10         2329.7109 
26.9748    -9999      35.8036    12.3198    0.6429     9.967700004577637 2333.5364 
27.1272    -9999      35.3045    12.3198    0.6931     9.966500282287598 2345.8306 
27.2796    -9999      36.365     12.3198    0.6244     9.954899787902832 2355.5093 
27.432     -9999      36.3649    12.3198    0.5735     10         2365.6648 
27.5844    -9999      37.3006    12.3198    0.6643     9.989399909973145 2375.0234 
27.7368    -9999      36.552     12.3198    0.7469     9.918800354003906 2394.0374 
27.8892    -9999      37.4877    12.3198    0.7244     9.94279956817627 2408.1179 
28.0416    -9999      39.2965    12.3198    0.7831     10         2437.3999 
28.194     -9999      40.4192    12.3198    0.7205     9.851799964904785 2423.6804 
28.3464    -9999      45.2845    12.3198    0.5807     10         2446.1396 
28.4988    -9999      51.6469    12.3198    0.6111     10         2413.0969 
28.6512    -9999      59.9431    12.3198    0.5698     9.838399887084961 2338.478  
28.8036    -9999      63.6232    12.3198    0.5018     9.772700309753418 2220.8894 
28.956     -9999      65.3117    12.3198    0.5531     9.923999786376953 2136.6577 
29.1084    -9999      64.2513    12.3198    0.5144     10         2125.846  
29.2608    -9999      64.9997    12.3198    0.5246     10         2129.0725 
