~Version
 VERS              .         2.0                           : CWLS LOG ASCII STANDARD - VERSION 2.0
 WRAP              .         NO                            : ONE LINE PER DEPTH STEP
 DLM               .         SPACE                         : DELIMITING CHARACTER(SPACE TAB OR COMMA)
~Well Information
#_______________________________________________________________________________
#
#PARAMETER_NAME    .UNIT     VALUE                         : DESCRIPTION
#_______________________________________________________________________________
STRT               .M        0                             : First reference value
STOP               .M        294.2844                      : Last reference value
STEP               .M        0.1524                        : Step increment
NULL               .         -9999                         : Missing value
COMP               .                                       : Company
WELL               .         F                             : Well name
FLD                .                                       : Field
LOC                .                                       : Location
CNTY               .                                       : County
STAT               .                                       : State
CTRY               .                                       : Country
SRVC               .                                       : Service Company
DATE               .                                       : Date
API                .                                       : API number
~Parameter Information Block
#_______________________________________________________________________________
#
#PARAMETER_NAME    .UNIT     VALUE                         : DESCRIPTION
#_______________________________________________________________________________
SET                .         Logs                          : 
TLFamily_DEPT      .         Measured Depth                : 
TLFamily_DT        .         Compressional Slowness        : 
TLFamily_GR        .         Gamma Ray                     : 
TLFamily_ILD       .         Resistivity - Deep            : 
TLFamily_NPOR_LIM  .         Thermal Neutron Porosity Limestone: 
TLFamily_PEF       .         Photoelectric Factor          : 
TLFamily_RHO       .         Bulk Density                  : 
~Curve Information
#_______________________________________________________________________________
#
#LOGNAME           .UNIT     LOG_ID                        : DESCRIPTION
#_______________________________________________________________________________
DEPT               .M                                      : 1 Depth Index - Measured Depth 
DT                 .US/M                                   : 111 1 1 DELTA-T (ALSO CALLED SLOWNESS OR INTERVAL TRANSIT TIME) (F14 
GR                 .GAPI                                   : 45 GAMMA RAY (F14.5) **MERGED** 
ILD                .OHMM                                   : 22 ARRAY INDUCTION ONE FOOT RESISTIVITY A90 (F14 
NPOR_LIM           .V/V                                    : 75 ENHANCED THERMAL NEUTRON POROSITY (MATRIX LIMESTONE) (F14.5) **MERGED** 
PEF                .B/E                                    : 80 HIGH RESOLUTION FORMATION PHOTOELECTRIC FACTOR (F14 
RHO                .K/M3                                   : 82 STANDARD RESOLUTION FORMATION DENSITY (F14 
~Ascii
# ...
117.8052   497.5079   52.6494    16.5084    0.3671     2.066200017929077 2045.0129 
117.9576   495.9048   49.9549    17.0846    0.3593     2.199599981307983 2044.4453 
118.11     496.871    52.4811    17.6974    0.3702     2.033999919891357 2043.1986 
118.2624   495.9334   55.2881    16.4203    0.3581     2.012200117111206 2048.4214 
118.4148   496.4321   57.7338    15.9502    0.3778     2.153199911117554 2054.2832 
118.5672   494.9366   54.9911    18.8686    0.3829     2.141900062561035 2057.5625 
118.7196   494.1692   60.1556    17.4564    0.3248     2.032700061798096 2062.2246 
118.872    493.6064   60.637     14.7443    0.3366     2.170399904251099 2066.4053 
119.0244   494.6121   67.9349    12.2722    0.41       2.140399932861328 2067.5425 
119.1768   490.8108   64.9437    11.0803    0.4124     2.274300098419189 2074.8191 
119.3292   493.1192   73.6933    9.5271     0.3821     2.256599903106689 2091.2168 
119.4816   495.7893   78.0401    6.8744     0.4238     2.404799938201904 2110.592  
119.634    501.5427   89.5644    5.8361     0.4907     2.513299942016602 2134.8396 
119.7864   511.4615   98.7709    4.1097     0.478      2.716099977493286 2152.7019 
119.9388   516.0279   106.8304   3.1004     0.5485     2.927799940109253 2167.2126 
120.0912   522.0693   111.6584   3.2848     0.4998     2.884799957275391 2170.0408 
120.2436   522.1755   112.7087   3.3977     0.4754     3.05049991607666 2175.0928 
120.396    520.8927   109.6216   3.4824     0.4676     2.964299917221069 2184.668  
120.5484   519.7135   105.5793   3.2439     0.4549     2.819400072097778 2189.6831 
120.7008   520.0613   102.2114   2.0455     0.4077     2.845200061798096 2186.3901 
120.8532   522.1835   109.3969   2.148      0.4721     2.80019998550415 2169.5747 
121.0056   522.959    113.5673   2.4186     0.5141     2.741899967193604 2158.0942 
121.158    524.2794   115.7726   2.7497     0.5426     2.654299974441528 2150.2371 
121.3104   524.8604   112.4045   3.2115     0.5414     2.673199892044067 2152.0728 
121.4628   525.3916   108.6748   3.0598     0.5762     2.700500011444092 2147.0456 
121.6152   526.8962   105.3069   3.0512     0.5782     2.648299932479858 2136.6045 
121.7676   527.5687   103.9592   2.9751     0.5274     2.745300054550171 2129.2017 
121.92     526.1749   103.7192   3.0891     0.5103     2.664799928665161 2126.4487 
122.0724   524.7872   105.6276   3.3237     0.5339     2.601799964904785 2134.2649 
122.2248   522.9769   105.8524   3.604      0.5759     2.557499885559082 2155.96   
122.3772   520.2993   110.9047   3.3198     0.5494     2.800400018692017 2175.4133 
122.5296   519.7134   110.3436   3.5416     0.4872     2.978600025177002 2193.7878 
122.682    520.8274   105.5154   3.6806     0.4336     2.993099927902222 2190.6924 
122.8344   519.8258   102.7485   3.5039     0.4973     2.938299894332886 2187.262  
122.9868   519.8373   104.5449   3.4161     0.4776     2.72379994392395 2182.2859 
123.1392   520.1367   113.2543   3.4178     0.4875     2.589299917221069 2180.5666 
123.2916   520.0667   112.7895   3.3089     0.5496     2.693700075149536 2175.7847 
123.444    519.5231   111.53     3.225      0.5278     2.649899959564209 2171.9006 
123.5964   513.4653   105.7402   3.5499     0.5768     2.49429988861084 2170.6299 
123.7488   504.5982   101.9224   4.2455     0.5135     2.586199998855591 2175.7773 
123.9012   497.0539   97.4716    5.0222     0.452      2.634999990463257 2173.3721 
124.0536   493.3314   97.4716    5.0005     0.475      2.738899946212769 2172.0095 
124.206    494.8059   98.5945    4.3002     0.5231     2.755199909210205 2171.0535 
124.3584   501.647    96.5574    3.9871     0.5443     2.682699918746948 2182.8257 
124.5108   508.6005   99.4604    3.8122     0.5469     2.786999940872192 2193.1719 
124.6632   512.941    102.2675   3.4548     0.4816     3.087599992752075 2196.5784 
124.8156   519.165    105.299    3.404      0.4622     2.864300012588501 2186.2383 
124.968    521.7184   103.9679   3.1967     0.4771     2.924999952316284 2171.7585 
125.1204   524.7062   103.5184   3.0782     0.4921     2.713399887084961 2155.4314 
125.2728   525.6844   106.7346   2.9369     0.4739     2.565099954605103 2140.2664 
125.4252   526.4289   103.7028   3.0098     0.4754     2.476700067520142 2132.126  
125.5776   526.5344   105.9484   3.056      0.5256     2.631900072097778 2135.6414 
125.73     524.3238   100.7114   3.0759     0.4912     2.612499952316284 2144.1772 
125.8824   521.9141   98.5782    3.2636     0.4393     2.541300058364868 2141.8359 
126.0348   519.7273   93.5261    3.4289     0.4345     2.533600091934204 2132.4751 
126.1872   518.6868   93.831     3.4911     0.4708     2.570199966430664 2125.4695 
126.3396   518.0168   94.0556    3.2902     0.4392     2.601200103759766 2126.3174 
126.492    518.809    95.9639    3.6606     0.441      2.651000022888184 2121.6252 
126.6444   519.6946   97.1666    3.6735     0.4429     2.687000036239624 2112.7029 
126.7968   517.2734   95.9314    3.6256     0.4535     2.644099950790405 2100.8381 
126.9492   513.24     89.4517    4.5294     0.4761     2.718800067901611 2083.3337 
127.1016   505.9754   77.278     5.099      0.4535     2.55839991569519 2059.6641 
127.254    499.3775   69.3068    9.7881     0.3856     2.330699920654297 2035.8136 
127.4064   495.6129   61.1265    15.0179    0.3692     2.293900012969971 2021.9772 
127.5588   494.411    61.3509    12.2813    0.3855     2.208800077438354 2016.3412 
127.7112   495.4528   59.5061    11.5899    0.4178     2.259900093078613 2012.6968 
127.8636   496.0917   59.9072    11.2872    0.3862     2.242199897766113 2015.205  
128.016    496.261    54.518     11.2581    0.4056     2.177799940109253 2016.1536 
128.1684   496.6396   51.5106    11.3561    0.412      2.28220009803772 2015.7476 
128.3208   497.674    51.0614    11.7976    0.4007     2.265000104904175 2012.9004 
128.4732   496.2999   53.9807    12.0515    0.3984     2.341500043869019 2012.7886 
128.6256   493.2224   55.7852    12.1732    0.4097     2.3024001121521 2012.3571 
128.778    492.365    56.6836    12.1301    0.3985     2.297699928283691 2016.4412 
128.9304   491.8212   56.9079    11.9827    0.3936     2.278800010681152 2017.9634 
129.0828   492.2442   58.4718    11.7558    0.4209     2.347800016403198 2024.1504 
129.2352   472.3325   57.4611    12.0072    0.3798     2.454099893569946 2012.064  
129.3876   475.9248   56.7394    11.8101    0.4515     2.530600070953369 2020.704  
129.54     401.0797   53.1706    14.8105    0.478      2.634000062942505 2106.0312 
129.6924   324.0253   48.6797    27.3272    0.2545     2.964799880981445 2302.8872 
129.8448   251.4278   43.2664    66.1207    0.1005     4.009099960327148 2525.9839 
129.9972   190.5788   38.9999    85.9226    0.0733     4.185900211334229 2655.1294 
130.1496   181.2521   37.8771    148.0466   0.0876     4.300600051879883 2686.7781 
130.302    179.1996   36.7142    235.4282   0.0833     4.081699848175049 2679.023  
130.4544   175.1971   37.9491    552.1858   0.0725     3.942199945449829 2673.3113 
130.6068   173.35     37.4678    493.6614   0.0653     3.928699970245361 2665.1352 
130.7592   190.4573   40.1626    194.1742   0.0652     3.862400054931641 2627.6804 
130.9116   243.4702   42.4322    74.8274    0.0974     3.886899948120117 2526.6235 
131.064    318.0574   49.65      33.7876    0.2413     3.253400087356567 2345.9653 
131.2164   387.8704   56.948     17.1728    0.4719     2.428699970245361 2158.2905 
131.3688   464.0105   62.7221    14.6239    0.4768     2.515199899673462 2056.832  
131.5212   477.8954   62.3852    13.8972    0.4356     2.570600032806396 2038.8622 
131.6736   480.2106   65.7054    13.6549    0.388      2.341799974441528 2050.968  
131.826    477.4973   69.0017    13.3033    0.3878     2.621599912643433 2056.751  
131.9784   475.1614   70.9106    13.1454    0.3798     2.588099956512451 2062.7666 
132.1308   470.7079   61.5273    12.8837    0.3772     2.361900091171265 2068.4407 
132.2832   458.3696   52.8178    13.3316    0.373      2.452800035476685 2076.521  
