~Version
 VERS              .         2.0                           : CWLS LOG ASCII STANDARD - VERSION 2.0
 WRAP              .         NO                            : ONE LINE PER DEPTH STEP
 DLM               .         SPACE                         : DELIMITING CHARACTER(SPACE TAB OR COMMA)
~Well Information
#_______________________________________________________________________________
#
#PARAMETER_NAME    .UNIT     VALUE                         : DESCRIPTION
#_______________________________________________________________________________
STRT               .M        0                             : First reference value
STOP               .M        294.2844                      : Last reference value
STEP               .M        0.1524                        : Step increment
NULL               .         -9999                         : Missing value
COMP               .                                       : Company
WELL               .         F                             : Well name
FLD                .                                       : Field
LOC                .                                       : Location
CNTY               .                                       : County
STAT               .                                       : State
CTRY               .                                       : Country
SRVC               .                                       : Service Company
DATE               .                                       : Date
API                .                                       : API number
~Parameter Information Block
#_______________________________________________________________________________
#
#PARAMETER_NAME    .UNIT     VALUE                         : DESCRIPTION
#_______________________________________________________________________________
SET                .         Logs                          : 
TLFamily_DEPT      .         Measured Depth                : 
TLFamily_DT        .         Compressional Slowness        : 
TLFamily_GR        .         Gamma Ray                     : 
TLFamily_ILD       .         Resistivity - Deep            : 
TLFamily_NPOR_LIM  .         Thermal Neutron Porosity Limestone: 
TLFamily_PEF       .         Photoelectric Factor          : 
TLFamily_RHO       .         Bulk Density                  : 
~Curve Information
#_______________________________________________________________________________
#
#LOGNAME           .UNIT     LOG_ID                        : DESCRIPTION
#_______________________________________________________________________________
DEPT               .M                                      : 1 Depth Index - Measured Depth 
DT                 .US/M                                   : 111 1 1 DELTA-T (ALSO CALLED SLOWNESS OR INTERVAL TRANSIT TIME) (F14 
GR                 .GAPI                                   : 45 GAMMA RAY (F14.5) **MERGED** 
ILD                .OHMM                                   : 22 ARRAY INDUCTION ONE FOOT RESISTIVITY A90 (F14 
NPOR_LIM           .V/V                                    : 75 ENHANCED THERMAL NEUTRON POROSITY (MATRIX LIMESTONE) (F14.5) **MERGED** 
PEF                .B/E                                    : 80 HIGH RESOLUTION FORMATION PHOTOELECTRIC FACTOR (F14 
RHO                .K/M3                                   : 82 STANDARD RESOLUTION FORMATION DENSITY (F14 
~Ascii
# ...
264.1092   418.534    62.2901    25.828     0.3234     1.877900004386902 2164.6257 
264.2616   413.3747   67.3426    23.1203    0.3395     1.923699975013733 2177.2993 
264.414    412.5406   65.1939    23.8422    0.3211     1.877500057220459 2175.7126 
264.5664   412.8808   60.6466    33.4561    0.3426     1.884199976921082 2155.8691 
264.7188   416.0074   52.1678    34.1717    0.361      1.843799948692322 2115.4023 
264.8712   419.1609   48.0444    60.7563    0.3434     1.575999975204468 2084.5176 
265.0236   417.9582   49.1884    65.4369    0.3125     1.638399958610535 2094.3086 
265.176    415.9615   52.847     35.2931    0.3217     1.737499952316284 2128.0542 
265.3284   413.0879   58.8868    24.2404    0.3492     1.897899985313416 2165.5537 
265.4808   408.4567   62.1969    26.9371    0.3494     1.809999942779541 2178.5027 
265.6332   408.7089   65.5071    28.4922    0.3381     1.907799959182739 2171.081  
265.7856   409.4123   65.3465    27.6439    0.3353     1.813799977302551 2146.6963 
265.938    411.6377   60.12      35.1603    0.3288     1.704599976539612 2105.6748 
266.0904   418.023    54.8352    48.0316    0.384      1.740499973297119 2075.3621 
266.2428   422.7471   48.8399    72.2092    0.3706     1.599300026893616 2059.0522 
266.3952   425.3189   51.1281    52.1136    0.3219     1.676399946212769 2079.6943 
266.5476   423.6678   55.3675    52.5135    0.344      1.690000057220459 2105.0996 
266.7      418.9005   59.8393    39.3289    0.3682     1.762799978256226 2118.05   
266.8524   410.1648   57.9305    78.0596    0.3581     1.980000019073486 2136.3564 
267.0048   404.8402   58.1628    51.1178    0.3186     1.909999966621399 2173.8989 
267.1572   396.8154   61.2582    41.229     0.3253     3.738199949264526 2241.4185 
267.3096   386.2369   68.4439    19.9528    0.3212     1.970000028610229 2268.3049 
267.462    389.65     71.638     12.0386    0.3051     1.936699986457825 2259.2493 
267.6144   393.1733   71.245     14.0376    0.321      1.904199957847595 2212.5102 
267.7668   398.8919   68.7187    17.0019    0.3246     1.853600025177002 2176.4304 
267.9192   405.5782   65.6253    18.5644    0.2941     1.769899964332581 2155.2524 
268.0716   408.901    62.7487    17.3483    0.3157     1.88129997253418 2150.5794 
268.224    407.947    61.1944    16.8369    0.3242     1.702200055122375 2148.3416 
268.3764   408.402    60.1839    18.0119    0.3146     1.785400032997131 2146.3318 
268.5288   410.1897   59.5238    20.8693    0.3085     1.757200002670288 2147.2627 
268.6812   412.3503   55.296     31.8567    0.3154     1.745599985122681 2142.2585 
268.8336   412.2767   54.2855    27.0043    0.2941     1.634099960327148 2148.197  
268.986    422.381    61.6394    16.535     0.2956     1.6389000415802 2166.3472 
269.1384   434.6298   77.4704    7.646      0.3598     1.877799987792969 2203.5288 
269.2908   446.2354   93.5259    4.5979     0.5203     2.104199886322021 2228.4656 
269.4432   459.6889   105.2586   4.3672     0.5395     2.081799983978271 2233.6834 
269.5956   462.988    107.3918   4.6744     0.5274     2.04229998588562 2219.3538 
269.748    464.5146   107.7286   4.7138     0.5164     2.040899991989136 2198.9346 
269.9004   469.7374   105.1466   4.7744     0.5272     2.086299896240234 2183.0483 
270.0528   471.3808   106.55     4.6934     0.5149     2.010900020599365 2180.6938 
270.2052   471.6726   105.4835   4.6628     0.5081     2.058700084686279 2190.6531 
270.3576   471.6276   107.1043   4.4121     0.4731     2.090500116348267 2215.6013 
270.51     465.7495   105.9813   4.6375     0.5171     2.148900032043457 2247.2905 
270.6624   460.5611   107.3286   4.8409     0.4895     2.15310001373291 2271.9416 
270.8148   452.7699   107.3357   4.7        0.4288     2.118299961090088 2284.0315 
270.9672   443.3378   106.5954   4.6793     0.4128     2.126100063323975 2284.9272 
271.1196   439.4646   104.1252   4.8922     0.3992     2.020400047302246 2286.2314 
271.272    436.886    102.4411   4.9609     0.4135     2.057399988174438 2274.2432 
271.4244   438.7717   104.0236   5.0682     0.4645     2.00629997253418 2260.259  
271.5768   447.3694   108.3464   5.3707     0.4613     2.094300031661987 2248.2385 
271.7292   453.0481   113.0111   4.7667     0.4799     2.174200057983398 2243.9302 
271.8816   463.8842   120.0284   4.3382     0.4973     2.237299919128418 2239.2744 
272.034    466.9959   121.039    3.8881     0.5357     2.256400108337402 2240.9197 
272.1864   457.3868   120.0231   4.1596     0.5134     2.164200067520142 2263.259  
272.3388   444.1712   114.7463   5.3021     0.4121     2.047100067138672 2297.6099 
272.4912   428.1801   112.3322   6.1899     0.3474     2.10260009765625 2323.3994 
272.6436   427.398    114.3803   6.3514     0.3632     2.472100019454956 2319.0867 
272.796    435.338    115.5589   5.7138     0.4376     2.136899948120117 2294.0815 
272.9484   448.5511   116.7378   5.2322     0.5291     2.361200094223022 2276.0752 
273.1008   448.0587   107.9914   4.5449     0.5255     2.273000001907349 2283.6763 
273.2532   431.6029   103.2722   5.0512     0.429      2.188999891281128 2307.8909 
273.4056   418.566    102.1496   7.5213     0.3108     2.02649998664856 2332.9319 
273.558    411.1581   108.9602   7.3446     0.3082     1.991600036621094 2333.0491 
273.7104   418.7962   113.1741   5.8321     0.3832     1.998299956321716 2316.252  
273.8628   425.1642   111.9951   4.8188     0.4584     2.128400087356567 2291.5928 
274.0152   415.8656   99.4202    5.015      0.4111     2.06820011138916 2298.8176 
274.1676   404.794    87.1261    6.182      0.2928     2.055700063705444 2316.4539 
274.32     385.6644   79.2106    6.3336     0.2217     2.018100023269653 2320.3984 
274.4724   374.8187   84.0947    6.6583     0.2214     1.844200015068054 2316.0803 
274.6248   373.3322   94.4473    7.5188     0.262      1.870000004768372 2322.9551 
274.7772   380.2101   105.7312   7.7516     0.2982     2.019399881362915 2340.6245 
274.9296   405.8606   114.6049   6.723      0.3885     2.20110011100769 2335.0515 
275.082    435.4665   121.6899   4.9776     0.5168     2.661999940872192 2307.6116 
275.2344   465.1531   126.8534   4.3956     0.5201     2.778199911117554 2272.8162 
275.3868   479.4312   127.5795   4.4995     0.492      2.547499895095825 2248.5745 
275.5392   476.7406   122.1554   4.5168     0.4911     2.384799957275391 2229.8801 
275.6916   467.4058   112.0884   4.1756     0.4792     2.126199960708618 2198.1799 
275.844    460.0338   97.4362    4.5438     0.4672     1.919899940490723 2117.1721 
275.9964   452.6615   82.2791    5.9868     0.4302     1.798499941825867 1958.2169 
276.1488   454.2935   67.8708    7.6862     0.5522     1.612400054931641 1759.7911 
276.3012   462.931    60.2361    12.7858    0.6702     0.760200023651123 1642.2258 
276.4536   479.3366   68.6007    8.2283     0.9113     0.7447999715805054 1698.7876 
276.606    493.9586   88.6982    5.1034     0.7233     1.889400005340576 1837.4283 
276.7584   495.9625   103.1257   3.4504     0.6271     2.167099952697754 1873.7718 
276.9108   498.1109   102.9572   5.2831     0.7478     1.621099948883057 1825.2628 
277.0632   495.0153   103.0132   5.2315     0.9123     1.443199992179871 1833.8294 
277.2156   481.344    113.7916   4.562      0.7266     1.874500036239624 2000.5238 
277.368    443.5723   122.4777   4.1926     0.5168     1.993000030517578 2192.8801 
277.5204   425.5456   117.7724   5.3042     0.3079     1.987599968910217 2291.4744 
277.6728   425.6029   115.4708   5.5601     0.2954     1.942800045013428 2238.7976 
277.8252   435.6104   114.2511   4.4876     0.4973     1.953199982643127 2114.2222 
277.9776   466.6718   117.8508   5.3203     0.6651     1.803500056266785 2004.5092 
278.13     479.8865   109.924    6.4948     0.6576     1.977800011634827 1982.9039 
278.2824   472.0776   96.6531    7.0245     0.6094     1.965199947357178 2024.275  
278.4348   462.01     74.3778    3.8795     0.5861     1.765400052070618 2093.4253 
278.5872   445.7373   55.5491    5.3408     0.2795     1.716799974441528 2181.6057 
