~Version
 VERS              .         2.0                           : CWLS LOG ASCII STANDARD - VERSION 2.0
 WRAP              .         NO                            : ONE LINE PER DEPTH STEP
 DLM               .         SPACE                         : DELIMITING CHARACTER(SPACE TAB OR COMMA)
~Well Information
#_______________________________________________________________________________
#
#PARAMETER_NAME    .UNIT     VALUE                         : DESCRIPTION
#_______________________________________________________________________________
STRT               .M        0                             : First reference value
STOP               .M        294.2844                      : Last reference value
STEP               .M        0.1524                        : Step increment
NULL               .         -9999                         : Missing value
COMP               .                                       : Company
WELL               .         F                             : Well name
FLD                .                                       : Field
LOC                .                                       : Location
CNTY               .                                       : County
STAT               .                                       : State
CTRY               .                                       : Country
SRVC               .                                       : Service Company
DATE               .                                       : Date
API                .                                       : API number
~Parameter Information Block
#_______________________________________________________________________________
#
#PARAMETER_NAME    .UNIT     VALUE                         : DESCRIPTION
#_______________________________________________________________________________
SET                .         Logs                          : 
TLFamily_DEPT      .         Measured Depth                : 
TLFamily_DT        .         Compressional Slowness        : 
TLFamily_GR        .         Gamma Ray                     : 
TLFamily_ILD       .         Resistivity - Deep            : 
TLFamily_NPOR_LIM  .         Thermal Neutron Porosity Limestone: 
TLFamily_PEF       .         Photoelectric Factor          : 
TLFamily_RHO       .         Bulk Density                  : 
~Curve Information
#_______________________________________________________________________________
#
#LOGNAME           .UNIT     LOG_ID                        : DESCRIPTION
#_______________________________________________________________________________
DEPT               .M                                      : 1 Depth Index - Measured Depth 
DT                 .US/M                                   : 111 1 1 DELTA-T (ALSO CALLED SLOWNESS OR INTERVAL TRANSIT TIME) (F14 
GR                 .GAPI                                   : 45 GAMMA RAY (F14.5) **MERGED** 
ILD                .OHMM                                   : 22 ARRAY INDUCTION ONE FOOT RESISTIVITY A90 (F14 
NPOR_LIM           .V/V                                    : 75 ENHANCED THERMAL NEUTRON POROSITY (MATRIX LIMESTONE) (F14.5) **MERGED** 
PEF                .B/E                                    : 80 HIGH RESOLUTION FORMATION PHOTOELECTRIC FACTOR (F14 
RHO                .K/M3                                   : 82 STANDARD RESOLUTION FORMATION DENSITY (F14 
~Ascii
# ...
278.7396   424.6808   54.993     4.5789     0.1676     2.038599967956543 2282.7051 
278.892    399.0623   66.3042    5.2612     0.252      3.440099954605103 2436.5991 
279.0444   359.6113   77.6554    5.9868     0.3281     4.109899997711182 2572.4275 
279.1968   350.7238   79.241     9.9883     0.3386     6.411200046539307 2665.9268 
279.3492   338.065    79.8137    10.645     0.3303     4.539199829101563 2629.0547 
279.5016   333.2488   77.4454    10.3557    0.2675     4.062900066375732 2572.4019 
279.654    349.2216   75.1643    12.7865    0.2294     4.028900146484375 2525.6372 
279.8064   332.339    70.8198    14.004     0.2219     4.081600189208984 2536.489  
279.9588   325.484    68.5217    15.262     0.2154     4.081999778747559 2546.7756 
280.1112   316.5394   68.7791    16.0059    0.2036     4.13640022277832 2560.4985 
280.2636   309.6465   69.1105    16.8708    0.1912     4.102799892425537 2568.0039 
280.416    305.3425   71.1568    17.419     0.173      4.187600135803223 2576.3755 
280.5684   300.0154   70.8016    16.4768    0.1773     4.086800098419189 2579.355  
280.7208   303.5431   71.5846    17.543     0.1851     4.128099918365479 2585.0454 
280.8732   301.9414   70.4512    16.6841    0.1782     4.048500061035156 2583.749  
281.0256   303.5945   69.345     17.0504    0.1833     4.205699920654297 2581.7336 
281.178    303.8676   68.7435    17.455     0.1723     4.20419979095459 2582.0364 
281.3304   299.8467   68.9989    18.0945    0.1735     4.182000160217285 2590.0068 
281.4828   303.7708   70.546     17.4877    0.1825     3.9899001121521 2595.2886 
281.6352   303.1557   70.3295    17.3311    0.1843     4.051400184631348 2597.3997 
281.7876   304.6169   72.556     17.1328    0.1934     4.106900215148926 2594.6372 
281.94     304.8788   72.0833    17.6698    0.1919     4.017899990081787 2591.6428 
282.0924   301.8202   71.9452    17.6488    0.1846     4.111000061035156 2588.3613 
282.2448   300.371    69.9222    17.6566    0.1823     4.157299995422363 2585.5281 
282.3972   300.6746   70.5148    18.6621    0.1915     4.137199878692627 2583.2847 
282.5496   300.4892   70.7634    18.8201    0.187      4.219600200653076 2578.8186 
282.702    300.4944   70.2388    18.1001    0.184      4.14330005645752 2575.8677 
282.8544   300.5003   69.0211    18.0662    0.1846     4.14709997177124 2571.7112 
283.0068   300.58     69.0211    18.0385    0.1853     4.022900104522705 2573.7978 
283.1592   300.57     69.0211    17.8873    0.1784     4.089499950408936 2574.304  
283.3116   300.5486   69.0211    17.3977    0.1842     4.011000156402588 2575.9775 
283.464    300.5158   69.0211    16.6552    0.1975     3.952199935913086 2571.9812 
283.6164   300.5482   69.0211    15.7677    0.1877     3.948699951171875 2565.4653 
283.7688   300.5895   69.0211    14.6934    0.1925     4.022200107574463 2558.9512 
283.9212   300.5934   69.0211    14.942     0.1882     4.230800151824951 2552.2815 
284.0736   300.6072   69.0211    17.7172    0.1885     4.636199951171875 2551.4619 
284.226    300.6214   69.0211    23.062     0.1916     4.8302001953125 2558.0342 
284.3784   300.6214   69.0211    27.6346    0.192      4.860799789428711 2562.5676 
284.5308   300.6214   69.0211    30.3625    0.1896     4.734000205993652 2549.0642 
284.6832   300.6214   69.0211    30.8524    0.1976     4.780499935150146 2518.8799 
284.8356   300.6214   69.0211    27.9536    0.2274     4.714900016784668 2490.3115 
284.988    300.6214   69.0211    30.501     0.2274     5.046700000762939 2455.3208 
285.1404   300.6214   69.0211    40.7032    0.2274     4.809500217437744 2431.4575 
285.2928   300.6214   69.0211    51.7384    0.2274     4.777900218963623 2457.5237 
285.4452   300.6214   69.0211    28.9018    0.2274     4.696100234985352 2541.6938 
285.5976   300.6214   69.0211    26.4439    0.2274     4.743199825286865 2604.9944 
285.75     300.6214   69.0211    37.6746    0.2274     4.955299854278564 2604.7241 
285.9024   300.6214   69.0211    37.0039    0.2274     4.813899993896484 2566.4143 
286.0548   300.6214   69.0211    37.6068    0.2274     4.885300159454346 2550.0124 
286.2072   300.6214   69.0211    36.6185    0.2274     4.909500122070313 2554.5725 
286.3596   300.6214   69.0211    33.6808    0.2274     4.887100219726563 2557.3887 
286.512    300.6214   69.0211    18.702     0.2274     4.907800197601318 2558.9578 
286.6644   300.6214   69.0211    19.2112    0.2274     4.915200233459473 2553.2886 
286.8168   300.6214   69.0211    24.4645    0.2274     4.918600082397461 2553.3804 
286.9692   300.6214   69.0211    24.9677    0.2274     4.922999858856201 2556.937  
287.1216   300.6214   69.0211    38.335     0.2274     -44415.5716 -155033.0508
287.274    300.6214   69.0211    45.2362    0.2274     -9999      -9999     
287.4264   300.6214   69.0211    32.3675    0.2274     -9999      -9999     
287.5788   300.6214   69.0211    41.4402    0.2274     -9999      -9999     
287.7312   300.6214   69.0211    47.9088    0.2274     -9999      -9999     
287.8836   300.6214   69.0211    48.5423    0.2274     -9999      -9999     
288.036    300.6214   69.0211    45.3049    0.2274     -9999      -9999     
288.1884   300.6214   69.0211    43.567     0.2274     -9999      -9999     
288.3408   300.6214   69.0211    41.9481    0.2274     -9999      -9999     
288.4932   300.6214   69.0211    42.9008    0.2274     -9999      -9999     
288.6456   300.6214   69.0211    37.9018    0.2274     -9999      -9999     
288.798    300.6214   69.0211    33.5978    0.2274     -9999      -9999     
288.9504   300.6214   69.0211    28.5255    0.2274     -9999      -9999     
289.1028   300.6214   69.0211    31.4292    0.2274     -9999      -9999     
289.2552   300.6214   69.0211    36.7562    0.2274     -9999      -9999     
289.4076   300.6214   69.0211    37.7989    0.2274     -9999      -9999     
289.56     300.6214   69.0211    40.1796    0.2274     -9999      -9999     
289.7124   300.6214   69.0211    43.0125    0.2274     -9999      -9999     
289.8648   300.6214   69.0211    43.5417    0.2274     -9999      -9999     
290.0172   300.6214   69.0211    41.9999    0.2274     -9999      -9999     
290.1696   300.6214   69.0211    39.9336    0.2274     -9999      -9999     
290.322    300.6214   69.0211    37.3492    0.2274     -9999      -9999     
290.4744   300.6214   69.0211    36.0967    0.2274     -9999      -9999     
290.6268   300.6214   69.0211    37.5707    0.2274     -9999      -9999     
290.7792   300.6214   69.0211    40.0601    0.2274     -9999      -9999     
290.9316   300.6214   69.0211    42.0482    0.2274     -9999      -9999     
291.084    300.6214   69.0211    42.1714    0.2274     -9999      -9999     
291.2364   300.6214   69.0211    42.6888    0.2274     -9999      -9999     
291.3888   300.6214   69.0211    43.7055    0.2274     -9999      -9999     
291.5412   300.6214   69.0211    43.7966    0.2274     -9999      -9999     
291.6936   300.6214   69.0211    41.3493    0.2274     -9999      -9999     
291.846    300.6214   69.0211    -9999      0.2274     -9999      -9999     
291.9984   300.6214   69.0211    -9999      0.2274     -9999      -9999     
292.1508   300.6214   69.0211    -9999      0.2274     -9999      -9999     
292.3032   300.6214   69.0211    -9999      0.2274     -9999      -9999     
292.4556   300.6214   69.0211    -9999      0.2274     -9999      -9999     
292.608    300.6214   69.0211    -9999      0.2274     -9999      -9999     
292.7604   300.6214   69.0211    -9999      0.2274     -9999      -9999     
292.9128   300.6214   69.0211    -9999      0.2274     -9999      -9999     
293.0652   300.6214   69.0211    -9999      0.2274     -9999      -9999     
293.2176   300.6214   69.0211    -9999      0.2274     -9999      -9999     
293.37     300.6214   69.0211    -9999      0.2274     -9999      -9999     
293.5224   300.6214   69.0211    -9999      0.2274     -9999      -9999     
293.6748   -9999      69.0211    -9999      0.2274     -9999      -9999     
