~Version
 VERS              .         2.0                           : CWLS LOG ASCII STANDARD - VERSION 2.0
 WRAP              .         NO                            : ONE LINE PER DEPTH STEP
 DLM               .         SPACE                         : DELIMITING CHARACTER(SPACE TAB OR COMMA)
~Well Information
#_______________________________________________________________________________
#
#PARAMETER_NAME    .UNIT     VALUE                         : DESCRIPTION
#_______________________________________________________________________________
STRT               .M        0                             : First reference value
STOP               .M        294.2844                      : Last reference value
STEP               .M        0.1524                        : Step increment
NULL               .         -9999                         : Missing value
COMP               .                                       : Company
WELL               .         F                             : Well name
FLD                .                                       : Field
LOC                .                                       : Location
CNTY               .                                       : County
STAT               .                                       : State
CTRY               .                                       : Country
SRVC               .                                       : Service Company
DATE               .                                       : Date
API                .                                       : API number
~Parameter Information Block
#_______________________________________________________________________________
#
#PARAMETER_NAME    .UNIT     VALUE                         : DESCRIPTION
#_______________________________________________________________________________
SET                .         Logs                          : 
TLFamily_DEPT      .         Measured Depth                : 
TLFamily_DT        .         Compressional Slowness        : 
TLFamily_GR        .         Gamma Ray                     : 
TLFamily_ILD       .         Resistivity - Deep            : 
TLFamily_NPOR_LIM  .         Thermal Neutron Porosity Limestone: 
TLFamily_PEF       .         Photoelectric Factor          : 
TLFamily_RHO       .         Bulk Density                  : 
~Curve Information
#_______________________________________________________________________________
#
#LOGNAME           .UNIT     LOG_ID                        : DESCRIPTION
#_______________________________________________________________________________
DEPT               .M                                      : 1 Depth Index - Measured Depth 
DT                 .US/M                                   : 111 1 1 DELTA-T (ALSO CALLED SLOWNESS OR INTERVAL TRANSIT TIME) (F14 
GR                 .GAPI                                   : 45 GAMMA RAY (F14.5) **MERGED** 
ILD                .OHMM                                   : 22 ARRAY INDUCTION ONE FOOT RESISTIVITY A90 (F14 
NPOR_LIM           .V/V                                    : 75 ENHANCED THERMAL NEUTRON POROSITY (MATRIX LIMESTONE) (F14.5) **MERGED** 
PEF                .B/E                                    : 80 HIGH RESOLUTION FORMATION PHOTOELECTRIC FACTOR (F14 
RHO                .K/M3                                   : 82 STANDARD RESOLUTION FORMATION DENSITY (F14 
~Ascii
# ...
147.066    467.1017   53.4434    11.57      0.4412     2.235899925231934 2032.8229 
147.2184   465.9669   57.0362    11.6254    0.4273     2.256900072097778 2035.13   
147.3708   463.5072   64.2217    11.5269    0.4373     2.200700044631958 2040.6599 
147.5232   462.9755   62.8744    11.5157    0.3616     2.257299900054932 2040.6762 
147.6756   463.7445   65.4166    11.6506    0.3731     2.331899881362915 2039.8527 
147.828    465.1047   63.3958    11.5311    0.3686     2.268899917602539 2034.2834 
147.9804   467.4291   63.059     11.5091    0.3365     2.237900018692017 2026.2161 
148.1328   469.9619   60.4127    11.2768    0.3649     2.162600040435791 2021.1141 
148.2852   471.3944   58.0548    11.2355    0.3667     2.166899919509888 2020.3627 
148.4376   472.0176   62.0968    11.2301    0.384      2.133899927139282 2021.9667 
148.59     471.1639   59.7309    11.2988    0.4085     2.2153000831604 2019.5334 
148.7424   470.7737   60.2603    11.2134    0.4207     2.238500118255615 2026.6814 
148.8948   468.3888   60.8216    11.1607    0.3928     2.223299980163574 2034.5924 
149.0472   465.7021   64.5266    10.9228    0.408      2.287899971008301 2041.3859 
149.1996   464.7558   65.0078    11.5361    0.3986     2.296600103378296 2038.3987 
149.352    464.2252   61.1903    11.4069    0.3987     2.209500074386597 2036.9835 
149.5044   463.4377   60.6291    11.4893    0.3788     2.181699991226196 2036.925  
149.6568   463.4261   63.4359    11.6595    0.3752     2.234499931335449 2042.4554 
149.8092   461.7734   61.6396    11.8351    0.3722     2.210200071334839 2047.1116 
149.9616   459.469    60.0677    11.604     0.3876     2.168299913406372 2052.3223 
150.114    458.153    59.7871    11.8142    0.3777     2.309600114822388 2049.3154 
150.2664   456.1889   64.2782    11.8986    0.4068     2.279400110244751 2048.2026 
150.4188   456.0912   66.0345    11.3838    0.416      2.375600099563599 2045.6786 
150.5712   459.2462   62.2735    11.4572    0.4152     2.243900060653687 2042.8777 
150.7236   461.5239   61.1507    11.5577    0.4034     2.182499885559082 2045.1505 
150.876    461.8014   62.5382    11.4354    0.377      2.220099925994873 2044.7218 
151.0284   464.2019   63.8933    11.5966    0.3613     2.31279993057251 2048.6594 
151.1808   463.7953   61.6475    11.8674    0.3658     2.292999982833862 2043.7852 
151.3332   464.9247   57.6054    11.7536    0.374      2.174099922180176 2045.3774 
151.4856   465.0313   57.2605    11.6172    0.3467     2.197299957275391 2049.5879 
151.638    462.8931   60.8535    11.4953    0.3538     2.240400075912476 2054.3918 
151.7904   459.7011   66.0344    11.5493    0.4024     2.282700061798096 2053.2292 
151.9428   457.672    66.1464    11.5743    0.395      2.231400012969971 2046.0646 
152.0952   457.6706   64.2378    11.4503    0.3894     2.186500072479248 2042.092  
152.2476   456.1316   59.7305    11.2723    0.4302     2.251800060272217 2048.928  
152.4      451.3104   60.0677    11.3307    0.4096     2.321199893951416 2081.8718 
152.5524   444.7269   58.7525    11.5953    0.3698     2.390899896621704 2117.45   
152.7048   443.6835   60.212     11.8753    0.3876     3.705600023269653 2133.2246 
152.8572   444.4052   60.7733    11.2646    0.3793     2.338799953460693 2109.3867 
153.0096   450.4037   63.2394    11.2197    0.3642     2.364099979400635 2082.352  
153.162    456.8382   65.3729    11.3268    0.3907     2.361599922180176 2066.1621 
153.3144   458.7895   66.0051    11.4058    0.3801     2.309900045394897 2065.2683 
153.4668   460.9148   64.8152    11.8088    0.3952     2.299799919128418 2058.199  
153.6192   461.447    62.1205    12.4619    0.4122     2.236799955368042 2051.6506 
153.7716   460.4456   62.9476    12.3383    0.413      2.22760009765625 2044.4996 
153.924    458.4161   65.9523    12.5519    0.398      2.338799953460693 2044.7157 
154.0764   455.8065   67.2436    12.3704    0.3637     2.32699990272522 2049.0676 
154.2288   455.0734   66.9148    12.2361    0.403      2.280499935150146 2055.3672 
154.3812   456.9838   67.3173    11.9745    0.4078     2.413500070571899 2058.5281 
154.5336   458.7152   69.8436    12.1397    0.4251     2.424599885940552 2060.1108 
154.686    458.5609   71.7443    12.0154    0.402      2.299999952316284 2056.6042 
154.8384   458.4356   68.2637    12.2865    0.3886     2.339699983596802 2055.2046 
154.9908   454.9359   65.4568    12.7824    0.365      2.278599977493286 2058.2961 
155.1432   451.1963   63.3799    12.4614    0.3653     2.384900093078613 2065.8245 
155.2956   451.0605   66.4114    11.8549    0.3878     2.417700052261353 2075.123  
155.448    449.4739   70.976     12.5249    0.3954     2.411200046539307 2075.5449 
155.6004   448.7219   75.1303    12.8471    0.3798     2.376100063323975 2077.3462 
155.7528   450.4836   74.4798    12.6808    0.3732     2.394799947738647 2076.6567 
155.9052   450.6105   73.0588    12.5069    0.3799     2.310199975967407 2080.6638 
156.0576   449.9653   67.1643    12.8044    0.3751     2.288500070571899 2083.5054 
156.21     452.1015   66.0029    13.0897    0.3852     2.354399919509888 2083.0117 
156.3624   452.5733   63.5889    12.9234    0.3831     2.283200025558472 2078.7739 
156.5148   452.4339   65.8343    12.9266    0.3702     2.278500080108643 2074.2039 
156.6672   453.0686   66.0083    12.9894    0.3708     2.397300004959106 2072.4705 
156.8196   451.838    66.3009    13.0343    0.361      2.294699907302856 2071.5339 
156.972    450.0713   66.2042    13.2048    0.3972     2.512700080871582 2071.7224 
157.1244   450.5906   68.1788    13.5276    0.4025     2.354399919509888 2075.9563 
157.2768   450.793    68.8756    13.1494    0.395      2.457799911499023 2081.0408 
157.4292   451.6316   70.7685    12.6396    0.3924     2.286600112915039 2084.4277 
157.5816   451.674    70.7686    12.1868    0.382      2.332600116729736 2084.6055 
157.734    452.1908   69.3167    12.069     0.369      2.325700044631958 2078.498  
157.8864   453.6604   67.8011    12.4298    0.3873     2.273600101470947 2076.697  
158.0388   455.5074   64.0961    13.2328    0.4        2.428900003433228 2071.1511 
158.1912   458.3506   63.2831    14.0257    0.4053     2.384500026702881 2064.3201 
158.3436   461.1624   60.8691    14.2335    0.4026     2.291699886322021 2050.5024 
158.496    463.7855   60.3348    14.2788    0.3958     2.344599962234497 2042.3267 
158.6484   465.7494   61.4983    14.4231    0.4108     2.30620002746582 2047.4906 
158.8008   463.2097   62.9539    14.4816    0.3941     2.27239990234375 2060.321  
158.9532   461.774    67.9232    12.3847    0.4072     2.419300079345703 2065.8035 
159.1056   458.9889   70.6506    8.2908     0.431      2.630500078201294 2067.2146 
159.258    456.7642   73.9029    7.8199     0.4017     2.424799919128418 2065.5859 
159.4104   456.9641   73.1168    11.1255    0.3789     2.434400081634521 2076.0142 
159.5628   455.6173   70.0388    11.9863    0.3821     2.557199954986572 2084.6804 
159.7152   456.0077   69.2839    11.0586    0.3881     2.513200044631958 2090.4832 
159.8676   460.8612   71.4734    9.3656     0.403      2.497499942779541 2089.4822 
160.02     466.555    77.0484    5.8883     0.4001     2.521500110626221 2093.5193 
160.1724   475.678    82.3818    6.0712     0.4307     2.518199920654297 2107.2019 
160.3248   489.7396   84.9748    5.0524     0.4504     2.54640007019043 2126.7949 
160.4772   501.2722   92.4937    3.5258     0.4983     2.694999933242798 2144.7007 
160.6296   510.6119   95.614     3.3133     0.5372     2.740099906921387 2156.2002 
160.782    518.0502   99.0366    3.4685     0.5156     2.780400037765503 2158.9973 
160.9344   517.3304   97.2401    3.3646     0.4848     2.822799921035767 2153.7598 
161.0868   516.4245   98.629     3.2489     0.4875     2.901099920272827 2145.6663 
161.2392   513.031    98.7322    2.5036     0.516      2.903599977493286 2153.0071 
161.3916   505.1513   99.3586    4.6745     0.539      3.087199926376343 2154.8503 
161.544    496.3032   98.2271    4.7826     0.4361     2.727999925613403 2146.852  
