~Version
 VERS              .         2.0                           : CWLS LOG ASCII STANDARD - VERSION 2.0
 WRAP              .         NO                            : ONE LINE PER DEPTH STEP
 DLM               .         SPACE                         : DELIMITING CHARACTER(SPACE TAB OR COMMA)
~Well Information
#_______________________________________________________________________________
#
#PARAMETER_NAME    .UNIT     VALUE                         : DESCRIPTION
#_______________________________________________________________________________
STRT               .M        0                             : First reference value
STOP               .M        294.2844                      : Last reference value
STEP               .M        0.1524                        : Step increment
NULL               .         -9999                         : Missing value
COMP               .                                       : Company
WELL               .         F                             : Well name
FLD                .                                       : Field
LOC                .                                       : Location
CNTY               .                                       : County
STAT               .                                       : State
CTRY               .                                       : Country
SRVC               .                                       : Service Company
DATE               .                                       : Date
API                .                                       : API number
~Parameter Information Block
#_______________________________________________________________________________
#
#PARAMETER_NAME    .UNIT     VALUE                         : DESCRIPTION
#_______________________________________________________________________________
SET                .         Logs                          : 
TLFamily_DEPT      .         Measured Depth                : 
TLFamily_DT        .         Compressional Slowness        : 
TLFamily_GR        .         Gamma Ray                     : 
TLFamily_ILD       .         Resistivity - Deep            : 
TLFamily_NPOR_LIM  .         Thermal Neutron Porosity Limestone: 
TLFamily_PEF       .         Photoelectric Factor          : 
TLFamily_RHO       .         Bulk Density                  : 
~Curve Information
#_______________________________________________________________________________
#
#LOGNAME           .UNIT     LOG_ID                        : DESCRIPTION
#_______________________________________________________________________________
DEPT               .M                                      : 1 Depth Index - Measured Depth 
DT                 .US/M                                   : 111 1 1 DELTA-T (ALSO CALLED SLOWNESS OR INTERVAL TRANSIT TIME) (F14 
GR                 .GAPI                                   : 45 GAMMA RAY (F14.5) **MERGED** 
ILD                .OHMM                                   : 22 ARRAY INDUCTION ONE FOOT RESISTIVITY A90 (F14 
NPOR_LIM           .V/V                                    : 75 ENHANCED THERMAL NEUTRON POROSITY (MATRIX LIMESTONE) (F14.5) **MERGED** 
PEF                .B/E                                    : 80 HIGH RESOLUTION FORMATION PHOTOELECTRIC FACTOR (F14 
RHO                .K/M3                                   : 82 STANDARD RESOLUTION FORMATION DENSITY (F14 
~Ascii
# ...
220.218    429.65     78.8196    11.6616    0.3754     2.074199914932251 2188.6506 
220.3704   432.7922   66.7422    11.5375    0.3816     2.156899929046631 2143.0437 
220.5228   436.0346   53.8286    14.7614    0.3672     1.657299995422363 2095.3877 
220.6752   436.9414   42.2642    24.0349    0.3014     1.694200038909912 2071.0093 
220.8276   436.7997   39.9992    29.6673    0.2916     1.656599998474121 2066.0396 
220.98     433.2654   41.6272    13.7873    0.3109     1.610599994659424 2083.978  
221.1324   430.8815   48.2398    14.7522    0.3073     1.774700045585632 2108.8342 
221.2848   428.937    56.6877    14.6394    0.3346     1.857300043106079 2138.7358 
221.4372   428.343    63.8172    11.8754    0.3391     1.939299941062927 2160.5747 
221.5896   427.9226   68.5794    12.2351    0.3402     1.945600032806396 2168.4751 
221.742    429.6144   66.1092    12.2177    0.3528     2.024100065231323 2164.0686 
221.8944   429.5067   63.1804    14.4644    0.3553     1.870599985122681 2160.5193 
222.0468   430.274    58.5421    16.1475    0.3489     1.880699992179871 2149.7214 
222.1992   427.6892   53.9583    17.8591    0.3877     1.984400033950806 2128.8435 
222.3516   426.3738   47.2217    27.9141    0.3214     1.626600027084351 2114.7085 
222.504    423.8693   46.941     29.0851    0.2792     1.60669994354248 2120.6604 
222.6564   424.1782   50.4835    13.0086    0.3037     2.034899950027466 2135.3127 
222.8088   420.9896   51.529     16.6612    0.3519     1.870700001716614 2123.8733 
222.9612   424.6278   43.3232    31.7229    0.318      1.61489999294281 2099.3018 
223.1136   429.5521   33.9152    46.466     0.2899     1.584400057792664 2079.7556 
223.266    431.4574   35.0688    31.0157    0.2675     1.644799947738647 2090.2376 
223.4184   436.3414   42.3861    19.1838    0.2788     1.795699954032898 2106.6213 
223.5708   433.5162   50.0286    17.3879    0.3423     1.995800018310547 2107.0737 
223.7232   432.1572   49.3394    27.7832    0.3667     1.774999976158142 2099.2954 
223.8756   427.5406   50.9577    37.1513    0.3374     1.664600014686584 2097.325  
224.028    425.9276   50.5164    18.553     0.3257     2.102699995040894 2105.5364 
224.1804   427.2921   52.1599    30.9278    0.3595     1.702900052070618 2109.218  
224.3328   421.8781   51.3741    24.9848    0.2975     1.708699941635132 2117.5488 
224.4852   421.9259   52.5454    20.9564    0.2869     1.7882000207901 2131.6316 
224.6376   423.229    55.1412    17.6236    0.3599     1.938599944114685 2145.0596 
224.79     421.6412   54.6359    22.5125    0.3391     1.750200033187866 2144.0684 
224.9424   425.2808   53.5227    16.7458    0.3326     2.10260009765625 2137.1421 
225.0948   425.7083   48.3445    23.9829    0.3523     1.837100028991699 2118.5488 
225.2472   422.7628   45.5783    59.526     0.3527     1.678200006484985 2100.27   
225.3996   419.178    40.0672    90.65      0.3038     1.631800055503845 2085.4614 
225.552    415.92     37.0571    100.1343   0.3199     1.654099941253662 2080.6846 
225.7044   419.5864   35.0824    57.3096    0.3096     1.594900012016296 2086.8208 
225.8568   424.2543   42.4363    31.5099    0.2949     1.556800007820129 2117.7317 
226.0092   427.7211   58.5226    11.6252    0.3048     1.90090000629425 2163.7944 
226.1616   428.7224   68.0353    10.3005    0.3758     2.09660005569458 2188.3965 
226.314    425.3157   69.677     20.0621    0.4069     1.950799942016602 2173.206  
226.4664   422.8508   58.9586    22.5152    0.347      1.937899947166443 2136.4285 
226.6188   424.5589   51.8852    40.7764    0.3434     1.841300010681152 2104.9065 
226.7712   424.7518   44.3491    64.6864    0.3528     1.638200044631958 2083.1548 
226.9236   426.4999   40.6441    97.5158    0.3212     1.648100018501282 2063.4558 
227.076    427.5366   39.5772    86.4345    0.3378     1.532500028610229 2054.7185 
227.2284   425.5776   41.6545    71.6924    0.3095     1.558300018310547 2066.032  
227.3808   425.8553   49.1672    28.5899    0.3011     1.818600058555603 2100.5085 
227.5332   424.6388   57.9251    24.5891    0.3504     1.697100043296814 2139.179  
227.6856   423.0412   61.5177    16.5201    0.3691     1.962700009346008 2151.7246 
227.838    423.2945   53.3873    25.8105    0.3913     1.964300036430359 2130.8513 
227.9904   422.8264   38.3983    55.4055    0.3455     1.595399975776672 2092.5681 
228.1428   424.7555   28.1233    190.0036   0.3065     1.52240002155304 2068.4819 
228.2952   428.4097   25.8778    245.9952   0.3039     1.538599967956543 2059.0505 
228.4476   431.6486   28.3479    204.4704   0.3091     1.586899995803833 2058.9338 
228.6      432.2994   31.4296    211.4589   0.3289     1.615100026130676 2056.3689 
228.7524   430.9279   30.9805    176.2937   0.3099     1.610999941825867 2054.8059 
228.9048   428.6103   30.3495    129.9055   0.332      1.572199940681458 2053.6777 
229.0572   427.6552   27.5587    155.1139   0.3787     1.629699945449829 2055.855  
229.2096   428.3009   27.7832    251.3721   0.3464     1.541200041770935 2058.0393 
229.362    430.3248   26.4494    351.5568   0.3264     1.497400045394897 2056.075  
229.5144   432.3053   27.0585    303.2208   0.3278     1.54830002784729 2051.1951 
229.6668   435.1669   27.1147    421.9857   0.3281     1.565999984741211 2043.464  
229.8192   439.9445   28.5065    275.3561   0.3773     1.563099980354309 2031.9889 
229.9716   443.1903   29.5732    154.1559   0.3984     1.628299951553345 2019.5203 
230.124    444.767    33.0537    79.9483    0.3944     1.6735999584198 2022.6378 
230.2764   443.358    40.0264    50.7208    0.3563     1.664499998092651 2049.9438 
230.4288   439.3628   44.9666    27.3428    0.3635     1.883700013160706 2075.3708 
230.5812   437.1759   43.2612    35.5259    0.3825     1.879299998283386 2077.6907 
230.7336   435.1297   36.3001    72.7695    0.3523     1.579200029373169 2062.3821 
230.886    433.4032   30.0687    162.4191   0.334      1.645400047302246 2051.8972 
231.0384   434.2329   27.7602    180.2213   0.3308     1.59660005569458 2048.8928 
231.1908   432.5674   26.6535    149.5278   0.332      1.601699948310852 2054.855  
231.3432   430.5543   28.5701    123.422    0.3248     1.70169997215271 2055.3914 
231.4956   430.1164   30.3946    114.957    0.3253     1.596799969673157 2060.6206 
231.648    427.8536   33.7469    94.4547    0.3312     1.591099977493286 2060.9314 
231.8004   425.9382   31.3327    101.3306   0.3576     1.611999988555908 2068.7903 
231.9528   425.1968   28.4136    124.0453   0.3263     1.609300017356873 2076.9238 
232.1052   422.9267   24.7046    138.5823   0.3083     1.583999991416931 2081.7734 
232.2576   419.0052   25.5756    128.6533   0.2994     1.531800031661987 2086.3169 
232.41     417.3455   30.1228    147.0151   0.2874     1.529299974441528 2085.3701 
232.5624   418.3037   35.4657    105.5122   0.3044     1.600200057029724 2082.8315 
232.7148   420.3997   40.4814    75.2763    0.3209     1.670400023460388 2089.032  
232.8672   421.5342   46.7126    51.6304    0.3284     1.692399978637695 2108.9148 
233.0196   418.5148   49.9646    30.2521    0.3526     2.021500110626221 2127.2004 
233.172    413.7284   50.4137    50.6147    0.3902     1.644999980926514 2123.3164 
233.3244   410.3377   44.6063    77.5542    0.3196     1.603399991989136 2107.5391 
233.4768   409.8991   39.4959    75.7052    0.3242     1.668900012969971 2090.9558 
233.6292   411.2911   37.2252    81.3348    0.3217     1.606099963188171 2085.239  
233.7816   412.9364   38.6539    63.572     0.2954     1.633900046348572 2080.3181 
233.934    412.7285   38.2608    51.5929    0.3196     1.671499967575073 2079.554  
234.0864   414.0891   35.7598    72.0914    0.3412     1.556699991226196 2083.0359 
234.2388   413.5026   30.9319    100.9786   0.3158     1.51010000705719 2087.8406 
234.3912   414.3373   29.4163    93.1141    0.2966     1.568699955940247 2081.5615 
234.5436   415.8137   30.3146    83.6536    0.3068     1.713600039482117 2073.5708 
234.696    415.7743   31.1004    96.4212    0.3085     1.653900027275085 2067.5281 
