~Version
 VERS              .         2.0                           : CWLS LOG ASCII STANDARD - VERSION 2.0
 WRAP              .         NO                            : ONE LINE PER DEPTH STEP
 DLM               .         SPACE                         : DELIMITING CHARACTER(SPACE TAB OR COMMA)
~Well Information
#_______________________________________________________________________________
#
#PARAMETER_NAME    .UNIT     VALUE                         : DESCRIPTION
#_______________________________________________________________________________
STRT               .M        0                             : First reference value
STOP               .M        294.2844                      : Last reference value
STEP               .M        0.1524                        : Step increment
NULL               .         -9999                         : Missing value
COMP               .                                       : Company
WELL               .         F                             : Well name
FLD                .                                       : Field
LOC                .                                       : Location
CNTY               .                                       : County
STAT               .                                       : State
CTRY               .                                       : Country
SRVC               .                                       : Service Company
DATE               .                                       : Date
API                .                                       : API number
~Parameter Information Block
#_______________________________________________________________________________
#
#PARAMETER_NAME    .UNIT     VALUE                         : DESCRIPTION
#_______________________________________________________________________________
SET                .         Logs                          : 
TLFamily_DEPT      .         Measured Depth                : 
TLFamily_DT        .         Compressional Slowness        : 
TLFamily_GR        .         Gamma Ray                     : 
TLFamily_ILD       .         Resistivity - Deep            : 
TLFamily_NPOR_LIM  .         Thermal Neutron Porosity Limestone: 
TLFamily_PEF       .         Photoelectric Factor          : 
TLFamily_RHO       .         Bulk Density                  : 
~Curve Information
#_______________________________________________________________________________
#
#LOGNAME           .UNIT     LOG_ID                        : DESCRIPTION
#_______________________________________________________________________________
DEPT               .M                                      : 1 Depth Index - Measured Depth 
DT                 .US/M                                   : 111 1 1 DELTA-T (ALSO CALLED SLOWNESS OR INTERVAL TRANSIT TIME) (F14 
GR                 .GAPI                                   : 45 GAMMA RAY (F14.5) **MERGED** 
ILD                .OHMM                                   : 22 ARRAY INDUCTION ONE FOOT RESISTIVITY A90 (F14 
NPOR_LIM           .V/V                                    : 75 ENHANCED THERMAL NEUTRON POROSITY (MATRIX LIMESTONE) (F14.5) **MERGED** 
PEF                .B/E                                    : 80 HIGH RESOLUTION FORMATION PHOTOELECTRIC FACTOR (F14 
RHO                .K/M3                                   : 82 STANDARD RESOLUTION FORMATION DENSITY (F14 
~Ascii
# ...
161.6964   491.7371   96.6534    4.2995     0.4352     2.808000087738037 2136.6692 
161.8488   487.3439   94.7182    4.1842     0.459      2.93179988861084 2146.4817 
162.0012   489.1931   94.1374    5.1917     0.4739     2.944499969482422 2180.9893 
162.1536   491.8      96.4024    5.2044     0.4223     2.998699903488159 2204.4802 
162.306    488.0302   97.9702    4.9082     0.4676     2.967499971389771 2217.6973 
162.4584   486.8952   95.7636    5.1022     0.4491     2.864099979400635 2210.8018 
162.6108   487.1577   98.0865    4.5572     0.4319     2.863600015640259 2195.0557 
162.7632   493.4416   98.6095    4.0109     0.4678     2.867599964141846 2170.064  
162.9156   501.9447   103.2967   3.4095     0.4963     2.726500034332275 2157.3547 
163.068    511.9487   104.9808   2.9863     0.5002     2.652899980545044 2139.6504 
163.2204   520.0539   108.465    2.8658     0.5237     2.707099914550781 2142.1172 
163.3728   523.0202   107.7848   2.4212     0.5732     2.831199884414673 2137.2759 
163.5252   525.8474   107.1045   2.1753     0.57       2.759099960327148 2145.3716 
163.6776   527.0173   107.5691   2.3082     0.5492     2.723599910736084 2140.6846 
163.83     528.0529   108.15     2.4019     0.536      2.788599967956543 2140.3294 
163.9824   528.8492   110.9209   2.4365     0.5323     2.94160008430481 2136.6401 
164.1348   529.981    108.598    2.4396     0.5312     2.854899883270264 2134.8467 
164.2872   532.015    108.2496   2.4524     0.5527     2.840699911117554 2132.8665 
164.4396   531.254    104.3007   2.4837     0.6139     2.613199949264526 2125.9419 
164.592    530.0083   104.1265   2.5893     0.5413     2.699199914932251 2123.957  
164.7444   528.3463   105.1758   2.7018     0.5169     2.730799913406372 2121.8613 
164.8968   526.6133   103.5498   2.5434     0.6139     2.767400026321411 2135.2905 
165.0492   524.1267   104.8274   2.5285     0.6125     2.767699956893921 2151.9915 
165.2016   518.5322   102.0684   2.7725     0.5457     2.746999979019165 2165.7295 
165.354    510.6347   101.3717   3.2792     0.5126     2.724499940872192 2177.3613 
165.5064   503.8699   99.455     3.6919     0.4651     2.674499988555908 2181.8    
165.6588   499.0391   99.7709    3.6555     0.4657     2.710400104522705 2187.5359 
165.8112   497.27     100.4095   3.6161     0.4678     2.657900094985962 2190.1885 
165.9636   493.8349   99.1901    3.5935     0.5102     2.811100006103516 2188.323  
166.116    486.5102   100.3515   4.0836     0.4589     2.684200048446655 2184.9797 
166.2684   479.2404   99.8457    5.6658     0.427      2.719300031661987 2183.5513 
166.4208   472.3007   98.2776    6.2741     0.4111     2.855499982833862 2187.7854 
166.5732   468.5024   96.7678    5.9804     0.4114     2.794399976730347 2195.6194 
166.7256   469.0607   98.4351    5.6756     0.4164     2.857199907302856 2201.7722 
166.878    468.7134   98.261     5.5366     0.4188     2.809200048446655 2203.8904 
167.0304   468.7027   96.6348    5.9035     0.4001     2.88070011138916 2191.7988 
167.1828   470.9952   92.9182    6.879      0.4048     2.859499931335449 2172.779  
167.3352   471.9618   91.3658    8.9273     0.3949     2.789799928665161 2157.4416 
167.4876   472.6782   89.6234    8.5609     0.3746     2.737799882888794 2160.3814 
167.64     472.3296   88.2874    8.054      0.3806     2.862400054931641 2169.9314 
167.7924   469.1665   91.1756    8.2008     0.4025     2.860599994659424 2181.0102 
167.9448   471.2884   93.2295    8.4644     0.409      2.921200037002563 2183.4985 
168.0972   469.2416   95.2624    7.8455     0.4308     2.97760009765625 2184.1338 
168.2496   470.0694   93.2725    9.0558     0.4        2.863500118255615 2181.239  
168.402    471.3165   95.7487    8.0844     0.404      2.858799934387207 2183.6572 
168.5544   470.9951   95.3285    8.2108     0.421      2.885400056838989 2187.9482 
168.7068   474.6835   92.5564    8.5921     0.4228     3          2171.4307 
168.8592   499.8452   89.9682    9.2347     0.3587     3.036799907684326 2134.6665 
169.0116   501.5598   87.4264    13.1423    0.2909     2.93720006942749 2102.991  
169.164    509.9012   90.388     11.2864    0.357      2.976500034332275 2098.6082 
169.3164   532.8066   88.3882    9.3538     0.3954     3.152600049972534 2096.6301 
169.4688   527.5982   86.4388    14.4521    0.3485     3.109999895095825 2075.8704 
169.6212   551.3654   84.5369    14.7745    0.2912     3.211100101470947 2041.6047 
169.7736   573.6797   82.1579    15.3831    0.2639     3.224600076675415 2019.3294 
169.926    577.2358   85.6753    18.3655    0.2497     3.27209997177124 2005.8108 
170.0784   581.0851   86.0672    19.8237    0.2475     3.2360999584198 1998.7018 
170.2308   591.7154   87.8655    19.9311    0.2462     3.194400072097778 2001.4121 
170.3832   564.9526   89.6252    18.6886    0.2744     3.006799936294556 2031.2927 
170.5356   540.9949   88.3476    11.8709    0.3645     2.875400066375732 2089.5005 
170.688    512.9006   92.7613    8.214      0.4384     2.805000066757202 2153.2673 
170.8404   482.2768   92.4533    8.3884     0.4306     2.760900020599365 2199.6189 
170.9928   458.6924   98.3072    8.5509     0.4031     2.770100116729736 2225.5356 
171.1452   452.6156   98.6555    9.3393     0.3807     2.762900114059448 2234.4153 
171.2976   445.5194   101.9659   9.5363     0.3772     2.624399900436401 2237.6816 
171.45     451.5019   102.8487   10.3445    0.376      2.587800025939941 2233.3928 
171.6024   442.5127   102.8487   10.0682    0.3847     2.565299987792969 2232.9609 
171.7548   440.477    100.8159   10.92      0.3883     2.598099946975708 2224.9836 
171.9072   442.5323   98.493     11.6639    0.3556     2.567199945449829 2218.0903 
172.0596   442.2875   99.4223    12.0499    0.3648     2.586999893188477 2209.4067 
172.212    440.9891   100.0612   12.8053    0.3496     2.656300067901611 2208.3923 
172.3644   447.7653   98.6673    13.2573    0.3378     2.653800010681152 2197.2139 
172.5168   453.3724   94.1374    12.2802    0.3532     2.676199913024902 2180.4177 
172.6692   461.0196   92.7437    10.292     0.392      2.753799915313721 2167.957  
172.8216   468.2461   92.2211    9.0987     0.4116     2.949899911880493 2172.4534 
172.974    468.9114   94.3118    8.3562     0.3989     2.921999931335449 2185.1096 
173.1264   468.3733   93.3826    8.0524     0.3933     2.841500043869019 2195.8975 
173.2788   465.9789   95.5313    7.8224     0.3913     2.945800065994263 2197.9763 
173.4312   463.2387   94.4859    7.9771     0.4109     2.877000093460083 2194.6909 
173.5836   462.113    95.3571    8.5559     0.3893     2.838900089263916 2191.9539 
173.736    461.9913   93.3248    8.8047     0.431      2.816200017929077 2195.51   
173.8884   466.3971   96.6352    7.5559     0.4127     2.891700029373169 2204.2417 
174.0408   471.5872   96.9839    6.6591     0.4105     2.969099998474121 2210.9858 
174.1932   475.1997   102.2103   6.2513     0.4546     2.965699911117554 2216.4998 
174.3456   474.2202   100.2938   5.684      0.4435     2.894399881362915 2222.7476 
174.498    466.1246   101.1066   5.8298     0.4351     2.857599973678589 2225.1243 
174.6504   460.4894   96.4607    7.7308     0.3814     2.724800109863281 2204.5261 
174.8028   474.1784   95.1036    7.3666     0.3695     2.722899913787842 2175.562  
174.9552   474.0034   93.7098    7.3947     0.3201     2.434000015258789 2149.3479 
175.1076   483.7623   93.6515    7.4059     0.3542     2.581399917602539 2150.4155 
175.26     478.645    93.2083    7.6231     0.3872     2.595999956130981 2160.6421 
175.4124   460.6059   93.0923    8.4438     0.3815     2.537800073623657 2174.6174 
175.5648   459.8382   89.8984    9.2711     0.376      2.525300025939941 2178.4377 
175.7172   456.0132   90.2468    9.5261     0.3946     2.704299926757813 2175.2441 
175.8696   455.8199   89.4336    10.7612    0.3967     2.518699884414673 2167.6345 
176.022    455.8008   90.5576    9.2637     0.3746     2.626399993896484 2164.4854 
176.1744   461.4622   94.3904    9.1512     0.4111     2.61080002784729 2170.8574 
