~Version
 VERS              .         2.0                           : CWLS LOG ASCII STANDARD - VERSION 2.0
 WRAP              .         NO                            : ONE LINE PER DEPTH STEP
 DLM               .         SPACE                         : DELIMITING CHARACTER(SPACE TAB OR COMMA)
~Well Information
#_______________________________________________________________________________
#
#PARAMETER_NAME    .UNIT     VALUE                         : DESCRIPTION
#_______________________________________________________________________________
STRT               .M        0                             : First reference value
STOP               .M        294.2844                      : Last reference value
STEP               .M        0.1524                        : Step increment
NULL               .         -9999                         : Missing value
COMP               .                                       : Company
WELL               .         F                             : Well name
FLD                .                                       : Field
LOC                .                                       : Location
CNTY               .                                       : County
STAT               .                                       : State
CTRY               .                                       : Country
SRVC               .                                       : Service Company
DATE               .                                       : Date
API                .                                       : API number
~Parameter Information Block
#_______________________________________________________________________________
#
#PARAMETER_NAME    .UNIT     VALUE                         : DESCRIPTION
#_______________________________________________________________________________
SET                .         Logs                          : 
TLFamily_DEPT      .         Measured Depth                : 
TLFamily_DT        .         Compressional Slowness        : 
TLFamily_GR        .         Gamma Ray                     : 
TLFamily_ILD       .         Resistivity - Deep            : 
TLFamily_NPOR_LIM  .         Thermal Neutron Porosity Limestone: 
TLFamily_PEF       .         Photoelectric Factor          : 
TLFamily_RHO       .         Bulk Density                  : 
~Curve Information
#_______________________________________________________________________________
#
#LOGNAME           .UNIT     LOG_ID                        : DESCRIPTION
#_______________________________________________________________________________
DEPT               .M                                      : 1 Depth Index - Measured Depth 
DT                 .US/M                                   : 111 1 1 DELTA-T (ALSO CALLED SLOWNESS OR INTERVAL TRANSIT TIME) (F14 
GR                 .GAPI                                   : 45 GAMMA RAY (F14.5) **MERGED** 
ILD                .OHMM                                   : 22 ARRAY INDUCTION ONE FOOT RESISTIVITY A90 (F14 
NPOR_LIM           .V/V                                    : 75 ENHANCED THERMAL NEUTRON POROSITY (MATRIX LIMESTONE) (F14.5) **MERGED** 
PEF                .B/E                                    : 80 HIGH RESOLUTION FORMATION PHOTOELECTRIC FACTOR (F14 
RHO                .K/M3                                   : 82 STANDARD RESOLUTION FORMATION DENSITY (F14 
~Ascii
# ...
59.7408    -9999      63.2915    12.2556    0.3277     10         2848.72   
59.8932    -9999      60.4846    12.2543    0.3656     10         2854.4688 
60.0456    -9999      57.1803    12.253     0.4032     9.956500053405762 2859.1389 
60.198     -9999      57.0602    12.2519    0.3755     9.93910026550293 2863.0456 
60.3504    -9999      56.0498    12.2508    0.4067     10         2866.0715 
60.5028    -9999      58.7525    12.2496    0.3879     9.985600471496582 2866.6794 
60.6552    -9999      60.8614    12.2486    0.4155     10         2865.1672 
60.8076    -9999      60.3324    12.2476    0.3719     9.947799682617188 2863.2002 
60.96      -9999      59.4261    12.2469    0.3786     9.979399681091309 2856.8064 
61.1124    -9999      59.2416    12.2468    0.3692     9.964599609375 2844.665  
61.2648    -9999      58.199     12.2475    0.4102     10         2826.7134 
61.4172    -9999      59.4661    12.2495    0.4089     10         2811.019  
61.5696    -9999      58.8647    12.2531    0.4        9.996000289916992 2799.082  
61.722     -9999      62.4335    12.2586    0.3988     10         2789.5452 
61.8744    -9999      57.2368    12.266     0.3792     9.931900024414063 2779.5835 
62.0268    -9999      52.2968    12.2754    0.4068     9.960200309753418 2771.6123 
62.1792    -9999      47.3644    12.2864    0.4251     10         2770.5735 
62.3316    -9999      46.1293    12.2986    0.4588     9.960000038146973 2777.3247 
62.484     -9999      46.017     12.3115    0.359      9.978799819946289 2784.7288 
62.6364    -9999      48.6156    12.3246    0.345      10         2779.9936 
62.7888    -9999      54.1174    12.3374    0.3579     10         2760.4453 
62.9412    -9999      57.7262    12.3496    0.4675     9.957300186157227 2739.0269 
63.0936    -9999      57.3893    12.3612    0.4672     9.991800308227539 2730.7681 
63.246     -9999      56.7556    12.372     0.3768     10         2737.7676 
63.3984    -9999      59.2097    12.3819    0.3953     9.963899612426758 2749.7334 
63.5508    -9999      57.6378    12.391     0.3808     9.950499534606934 2765.8757 
63.7032    -9999      56.435     12.3994    0.3665     10         2780.4968 
63.8556    -9999      51.1578    12.4075    0.3591     10         2794.7112 
64.008     -9999      49.7464    12.4156    0.394      9.964300155639648 2803.739  
64.1604    -9999      48.5434    12.4238    0.3534     10         2812.8931 
64.3128    -9999      48.0943    12.4321    0.3387     9.983499526977539 2820.2041 
64.4652    -9999      47.4927    12.4402    0.3569     9.938199996948242 2822.4998 
64.6176    -9999      44.9182    12.448     0.3176     9.957200050354004 2817.3567 
64.77      -9999      43.4989    12.4547    0.3325     9.989500045776367 2810.4023 
64.9224    -9999      42.9298    12.4595    0.3117     10         2806.1929 
65.0748    -9999      43.8278    12.4616    0.3132     10         2819.1208 
65.2272    -9999      49.1209    12.4609    0.3192     10         2920.448  
65.3796    -9999      51.4784    12.4578    0.3191     10         3202.9211 
65.532     -9999      48.5835    12.4532    0.3467     10         3677.4077 
65.6844    -9999      44.373     12.4482    0.3122     10         3814.3057 
65.8368    -9999      44.7098    12.4431    0.4185     7.989999771118164 3474.0859 
65.9892    -9999      53.7322    12.4428    0.4085     4.888700008392334 2770.4453 
66.1416    -9999      60.5809    12.4488    0.3224     2.769599914550781 2312.7378 
66.294     -9999      64.3502    12.4587    0.323      3.037400007247925 2192.8108 
66.4464    -9999      64.286     12.474     -9999      3.615999937057495 2227.8569 
66.5988    -9999      64.0616    12.4921    0.3244     2.074199914932251 2230.8723 
66.7512    -9999      68.7531    12.5066    0.3165     1.913599967956543 2181.9126 
66.9036    -9999      71.672     12.5149    0.3412     1.924399971961975 2142.8042 
67.056     -9999      73.5807    12.5238    0.3279     1.970100045204163 2133.2283 
67.2084    -9999      71.6558    12.5598    0.3428     2.103699922561646 2133.7622 
67.3608    -9999      69.4105    12.6813    0.3433     2.07859992980957 2126.0845 
67.5132    -9999      70.6215    12.9768    0.3693     2.027400016784668 2130.6245 
67.6656    -9999      70.8222    13.5299    0.3885     2.134900093078613 2135.665  
67.818     -9999      70.9342    14.401     0.3671     1.939800024032593 2133.5872 
67.9704    -9999      66.0022    15.6194    0.3371     1.916399955749512 2114.9631 
68.1228    -9999      63.4201    16.7415    0.318      1.765400052070618 2092.5498 
68.2752    -9999      63.3078    17.8526    0.3385     2.148699998855591 2087.7493 
68.4276    -9999      65.4731    17.8632    0.3482     1.933500051498413 2072.7424 
68.58      -9999      65.5854    16.8568    0.32       2.138799905776978 2090.3682 
68.7324    -9999      69.6676    18.4228    0.3671     2.025300025939941 2097.9644 
68.8848    -9999      68.7531    18.5931    0.3817     1.846400022506714 2135.241  
69.0372    -9999      70.3248    12.0452    0.369      1.781200051307678 2130.2673 
69.1896    -9999      66.8362    18.6537    0.3726     1.980000019073486 2103.28   
69.342     -9999      67.3979    15.8259    0.4002     2.170200109481812 2076.4109 
69.4944    -9999      66.1708    9.1651     0.3807     1.980700016021729 2085.3347 
69.6468    -9999      67.5983    10.8531    0.3998     2.696799993515015 2127.5422 
69.7992    -9999      71.9206    10.5089    0.3818     2.076600074768066 2153.5676 
69.9516    -9999      77.3019    9.7544     0.4209     2.219000101089478 2166.811  
70.104     -9999      79.9968    9.7312     0.3836     2.169800043106079 2163.8213 
70.2564    -9999      75.0648    9.7446     0.3435     2.323899984359741 2170.9829 
70.4088    -9999      75.8508    10.332     0.3649     2.351799964904785 2167.9363 
70.5612    -9999      79.0664    11.4312    0.3723     2.315200090408325 2175.8191 
70.7136    -9999      82.9317    6.2136     0.3678     2.259000062942505 2184.3923 
70.866     -9999      84.5838    8.7976     0.4003     2.251800060272217 2195.9485 
71.0184    497.8607   85.817     7.5713     0.4193     2.531500101089478 2206.5259 
71.1708    498.4646   91.0939    7.6638     0.4398     2.703000068664551 2211.8496 
71.3232    498.8806   92.2485    6.8173     0.4108     2.37280011177063 2207.606  
71.4756    503.7404   93.3012    5.9478     0.3982     2.455100059509277 2191.3984 
71.628     507.5314   94.5041    6.0616     0.4113     2.496099948883057 2181.023  
71.7804    511.7242   94.7288    6.5108     0.405      2.550800085067749 2186.8591 
71.9328    510.0007   91.3604    6.4699     0.4211     2.489500045776367 2198.8848 
72.0852    509.464    91.3927    7.2796     0.3972     2.444900035858154 2196.8738 
72.2376    511.6118   92.9646    6.2998     0.411      2.385600090026855 2178.3416 
72.39      512.6478   96.2123    5.2468     0.4575     2.494800090789795 2164.6975 
72.5424    512.426    94.1913    6.3132     0.4689     2.538199901580811 2158.8223 
72.6948    511.6935   91.0476    7.3031     0.4078     2.415199995040894 2165.5547 
72.8472    508.5866   90.0453    8.1628     0.3752     2.366699934005737 2169.5095 
72.9996    509.3978   92.6357    6.1181     0.403      2.394299983978271 2175.0459 
73.152     513.0709   96.902     5.8427     0.4209     2.550400018692017 2169.7495 
73.3044    515.1614   98.4739    5.6359     0.4325     2.635499954223633 2164.0173 
73.4568    516.8014   98.2411    6.1234     0.4349     2.459399938583374 2163.5032 
73.6092    517.9833   98.5781    5.5198     0.4289     2.506700038909912 2169.7009 
73.7616    519.2504   97.0464    5.1131     0.4411     2.461299896240234 2173.0713 
73.914     519.24     95.9235    4.773      0.4247     2.576299905776978 2173.0986 
74.0664    517.6381   84.1347    5.5896     0.4542     2.434799909591675 2147.1565 
74.2188    518.0643   70.9021    8.3828     0.425      2.164299964904785 2112.7556 
74.3712    521.0391   55.7451    12.6587    0.3606     2.077699899673462 2062.4719 
