~Version
 VERS              .         2.0                           : CWLS LOG ASCII STANDARD - VERSION 2.0
 WRAP              .         NO                            : ONE LINE PER DEPTH STEP
 DLM               .         SPACE                         : DELIMITING CHARACTER(SPACE TAB OR COMMA)
~Well Information
#_______________________________________________________________________________
#
#PARAMETER_NAME    .UNIT     VALUE                         : DESCRIPTION
#_______________________________________________________________________________
STRT               .M        0                             : First reference value
STOP               .M        294.2844                      : Last reference value
STEP               .M        0.1524                        : Step increment
NULL               .         -9999                         : Missing value
COMP               .                                       : Company
WELL               .         F                             : Well name
FLD                .                                       : Field
LOC                .                                       : Location
CNTY               .                                       : County
STAT               .                                       : State
CTRY               .                                       : Country
SRVC               .                                       : Service Company
DATE               .                                       : Date
API                .                                       : API number
~Parameter Information Block
#_______________________________________________________________________________
#
#PARAMETER_NAME    .UNIT     VALUE                         : DESCRIPTION
#_______________________________________________________________________________
SET                .         Logs                          : 
TLFamily_DEPT      .         Measured Depth                : 
TLFamily_DT        .         Compressional Slowness        : 
TLFamily_GR        .         Gamma Ray                     : 
TLFamily_ILD       .         Resistivity - Deep            : 
TLFamily_NPOR_LIM  .         Thermal Neutron Porosity Limestone: 
TLFamily_PEF       .         Photoelectric Factor          : 
TLFamily_RHO       .         Bulk Density                  : 
~Curve Information
#_______________________________________________________________________________
#
#LOGNAME           .UNIT     LOG_ID                        : DESCRIPTION
#_______________________________________________________________________________
DEPT               .M                                      : 1 Depth Index - Measured Depth 
DT                 .US/M                                   : 111 1 1 DELTA-T (ALSO CALLED SLOWNESS OR INTERVAL TRANSIT TIME) (F14 
GR                 .GAPI                                   : 45 GAMMA RAY (F14.5) **MERGED** 
ILD                .OHMM                                   : 22 ARRAY INDUCTION ONE FOOT RESISTIVITY A90 (F14 
NPOR_LIM           .V/V                                    : 75 ENHANCED THERMAL NEUTRON POROSITY (MATRIX LIMESTONE) (F14.5) **MERGED** 
PEF                .B/E                                    : 80 HIGH RESOLUTION FORMATION PHOTOELECTRIC FACTOR (F14 
RHO                .K/M3                                   : 82 STANDARD RESOLUTION FORMATION DENSITY (F14 
~Ascii
# ...
234.8484   417.8954   36.3213    107.5827   0.3109     1.623900055885315 2087.1519 
235.0008   415.98     42.2719    59.0735    0.3133     1.539600014686584 2127.0376 
235.1532   413.6401   50.17      30.8824    0.3304     1.876000046730042 2156.3823 
235.3056   414.9172   46.6333    26.5734    0.3866     2.032700061798096 2147.1843 
235.458    414.1273   37.988     48.2053    0.3936     1.572399973869324 2102.8445 
235.6104   416.5203   29.393     87.2651    0.3397     1.567199945449829 2069.365  
235.7628   421.4321   27.1204    176.6144   0.322      1.552299976348877 2062.042  
235.9152   423.0244   30.3764    162.1386   0.31       1.565099954605103 2064.4582 
236.0676   425.6172   31.8593    224.4719   0.3231     1.57070004940033 2056.9592 
236.22     429.3353   34.2442    177.8468   0.3208     1.639400005340576 2044.4536 
236.3724   429.9771   33.4021    130.7591   0.3356     1.694399952888489 2033.0525 
236.5248   434.5987   34.5248    118.2458   0.3804     1.632400035858154 2025.9712 
236.6772   437.25     33.279     117.9751   0.3672     1.587399959564209 2019.3171 
236.8296   436.7759   32.0265    154.1885   0.3413     1.691100001335144 2017.7183 
236.982    437.1092   30.96      172.5027   0.3442     1.567999958992004 2019.6906 
237.1344   435.2699   29.066     173.4482   0.3456     1.491600036621094 2031.2412 
237.2868   433.7949   28.9711    186.051    0.3192     1.622499942779541 2044.1208 
237.4392   434.2534   29.8132    182.4699   0.3319     1.437299966812134 2052.4639 
237.5916   434.6265   36.8266    120.277    0.3353     1.565000057220459 2063.9436 
237.744    434.9008   46.039     79.2351    0.3242     1.737599968910217 2087.5298 
237.8964   433.6341   56.5366    35.8766    0.3291     1.859200000762939 2130.5671 
238.0488   431.4822   64.1153    34.527     0.3536     1.886500000953674 2160.7476 
238.2012   431.3756   68.9374    26.1783    0.3606     1.899999976158142 2179.0801 
238.3536   429.8096   73.6552    22.9648    0.3506     1.954599976539612 2184.1558 
238.506    431.1269   76.1812    21.3363    0.3591     2.01449990272522 2188.8535 
238.6584   431.3618   77.1609    23.2574    0.3791     2.257600069046021 2182.654  
238.8108   433.6799   73.0956    27.3157    0.3607     2.071700096130371 2167.28   
238.9632   435.7834   68.1391    31.9868    0.3651     2.324100017547607 2152.206  
239.1156   437.2979   64.97      40.894     0.3825     1.92739999294281 2136.2405 
239.268    438.8331   61.5438    50.0001    0.3588     1.761100053787231 2127.2378 
239.4204   439.6969   61.8154    62.5011    0.345      1.788900017738342 2121.0942 
239.5728   441.2979   58.3697    44.8041    0.3549     1.935199975967407 2120.1646 
239.7252   441.0638   58.2244    51.1982    0.3764     1.845999956130981 2116.7302 
239.8776   442.2673   54.4888    64.1793    0.3623     1.916499972343445 2121.0432 
240.03     441.8708   57.6265    65.5324    0.3452     2.017400026321411 2128.5281 
240.1824   439.6145   59.3633    48.0501    0.3379     2.027400016784668 2137.8144 
240.3348   436.4521   63.5175    35.459     0.3514     2.006200075149536 2141.7317 
240.4872   432.5619   64.2238    34.9169    0.3715     1.875399947166443 2145.0774 
240.6396   434.4107   63.666     36.6237    0.3718     1.96780002117157 2147.8967 
240.792    439.0713   65.6379    36.7157    0.3602     2.182499885559082 2134.6367 
240.9444   445.0909   62.601     30.5649    0.3908     1.855000019073486 2085.7029 
241.0968   446.2382   58.6151    35.0026    0.4152     1.656399965286255 2017.6311 
241.2492   444.9156   49.9627    46.7523    0.4154     1.58459997177124 1966.1288 
241.4016   442.1702   44.9743    59.8619    0.3885     1.526900053024292 1970.5186 
241.554    441.0499   41.9989    59.2699    0.3598     1.532600045204163 2007.2777 
241.7064   438.4854   40.2994    58.6343    0.3574     1.73989999294281 2045.1636 
241.8588   438.4034   39.1687    76.2143    0.3543     1.624099969863892 2055.9563 
242.0112   438.3298   39.2888    118.8748   0.3639     1.651900053024292 2057.2319 
242.1636   437.9401   40.8761    93.6227    0.3414     1.491299986839294 2068.7361 
242.316    436.5725   48.3365    56.778     0.3184     1.75600004196167 2100.28   
242.4684   432.2878   58.9389    38.1983    0.355      2.003000020980835 2138.5889 
242.6208   426.8601   68.8503    35.0038    0.3739     1.988899946212769 2162.2312 
242.7732   426.1038   73.0667    32.4939    0.3732     2.05460000038147 2164.4707 
242.9256   424.982    73.5563    31.5292    0.3745     1.892699956893921 2160.0891 
243.078    424.3384   71.785     29.7839    0.3543     1.893800020217896 2159.5393 
243.2304   423.4778   72.1779    29.2816    0.3504     1.857900023460388 2167.6272 
243.3828   422.5378   70.4358    29.9598    0.3328     1.870499968528748 2175.3228 
243.5352   422.2911   69.4253    27.1936    0.3524     1.90530002117157 2173.551  
243.6876   421.1807   68.1903    31.2591    0.3473     2.063199996948242 2167.0535 
243.84     421.7968   68.4322    32.0697    0.367      2.056999921798706 2170.543  
243.9924   419.9652   70.7901    30.6986    0.3408     2.016799926757813 2181.6038 
244.1448   418.8787   72.3058    28.5535    0.3605     2.221400022506714 2199.4663 
244.2972   417.4007   72.0813    28.6454    0.3602     1.93340003490448 2205.1421 
244.4496   416.6721   71.0707    27.2653    0.3289     1.913599967956543 2196.0964 
244.602    418.2057   62.1448    25.1175    0.3433     1.953400015830994 2159.302  
244.7544   417.8488   52.3767    50.2792    0.385      1.846500039100647 2111.8694 
244.9068   417.6934   41.7104    90.1099    0.3643     1.581599950790405 2075.1335 
245.0592   418.4605   37.1517    102.8865   0.325      1.572299957275391 2062.845  
245.2116   414.7529   36.3658    139.0933   0.3136     1.58459997177124 2065.3699 
245.364    413.445    34.7031    131.7282   0.3455     1.51830005645752 2068.2434 
245.5164   412.6985   34.3778    155.8848   0.3193     1.542099952697754 2068.8252 
245.6688   411.8987   33.9848    150.6767   0.3181     1.551100015640259 2067.9775 
245.8212   412.3742   35.3206    139.1755   0.3269     1.538800001144409 2069.6921 
245.9736   411.8188   40.6119    135.7148   0.3214     1.543300032615662 2077.4697 
246.126    412.6083   42.4238    111.0544   0.3352     1.631100058555603 2089.7312 
246.2784   417.7368   44.2667    124.8732   0.3665     1.6389000415802 2094.1367 
246.4308   416.9811   38.6945    161.5202   0.3629     1.625100016593933 2084.1467 
246.5832   418.9839   37.4439    134.0875   0.345      1.575199961662292 2073.794  
246.7356   417.8626   41.0148    105.6256   0.2968     1.595999956130981 2096.4246 
246.888    413.1397   52.1321    37.4662    0.2544     1.673099994659424 2160.5515 
247.0404   403.5743   68.1841    16.0325    0.2854     2.187700033187866 2284.5039 
247.1928   376.7968   80.9495    10.5502    0.2891     2.504300117492676 2403.1597 
247.3452   377.9016   92.456     13.5824    0.293      4.736599922180176 2490.8801 
247.4976   377.4159   101.1048   8.955      0.3582     2.531399965286255 2452.1189 
247.65     385.6248   108.6271   7.7236     0.3385     2.455399990081787 2394.8787 
247.8024   414.0344   110.884    7.6706     0.3276     2.471800088882446 2327.8848 
247.9548   412.7899   111.1648   7.5866     0.3342     2.522799968719482 2317.9434 
248.1072   416.6527   108.9194   7.5698     0.3462     2.392699956893921 2306.3008 
248.2596   418.2155   106.945    7.5376     0.3826     2.444499969482422 2301.9062 
248.412    419.2743   102.6784   8.5941     0.3736     2.257800102233887 2298.3262 
248.5644   419.4707   100.2452   8.2693     0.3374     2.255399942398071 2296.3264 
248.7168   419.5377   102.8816   7.9499     0.3554     2.283499956130981 2294.262  
248.8692   422.5417   105.5199   7.9142     0.3854     2.325599908828735 2299.8916 
249.0216   423.7971   108.8881   7.9282     0.3741     2.444799900054932 2303.4734 
249.174    422.7486   106.9233   7.7926     0.3595     2.435400009155273 2305.5039 
249.3264   421.7544   107.9902   7.8111     0.3572     2.160700082778931 2300.7148 
