~Version
 VERS              .         2.0                           : CWLS LOG ASCII STANDARD - VERSION 2.0
 WRAP              .         NO                            : ONE LINE PER DEPTH STEP
 DLM               .         SPACE                         : DELIMITING CHARACTER(SPACE TAB OR COMMA)
~Well Information
#_______________________________________________________________________________
#
#PARAMETER_NAME    .UNIT     VALUE                         : DESCRIPTION
#_______________________________________________________________________________
STRT               .M        0                             : First reference value
STOP               .M        294.2844                      : Last reference value
STEP               .M        0.1524                        : Step increment
NULL               .         -9999                         : Missing value
COMP               .                                       : Company
WELL               .         F                             : Well name
FLD                .                                       : Field
LOC                .                                       : Location
CNTY               .                                       : County
STAT               .                                       : State
CTRY               .                                       : Country
SRVC               .                                       : Service Company
DATE               .                                       : Date
API                .                                       : API number
~Parameter Information Block
#_______________________________________________________________________________
#
#PARAMETER_NAME    .UNIT     VALUE                         : DESCRIPTION
#_______________________________________________________________________________
SET                .         Logs                          : 
TLFamily_DEPT      .         Measured Depth                : 
TLFamily_DT        .         Compressional Slowness        : 
TLFamily_GR        .         Gamma Ray                     : 
TLFamily_ILD       .         Resistivity - Deep            : 
TLFamily_NPOR_LIM  .         Thermal Neutron Porosity Limestone: 
TLFamily_PEF       .         Photoelectric Factor          : 
TLFamily_RHO       .         Bulk Density                  : 
~Curve Information
#_______________________________________________________________________________
#
#LOGNAME           .UNIT     LOG_ID                        : DESCRIPTION
#_______________________________________________________________________________
DEPT               .M                                      : 1 Depth Index - Measured Depth 
DT                 .US/M                                   : 111 1 1 DELTA-T (ALSO CALLED SLOWNESS OR INTERVAL TRANSIT TIME) (F14 
GR                 .GAPI                                   : 45 GAMMA RAY (F14.5) **MERGED** 
ILD                .OHMM                                   : 22 ARRAY INDUCTION ONE FOOT RESISTIVITY A90 (F14 
NPOR_LIM           .V/V                                    : 75 ENHANCED THERMAL NEUTRON POROSITY (MATRIX LIMESTONE) (F14.5) **MERGED** 
PEF                .B/E                                    : 80 HIGH RESOLUTION FORMATION PHOTOELECTRIC FACTOR (F14 
RHO                .K/M3                                   : 82 STANDARD RESOLUTION FORMATION DENSITY (F14 
~Ascii
# ...
44.5008    -9999      55.8261    12.3198    0.3368     9.968999862670898 2213.656  
44.6532    -9999      55.8263    12.3198    0.3267     10         2204.613  
44.8056    -9999      58.5707    12.3198    0.3526     9.962200164794922 2198.0879 
44.958     -9999      61.5024    12.3198    0.3434     9.999500274658203 2200.3989 
45.1104    -9999      61.3798    12.3198    0.3556     9.979100227355957 2207.0359 
45.2628    -9999      55.3918    12.3198    0.3703     10         2208.4392 
45.4152    -9999      45.1622    12.3198    0.3634     9.970700263977051 2204.4478 
45.5676    -9999      44.9728    12.3198    0.3936     10         2219.3574 
45.72      -9999      48.8513    12.3198    0.369      9.926400184631348 2253.4856 
45.8724    -9999      53.467     12.3198    0.3378     9.972599983215332 2282.6648 
46.0248    -9999      49.2255    12.3198    0.3492     9.939000129699707 2279.9248 
46.1772    -9999      43.1639    12.3198    0.3762     10         2252.4888 
46.3296    -9999      38.4233    12.3198    0.341      9.962100028991699 2227.2896 
46.482     -9999      34.0569    12.3198    0.3497     10         2212.9224 
46.6344    -9999      31.818     12.3198    0.3541     9.992600440979004 2204.4912 
46.7868    -9999      30.6642    12.3198    0.3533     10         2199.0764 
46.9392    -9999      33.5959    12.3198    0.3754     9.929800033569336 2188.4146 
47.0916    -9999      37.02      12.3198    0.3782     9.953200340270996 2184.0986 
47.244     -9999      40.5441    12.3198    0.3421     10         2180.7134 
47.3964    -9999      38.9224    12.3198    0.3556     9.993800163269043 2178.2842 
47.5488    -9999      37.3629    12.3198    0.3278     9.991399765014648 2168.5818 
47.7012    -9999      34.5561    12.3198    0.3257     9.997400283813477 2162.2854 
47.8536    -9999      37.8332    12.3198    0.3412     9.882699966430664 2161.9529 
48.006     -9999      40.0163    12.3198    0.364      10         2159.8562 
48.1584    -9999      44.3826    12.3198    0.3887     10         2152.856  
48.3108    -9999      46.0622    12.3198    0.3634     10         2146.5215 
48.4632    -9999      48.682     12.3198    0.3246     9.99470043182373 2158.0728 
48.6156    -9999      46.9666    12.3198    0.3443     9.899200439453125 2173.2014 
48.768     -9999      46.2515    12.3198    0.3151     10         2192.6848 
48.9204    -9999      48.1851    12.3198    0.3319     9.991600036621094 2197.3743 
49.0728    -9999      51.6136    12.3198    0.3253     10         2200.187  
49.2252    -9999      53.7343    12.3198    0.3425     10         2204.8914 
49.3776    -9999      53.7945    12.3198    0.3778     9.923299789428711 2213.407  
49.53      -9999      52.6429    12.3198    0.3776     9.91450023651123 2218.9866 
49.6824    -9999      53.7656    12.3198    0.3583     9.992300033569336 2212.1509 
49.8348    -9999      53.4648    12.3198    0.3788     10         2204.9053 
49.9872    -9999      55.2112    12.3198    0.3737     9.968999862670898 2197.8828 
50.1396    -9999      55.2736    12.3198    0.358      10         2202.5957 
50.292     -9999      55.033     12.3198    0.3769     10         2225.4675 
50.4444    -9999      54.8459    12.3198    0.3522     10         2250.8745 
50.5968    -9999      52.7875    12.3198    0.3666     9.928000450134277 2257.8381 
50.7492    -9999      52.5202    12.3198    0.337      9.922100067138672 2240.6672 
50.9016    -9999      51.8118    12.3198    0.3128     10         2239.6555 
51.054     -9999      52.7474    12.3198    0.3454     10         2244.1858 
51.2064    -9999      49.9405    12.3198    0.344      9.935600280761719 2243.8572 
51.3588    -9999      46.5722    12.3198    0.3425     9.99370002746582 2221.3735 
51.5112    -9999      45.0752    12.3198    0.367      9.904000282287598 2219.8213 
51.6636    -9999      45.6988    12.3198    0.3401     9.872400283813477 2228.645  
51.816     -9999      46.3002    12.3198    0.36       10         2218.8931 
51.9684    -9999      44.4291    12.3198    0.357      10         2182.7507 
52.1208    -9999      40.8048    12.3198    0.3433     9.96049976348877 2171.8501 
52.2732    -9999      37.6682    12.3198    0.3655     10         2187.4275 
52.4256    -9999      39.0872    12.3198    0.3352     10         2210.7861 
52.578     -9999      41.0119    12.3198    0.3376     10         2246.8645 
52.7304    -9999      41.4419    12.3198    0.3591     9.392399787902832 2304.4416 
52.8828    -9999      33.7229    12.3198    0.3446     9.895400047302246 2457.7449 
53.0352    -9999      27.2041    12.3198    0.3609     10         2591.7222 
53.1876    -9999      23.7178    12.3198    0.3758     10         2705.4026 
53.34      -9999      25.4221    12.3198    0.3819     9.280699729919434 2758.4563 
53.4924    -9999      27.8508    12.3198    0.3961     9.947999954223633 2682.7988 
53.6448    -9999      29.8334    12.3198    0.3671     10         2611.363  
53.7972    -9999      33.7428    12.3197    0.3369     10         2593.0142 
53.9496    -9999      38.314     12.3196    0.3234     10         2715.1423 
54.102     -9999      44.2085    12.3193    0.3376     9.955400466918945 2832.6548 
54.2544    -9999      44.77      12.3189    0.3504     9.957200050354004 2860.7458 
54.4068    -9999      44.2288    12.3186    0.3496     10         2856.8003 
54.5592    -9999      42.2439    12.3182    0.3826     10         2855.6374 
54.7116    -9999      46.7973    12.3176    0.3712     10         2872.5161 
54.864     -9999      52.812     12.317     0.3419     10         2904.1177 
55.0164    -9999      58.1473    12.3163    0.3131     9.993200302124023 2931.2468 
55.1688    -9999      61.6517    12.3155    0.336      9.977800369262695 2942.8691 
55.3212    -9999      64.215     12.3145    0.3267     10         2940.606  
55.4736    -9999      68.7239    12.3133    0.3379     9.967300415039063 2938.1306 
55.626     -9999      70.6774    12.312     0.3378     9.979900360107422 2943.1069 
55.7784    -9999      69.3666    12.3105    0.3107     10         2943.2595 
55.9308    -9999      65.4623    12.3088    0.3355     9.892000198364258 2910.0452 
56.0832    -9999      59.9418    12.3072    0.3974     9.967000007629395 2844.0947 
56.2356    -9999      59.6118    12.3053    0.5386     9.935199737548828 2790.2214 
56.388     -9999      57.71      12.3034    0.5142     10         2791.294  
56.5404    -9999      55.3042    12.3014    0.3718     10         2828.697  
56.6928    -9999      48.7919    12.2993    0.3672     9.996800422668457 2856.561  
56.8452    -9999      45.0547    12.2972    0.3772     9.971400260925293 2853.332  
56.9976    -9999      42.2959    12.2949    0.4003     9.936800003051758 2838.6545 
57.15      -9999      42.5926    12.2925    0.3783     10         2829.3442 
57.3024    -9999      45.8807    12.2901    0.3774     10         2827.6309 
57.4548    -9999      50.2033    12.2877    0.3713     9.943699836730957 2829.1482 
57.6072    -9999      54.7346    12.2851    0.3677     10         2831.5186 
57.7596    -9999      52.7696    12.2825    0.3788     10         2834.6548 
57.912     -9999      54.2853    12.2797    0.393      9.95460033416748 2839.7124 
58.0644    -9999      53.8444    12.277     0.3869     9.959500312805176 2862.6606 
58.2168    -9999      57.381     12.2743    0.4012     9.942000389099121 2927.6333 
58.3692    -9999      53.5795    12.2716    0.355      10         3032.4028 
58.5216    -9999      50.9891    12.2692    0.3352     10         3146.1074 
58.674     -9999      47.7332    12.2669    0.3726     10         3207.8569 
58.8264    -9999      53.5074    12.2648    0.3853     10         3190.833  
58.9788    -9999      61.5913    12.2631    0.3834     10         3094.1736 
59.1312    -9999      68.6487    12.2614    0.347      9.826999664306641 2971.8936 
59.2836    -9999      67.574     12.2598    0.3624     9.947500228881836 2881.5794 
59.436     -9999      66.7879    12.2583    0.3652     9.980299949645996 2844.0085 
59.5884    -9999      64.3822    12.2569    0.3888     10         2842.9595 
