~Version
 VERS              .         2.0                           : CWLS LOG ASCII STANDARD - VERSION 2.0
 WRAP              .         NO                            : ONE LINE PER DEPTH STEP
 DLM               .         SPACE                         : DELIMITING CHARACTER(SPACE TAB OR COMMA)
~Well Information
#_______________________________________________________________________________
#
#PARAMETER_NAME    .UNIT     VALUE                         : DESCRIPTION
#_______________________________________________________________________________
STRT               .M        0                             : First reference value
STOP               .M        294.2844                      : Last reference value
STEP               .M        0.1524                        : Step increment
NULL               .         -9999                         : Missing value
COMP               .                                       : Company
WELL               .         F                             : Well name
FLD                .                                       : Field
LOC                .                                       : Location
CNTY               .                                       : County
STAT               .                                       : State
CTRY               .                                       : Country
SRVC               .                                       : Service Company
DATE               .                                       : Date
API                .                                       : API number
~Parameter Information Block
#_______________________________________________________________________________
#
#PARAMETER_NAME    .UNIT     VALUE                         : DESCRIPTION
#_______________________________________________________________________________
SET                .         Logs                          : 
TLFamily_DEPT      .         Measured Depth                : 
TLFamily_DT        .         Compressional Slowness        : 
TLFamily_GR        .         Gamma Ray                     : 
TLFamily_ILD       .         Resistivity - Deep            : 
TLFamily_NPOR_LIM  .         Thermal Neutron Porosity Limestone: 
TLFamily_PEF       .         Photoelectric Factor          : 
TLFamily_RHO       .         Bulk Density                  : 
~Curve Information
#_______________________________________________________________________________
#
#LOGNAME           .UNIT     LOG_ID                        : DESCRIPTION
#_______________________________________________________________________________
DEPT               .M                                      : 1 Depth Index - Measured Depth 
DT                 .US/M                                   : 111 1 1 DELTA-T (ALSO CALLED SLOWNESS OR INTERVAL TRANSIT TIME) (F14 
GR                 .GAPI                                   : 45 GAMMA RAY (F14.5) **MERGED** 
ILD                .OHMM                                   : 22 ARRAY INDUCTION ONE FOOT RESISTIVITY A90 (F14 
NPOR_LIM           .V/V                                    : 75 ENHANCED THERMAL NEUTRON POROSITY (MATRIX LIMESTONE) (F14.5) **MERGED** 
PEF                .B/E                                    : 80 HIGH RESOLUTION FORMATION PHOTOELECTRIC FACTOR (F14 
RHO                .K/M3                                   : 82 STANDARD RESOLUTION FORMATION DENSITY (F14 
~Ascii
# ...
205.5876   469.7736   74.6363    5.6071     0.4226     2.187099933624268 2114.2473 
205.74     482.0462   76.6573    3.384      0.473      2.250999927520752 2115.7695 
205.8924   499.8849   74.1603    3.2562     0.433      2.320600032806396 2119.3208 
206.0448   502.5066   74.1024    3.5815     0.435      2.246000051498413 2121.3613 
206.1972   497.7996   73.986     3.7047     0.4126     2.128000020980835 2114.1362 
206.3496   498.6354   72.8245    3.8578     0.3987     2.165499925613403 2109.4399 
206.502    499.4624   75.0893    3.7883     0.4335     2.290199995040894 2112.2388 
206.6544   507.0088   76.3282    2.6646     0.4859     2.361299991607666 2121.801  
206.8068   512.1104   79.1159    2.4368     0.531      2.359400033950806 2111.9778 
206.9592   502.0856   72.3038    3.1625     0.562      2.14490008354187 2091.8562 
207.1116   493.0594   61.7499    5.9078     0.4378     1.745700001716614 2073.4712 
207.264    470.1448   51.0643    7.2816     0.3526     1.73389995098114 2070.6604 
207.4164   451.3312   43.8786    10.9872    0.3147     1.731500029563904 2068.4426 
207.5688   449.2292   45.7311    14.9979    0.3232     1.601799964904785 2064.0608 
207.7212   445.501    50.6092    15.8471    0.3563     1.857200026512146 2063.7644 
207.8736   449.9086   56.9993    17.8436    0.3891     1.873999953269958 2069.2188 
208.026    449.8031   56.9995    18.9747    0.3788     1.829100012779236 2073.4263 
208.1784   446.4185   58.2618    16.1435    0.3617     1.752599954605103 2070.5774 
208.3308   442.7015   61.9784    17.1168    0.3811     1.878100037574768 2072.6052 
208.4832   442.8152   67.9849    15.5448    0.4074     1.904000043869019 2073.4314 
208.6356   443.6352   69.0456    14.822     0.3839     1.894999980926514 2079.9917 
208.788    444.1384   65.2129    14.9593    0.401      1.870599985122681 2075.5388 
208.9404   444.2168   61.3841    15.7975    0.3729     1.838099956512451 2072.3342 
209.0928   446.8662   61.1518    17.8197    0.393      1.868600010871887 2065.6558 
209.2452   447.4898   62.6035    17.7488    0.4152     1.897300004959106 2068.2446 
209.3976   449.2383   62.8958    15.3657    0.3841     1.923699975013733 2076.3174 
209.55     451.8351   62.5204    16.9462    0.3903     1.865599989891052 2084.3181 
209.7024   454.3743   64.7872    12.1318    0.3936     1.93340003490448 2090.8264 
209.8548   456.8373   68.4362    12.1384    0.3958     1.918200016021729 2090.1426 
210.0072   461.1298   73.3996    12.9513    0.3786     1.87090003490448 2095.0112 
210.1596   461.89     73.6301    9.4253     0.3951     2.00629997253418 2102.2722 
210.312    457.2919   75.2582    7.6602     0.4073     1.991099953651428 2111.8635 
210.4644   456.6759   75.2869    9.3099     0.3962     1.963199973106384 2115.7112 
210.6168   456.2833   77.9195    9.5392     0.399      2.053499937057495 2111.6436 
210.7692   455.779    81.9903    8.0571     0.3922     2.08299994468689 2117.7986 
210.9216   458.2266   84.6851    6.9454     0.4291     2.131400108337402 2129.7952 
211.074    459.5817   84.84      6.9511     0.4275     2.033699989318848 2145.6882 
211.2264   456.787    85.5969    7.0158     0.4155     2.151400089263916 2149.4238 
211.3788   455.8098   84.1509    7.4232     0.4179     2.053699970245361 2139.9089 
211.5312   459.5604   79.2804    8.0197     0.4126     2.052900075912476 2117.3267 
211.6836   462.3261   72.3678    9.1811     0.4103     1.835399985313416 2101.6694 
211.836    463.6874   73.7614    7.3632     0.383      1.958600044250488 2103.1526 
211.9884   466.6839   79.5437    6.5336     0.4174     1.976600050926208 2103.3423 
212.1408   468.6416   81.2278    7.0349     0.4283     2.006099939346313 2090.6287 
212.2932   465.2088   68.6257    6.8867     0.5375     2.02839994430542 2062.4556 
212.4456   461.4402   52.7387    7.3118     0.5244     1.707200050354004 2060.1165 
212.598    455.6236   37.0007    6.7438     0.2926     1.599699974060059 2068.929  
212.7504   446.1345   33.1099    6.5266     0.2644     1.635300040245056 2087.3674 
212.9028   442.7239   38.2781    6.407      0.2834     1.611899971961975 2113.7918 
213.0552   436.4318   53.2031    7.2297     0.2734     1.715000033378601 2153.4766 
213.2076   435.744    64.2953    8.5773     0.2993     1.9860999584198 2192.656  
213.36     430.571    72.4317    8.4958     0.3427     2.168400049209595 2214.3403 
213.5124   427.4934   72.6059    8.9675     0.3375     2.006200075149536 2219.6599 
213.6648   428.3165   74.9712    9.1417     0.3363     2.050800085067749 2221.5908 
213.8172   424.8959   75.3643    8.6749     0.3332     2.008899927139282 2227.0139 
213.9696   425.1217   78.3125    9.3537     0.3224     2.133300065994263 2230.7827 
214.122    426.4202   71.2431    8.6951     0.3634     2.21560001373291 2214.5176 
214.2744   425.3433   59.3416    7.8049     0.3505     1.745800018310547 2176.9397 
214.4268   427.9381   44.6625    7.4704     0.2875     1.635699987411499 2146.0518 
214.5792   427.3236   39.6063    7.678      0.2497     1.649199962615967 2142.6301 
214.7316   422.7807   41.5151    7.8858     0.2889     1.698199987411499 2157.0674 
214.884    420.8057   40.6439    8.0488     0.3209     1.869199991226196 2162.2793 
215.0364   419.4116   38.9596    8.0335     0.2877     1.622699975967407 2154.9116 
215.1888   419.4866   34.2441    8.188      0.2838     1.763599991798401 2136.4111 
215.3412   420.7224   29.7724    8.0497     0.2999     1.559200048446655 2119.7737 
215.4936   421.8422   24.7238    7.929      0.2754     1.545099973678589 2107.9812 
215.646    423.996    22.1841    7.6892     0.2706     1.545199990272522 2109.7136 
215.7984   427.8539   25.5331    7.718      0.2733     1.596199989318848 2112.9522 
215.9508   427.061    31.2824    7.8267     0.2792     1.618100047111511 2114.281  
216.1032   426.2347   38.077     8.2527     0.2662     1.644199967384338 2115.8174 
216.2556   423.6107   42.3996    8.9335     0.2902     1.702299952507019 2122.6755 
216.408    421.931    43.3869    10.2966    0.2993     1.850399971008301 2128.5708 
216.5604   422.9552   41.8828    9.3837     0.3149     1.700899958610535 2128.8708 
216.7128   424.8602   40.9285    9.0476     0.3106     1.707800030708313 2120.7546 
216.8652   425.8634   40.4058    8.7049     0.3036     1.690099954605103 2113.846  
217.0176   429.5743   42.0338    7.8362     0.2976     1.629400014877319 2113.273  
217.17     436.0308   48.4335    8.3537     0.2844     1.686900019645691 2139.8528 
217.3224   436.09     62.0325    8.8321     0.3019     1.839800000190735 2179.5186 
217.4748   435.0214   70.2713    8.0746     0.3567     2.159300088882446 2207.977  
217.6272   433.9781   70.5114    9.4596     0.365      1.863399982452393 2197.7217 
217.7796   428.7218   59.7889    11.5539    0.3606     1.990300059318542 2165.4702 
217.932    433.4036   50.2068    14.6783    0.3348     1.621799945831299 2129.9265 
218.0844   435.5346   41.3214    10.0644    0.2882     1.647199988365173 2105.8401 
218.2368   437.0256   37.897     8.3946     0.2802     1.637099981307983 2102.2705 
218.3892   436.5283   40.8006    8.8336     0.3005     1.684900045394897 2114.1079 
218.5416   434.9357   45.9113    8.9055     0.3249     1.8992999792099 2136.4111 
218.694    432.1958   52.3246    8.5881     0.3062     1.807899951934814 2147.269  
218.8464   428.9886   58.736     8.4296     0.3021     1.735000014305115 2150.8838 
218.9988   429.6877   62.5687    8.9732     0.3268     1.988600015640259 2158.3518 
219.1512   425.6676   68.2598    9.098      0.3237     1.803799986839294 2189.0908 
219.3036   425.032    75.6119    9.4635     0.3078     2.364000082015991 2231.7981 
219.456    422.5173   82.8713    8.6848     0.367      2.544800043106079 2257.0476 
219.6084   418.0951   86.3733    9.7223     0.3618     2.07699990272522 2255.6533 
219.7608   421.8324   84.2247    9.9628     0.31       2.099400043487549 2248.9568 
219.9132   420.8533   84.9195    9.0784     0.3252     2.251600027084351 2241.4871 
220.0656   424.7977   83.7986    8.2104     0.3481     2.226599931716919 2227.8428 
