~Version
 VERS              .         2.0                           : CWLS LOG ASCII STANDARD - VERSION 2.0
 WRAP              .         NO                            : ONE LINE PER DEPTH STEP
 DLM               .         SPACE                         : DELIMITING CHARACTER(SPACE TAB OR COMMA)
~Well Information
#_______________________________________________________________________________
#
#PARAMETER_NAME    .UNIT     VALUE                         : DESCRIPTION
#_______________________________________________________________________________
STRT               .M        0                             : First reference value
STOP               .M        294.2844                      : Last reference value
STEP               .M        0.1524                        : Step increment
NULL               .         -9999                         : Missing value
COMP               .                                       : Company
WELL               .         F                             : Well name
FLD                .                                       : Field
LOC                .                                       : Location
CNTY               .                                       : County
STAT               .                                       : State
CTRY               .                                       : Country
SRVC               .                                       : Service Company
DATE               .                                       : Date
API                .                                       : API number
~Parameter Information Block
#_______________________________________________________________________________
#
#PARAMETER_NAME    .UNIT     VALUE                         : DESCRIPTION
#_______________________________________________________________________________
SET                .         Logs                          : 
TLFamily_DEPT      .         Measured Depth                : 
TLFamily_DT        .         Compressional Slowness        : 
TLFamily_GR        .         Gamma Ray                     : 
TLFamily_ILD       .         Resistivity - Deep            : 
TLFamily_NPOR_LIM  .         Thermal Neutron Porosity Limestone: 
TLFamily_PEF       .         Photoelectric Factor          : 
TLFamily_RHO       .         Bulk Density                  : 
~Curve Information
#_______________________________________________________________________________
#
#LOGNAME           .UNIT     LOG_ID                        : DESCRIPTION
#_______________________________________________________________________________
DEPT               .M                                      : 1 Depth Index - Measured Depth 
DT                 .US/M                                   : 111 1 1 DELTA-T (ALSO CALLED SLOWNESS OR INTERVAL TRANSIT TIME) (F14 
GR                 .GAPI                                   : 45 GAMMA RAY (F14.5) **MERGED** 
ILD                .OHMM                                   : 22 ARRAY INDUCTION ONE FOOT RESISTIVITY A90 (F14 
NPOR_LIM           .V/V                                    : 75 ENHANCED THERMAL NEUTRON POROSITY (MATRIX LIMESTONE) (F14.5) **MERGED** 
PEF                .B/E                                    : 80 HIGH RESOLUTION FORMATION PHOTOELECTRIC FACTOR (F14 
RHO                .K/M3                                   : 82 STANDARD RESOLUTION FORMATION DENSITY (F14 
~Ascii
# ...
74.5236    525.066    49.5299    15.5613    0.3588     1.873200058937073 2043.0405 
74.676     522.0072   49.9228    13.5553    0.3378     2.015700101852417 2052.8792 
74.8284    521.3679   50.3159    11.5416    0.3169     1.89110004901886 2079.6648 
74.9808    520.3662   49.4576    14.4554    0.3606     1.962399959564209 2076.2551 
75.1332    520.5454   45.3354    17.2206    0.3514     1.763800024986267 2050.3862 
75.2856    529.5736   42.6968    16.8932    0.3314     1.75       2019.49   
75.438     532.8951   42.8332    17.4638    0.367      1.769000053405762 2006.7911 
75.5904    534.5654   43.3626    18.2363    0.3834     1.714200019836426 2000.4938 
75.7428    531.4726   48.6476    17.8466    0.3389     1.848199963569641 2013.2739 
75.8952    522.3768   50.4201    15.2291    0.3384     1.913800001144409 2032.8238 
76.0476    515.0765   55.3603    14.7316    0.3384     2.032299995422363 2063.8091 
76.2       508.2044   56.2022    14.6933    0.3708     2.053100109100342 2080.2646 
76.3524    505.6104   55.6407    14.1157    0.3739     2.037899971008301 2100.1148 
76.5048    504.1008   51.6148    16.4926    0.3626     2.10509991645813 2100.8896 
76.6572    507.0318   47.8456    18.5966    0.3756     2.178600072860718 2102.0649 
76.8096    503.6772   46.394     19.7923    0.3334     2.141200065612793 2116.4177 
76.962     494.6917   53.0025    14.2901    0.3221     2.148000001907349 2148.2253 
77.1144    496.6153   53.2833    17.13      0.3343     3.02839994430542 2174.4563 
77.2668    485.8649   56.8678    15.0135    0.3559     2.252000093460083 2173.2305 
77.4192    484.7758   55.9134    13.6728    0.3623     2.230000019073486 2162.3896 
77.5716    485.9486   62.2569    12.4591    0.3412     2.227400064468384 2150.9683 
77.724     486.5659   65.9622    12.068     0.3682     2.075700044631958 2149.3804 
77.8764    491.006    65.8417    11.6485    0.3779     2.087300062179565 2140.6287 
78.0288    494.38     62.9869    12.4069    0.3732     2.110199928283691 2137.676  
78.1812    495.0554   60.8535    14.8704    0.3589     2.261399984359741 2129.5559 
78.3336    489.8367   62.5379    14.0026    0.3301     1.939000010490417 2132.915  
78.486     491.3056   64.1578    12.7943    0.312      2.018899917602539 2132.884  
78.6384    498.3296   60.2284    11.8734    0.3824     2.206799983978271 2117.2578 
78.7908    509.683    53.1307    15.6179    0.3949     2.09279990196228 2079.2185 
78.9432    518.9448   45.7206    17.4066    0.3343     1.760800004005432 2049.1477 
79.0956    518.5498   45.4558    17.0704    0.3149     1.857699990272522 2056.6418 
79.248     514.1743   49.8105    14.8444    0.3167     1.916499972343445 2081.0176 
79.4004    514.3425   55.3119    12.3814    0.3524     1.993299961090088 2082.9468 
79.5528    511.1071   58.945     15.8873    0.3653     1.944499969482422 2079.4958 
79.7052    510.4913   57.8381    14.2507    0.3482     1.887500047683716 2080.0535 
79.85760000000001 515.1703   57.3891    13.1469    0.376      2.030200004577637 2085.7495 
80.01000000000001 510.6204   52.3124    16.0864    0.3854     1.936699986457825 2068.2551 
80.16240000000001 513.6714   48.0302    17.0624    0.3669     1.886399984359741 2050.6067 
80.31480000000001 520.9803   41.7907    16.9709    0.3742     2.125900030136108 2042.3961 
80.46720000000001 524.1431   39.7938    17.7448    0.3746     1.90530002117157 2038.7568 
80.61960000000001 525.7292   42.2719    19.1242    0.384      1.728600025177002 2033.6194 
80.77200000000001 522.4733   49.1849    17.3041    0.3563     1.798499941825867 2039.3855 
80.92440000000001 521.9608   52.6255    14.8859    0.3412     1.911399960517883 2047.3353 
81.07680000000001 520.8883   49.8104    16.3392    0.3875     1.794700026512146 2045.4534 
81.22920000000001 516.9328   48.3105    17.5039    0.3346     1.794299960136414 2059.4861 
81.38160000000001 517.0684   54.4458    15.4165    0.3486     1.920600056648254 2078.3457 
81.53400000000001 512.3673   62.4174    14.05      0.3751     2.334399938583374 2117.595  
81.68640000000001 504.8142   68.1838    13.1189    0.3323     1.918200016021729 2128.5334 
81.83880000000001 505.9869   66.2588    12.3208    0.3648     2.023999929428101 2135.3872 
81.99120000000001 504.1132   67.7184    15.1048    0.3636     1.853099942207336 2131.6409 
82.14360000000001 497.086    69.6273    13.6377    0.3254     2.080100059509277 2144.0139 
82.29600000000001 494.4371   76.2435    12.5434    0.3073     2.17519998550415 2158.77   
82.44840000000001 494.273    77.4785    11.3127    0.3461     2.081599950790405 2161.5708 
82.60080000000001 495.2553   72.811     12.6229    0.3756     2.234600067138672 2150.3279 
82.75320000000001 500.3662   68.8735    14.4298    0.3246     1.945799946784973 2133.0322 
82.90560000000001 508.7199   62.9468    13.8814    0.3606     2.146199941635132 2117.9858 
83.05800000000001 508.7332   63.5721    13.6167    0.3648     1.970499992370605 2103.343  
83.21040000000001 512.5829   61.495     14.8776    0.3346     1.897500038146973 2105.956  
83.36279999999999 511.1994   70.1164    14.8816    0.3252     1.867900013923645 2124.7878 
83.51519999999999 512.3176   84.2871    10.7355    0.3232     2.101999998092651 2156.7637 
83.66759999999999 516.5202   102.7568   8.5026     0.3633     2.758399963378906 2190.7839 
83.81999999999999 516.3434   114.7057   7.4601     0.4299     2.774600028991699 2209.7661 
83.97239999999999 523.3107   119.3975   7.4705     0.4201     2.865999937057495 2216.354  
84.12479999999999 521.5195   119.3972   6.6728     0.3919     2.652899980545044 2206.1665 
84.27719999999999 519.1259   119.6379   6.3487     0.386      2.8850998878479 2201.3237 
84.42959999999999 519.4144   120.6484   6.5748     0.3907     2.64680004119873 2192.3584 
84.58199999999999 513.047    121.9076   7.6831     0.3986     2.535599946975708 2194.7222 
84.73439999999999 505.6242   121.0575   8.6925     0.3837     2.507999897003174 2199.2378 
84.88679999999999 498.6592   119.2046   9.9116     0.3682     2.666500091552734 2213.2673 
85.03919999999999 492.3246   115.1388   10.3875    0.3503     2.634599924087524 2222.604  
85.19159999999999 489.1418   113.6792   9.8009     0.3634     2.350399971008301 2220.0408 
85.34399999999999 485.6227   112.9577   11.5304    0.3707     2.171200037002563 2211.0266 
85.49639999999999 481.6162   112.5085   11.6145    0.3496     2.224699974060059 2199.6953 
85.64879999999999 475.6939   105.1949   11.9883    0.3686     2.204600095748901 2189.2956 
85.80119999999999 471.7212   96.2045    12.9583    0.3397     2.095400094985962 2178.1772 
85.95359999999999 470.2396   90.8152    13.5885    0.3233     2.070600032806396 2176.2441 
86.10599999999999 469.7114   92.86      12.9876    0.328      2.079400062561035 2176.1863 
86.25839999999999 473.9211   91.6251    12.7166    0.3371     2.128499984741211 2178.1992 
86.41079999999999 481.0004   98.2817    10.8663    0.3422     2.213399887084961 2183.2124 
86.56319999999999 485.5674   103.4384   8.7642     0.3533     2.308900117874146 2202.6274 
86.71559999999999 489.7213   113.7839   9.2453     0.3856     2.468899965286255 2224.4668 
86.86799999999999 489.2462   114.0879   9.5022     0.4343     2.558700084686279 2233.2466 
87.0204    486.2219   116.6706   10.818     0.4205     2.524199962615967 2235.9871 
87.1728    482.9124   118.3548   11.131     0.3877     2.323100090026855 2234.7422 
87.3252    481.8541   121.3866   10.864     0.3798     2.328999996185303 2236.3    
87.4776    482.2891   124.9552   10.1732    0.3675     2.343600034713745 2237.4011 
87.63      483.5175   127.7461   9.691      0.3642     2.35479998588562 2235.3274 
87.7824    485.9998   125.0114   9.6924     0.3944     2.300699949264526 2228.8865 
87.9348    488.6583   120.6568   8.7649     0.4062     2.341599941253662 2219.8418 
88.0872    491.0548   113.1743   8.9466     0.3552     2.426599979400635 2195.0989 
88.2396    495.2542   107.264    10.7661    0.4127     2.464699983596802 2157.6714 
88.392     498.026    98.6263    13.5347    0.4068     2.032900094985962 2116.0984 
