~Version
 VERS              .         2.0                           : CWLS LOG ASCII STANDARD - VERSION 2.0
 WRAP              .         NO                            : ONE LINE PER DEPTH STEP
 DLM               .         SPACE                         : DELIMITING CHARACTER(SPACE TAB OR COMMA)
~Well Information
#_______________________________________________________________________________
#
#PARAMETER_NAME    .UNIT     VALUE                         : DESCRIPTION
#_______________________________________________________________________________
STRT               .M        0                             : First reference value
STOP               .M        294.2844                      : Last reference value
STEP               .M        0.1524                        : Step increment
NULL               .         -9999                         : Missing value
COMP               .                                       : Company
WELL               .         F                             : Well name
FLD                .                                       : Field
LOC                .                                       : Location
CNTY               .                                       : County
STAT               .                                       : State
CTRY               .                                       : Country
SRVC               .                                       : Service Company
DATE               .                                       : Date
API                .                                       : API number
~Parameter Information Block
#_______________________________________________________________________________
#
#PARAMETER_NAME    .UNIT     VALUE                         : DESCRIPTION
#_______________________________________________________________________________
SET                .         Logs                          : 
TLFamily_DEPT      .         Measured Depth                : 
TLFamily_DT        .         Compressional Slowness        : 
TLFamily_GR        .         Gamma Ray                     : 
TLFamily_ILD       .         Resistivity - Deep            : 
TLFamily_NPOR_LIM  .         Thermal Neutron Porosity Limestone: 
TLFamily_PEF       .         Photoelectric Factor          : 
TLFamily_RHO       .         Bulk Density                  : 
~Curve Information
#_______________________________________________________________________________
#
#LOGNAME           .UNIT     LOG_ID                        : DESCRIPTION
#_______________________________________________________________________________
DEPT               .M                                      : 1 Depth Index - Measured Depth 
DT                 .US/M                                   : 111 1 1 DELTA-T (ALSO CALLED SLOWNESS OR INTERVAL TRANSIT TIME) (F14 
GR                 .GAPI                                   : 45 GAMMA RAY (F14.5) **MERGED** 
ILD                .OHMM                                   : 22 ARRAY INDUCTION ONE FOOT RESISTIVITY A90 (F14 
NPOR_LIM           .V/V                                    : 75 ENHANCED THERMAL NEUTRON POROSITY (MATRIX LIMESTONE) (F14.5) **MERGED** 
PEF                .B/E                                    : 80 HIGH RESOLUTION FORMATION PHOTOELECTRIC FACTOR (F14 
RHO                .K/M3                                   : 82 STANDARD RESOLUTION FORMATION DENSITY (F14 
~Ascii
# ...
190.9572   453.6895   96.4372    5.6396     0.4037     2.598400115966797 2215.0247 
191.1096   464.8095   95.2102    4.3599     0.4352     2.693700075149536 2209.2761 
191.262    486.1123   94.8174    3.9414     0.4363     2.685499906539917 2186.4141 
191.4144   500.5238   93.7586    2.5124     0.4882     2.672100067138672 2155.169  
191.5668   513.3121   86.2281    2.2989     0.5426     2.752799987792969 2131.2449 
191.7192   522.378    83.2256    2.3559     0.5471     2.649600028991699 2119.6787 
191.8716   520.2513   81.2048    2.4227     0.5072     2.674200057983398 2116.8379 
192.024    519.7185   81.2432    2.3776     0.5061     2.694000005722046 2112.8626 
192.1764   520.1972   80.3721    2.2759     0.481      2.647900104522705 2108.9573 
192.3288   519.1865   80.5481    2.236      0.5035     2.722300052642822 2114.7388 
192.4812   517.3871   82.4648    2.4446     0.494      2.655200004577637 2126.0032 
192.6336   514.2826   83.278     2.6538     0.4777     2.579099893569946 2139.7241 
192.786    510.1481   84.6716    2.3707     0.4849     2.716700077056885 2147.7056 
192.9384   500.4647   80.6064    2.7968     0.5275     2.680900096893311 2160.6897 
193.0908   499.5477   78.051     4.3392     0.4104     2.520800113677979 2167.4331 
193.2432   491.1392   75.6702    5.9664     0.3588     2.546200037002563 2171.1082 
193.3956   485.7536   78.6899    4.608      0.4258     2.632800102233887 2173.5803 
193.548    486.1055   81.2453    3.714      0.4632     2.607599973678589 2181.324  
193.7004   476.3534   84.1493    3.7949     0.4778     2.545000076293945 2195.0791 
193.8528   471.7394   85.0362    4.1584     0.4302     2.657000064849854 2201.3874 
194.0052   465.0183   85.2103    5.4723     0.3788     2.593800067901611 2210.7073 
194.1576   460.136    85.2507    6.0621     0.3764     2.578700065612793 2212.1162 
194.31     453.4471   86.4545    5.6869     0.4204     2.434600114822388 2213.9277 
194.4624   452.6391   87.2677    6.4983     0.3917     2.43720006942749 2210.9966 
194.6148   449.7708   86.7622    7.1362     0.3264     2.4514000415802 2206.969  
194.7672   445.8578   84.8459    7.2051     0.3295     2.427799940109253 2208.7573 
194.9196   446.4435   85.717     6.6242     0.3806     2.459399938583374 2218.2891 
195.072    445.847    86.7625    6.4921     0.3924     2.434700012207031 2223.7722 
195.2244   447.727    87.4186    6.87       0.3871     2.440399885177612 2218.8389 
195.3768   449.9278   83.4696    7.2755     0.3558     2.459800004959106 2205.5212 
195.5292   455.534    83.0049    8.125      0.4041     2.773799896240234 2197.011  
195.6816   460.5497   86.7624    5.7538     0.4164     2.609299898147583 2187.7022 
195.834    473.1813   97.5641    4.1755     0.5128     2.576900005340576 2173.3638 
195.9864   476.9782   101.4549   3.1084     0.5086     2.631500005722046 2166.4109 
196.1388   479.0869   102.5254   3.6835     0.4623     2.581300020217896 2178.0688 
196.2912   478.5582   97.7633    4.1972     0.4314     2.650700092315674 2198.0254 
196.4436   473.369    96.2672    3.7226     0.4233     2.623800039291382 2210.79   
196.596    475.331    95.2566    3.6417     0.4595     2.723400115966797 2212.0481 
196.7484   479.5721   93.34      3.5845     0.4529     2.690200090408325 2209.1919 
196.9008   480.9482   95.5854    3.4048     0.4523     2.616699934005737 2205.9893 
197.0532   485.0107   94.4802    3.4353     0.4326     2.641200065612793 2202.5571 
197.2056   487.9662   96.7993    3.5031     0.47       2.681400060653687 2196.7905 
197.358    490.1541   94.61      3.3192     0.4472     2.680599927902222 2188.9343 
197.5104   493.4103   98.5784    3.236      0.4522     2.658099889755249 2183.1157 
197.6628   492.2057   98.7564    3.3267     0.4473     2.741600036621094 2187.6968 
197.8152   492.3275   99.5424    3.335      0.4516     2.670900106430054 2197.9939 
197.9676   491.0401   97.5484    3.4165     0.4822     2.640199899673462 2203.9346 
198.12     490.5778   98.4368    3.478      0.4384     2.673799991607666 2202.6328 
198.2724   490.7763   96.4198    3.4259     0.4598     2.696599960327148 2197.0957 
198.4248   488.9802   95.4946    3.2835     0.4751     2.677999973297119 2193.7266 
198.5772   483.4621   93.3866    3.5013     0.4609     2.636899948120117 2198.9038 
198.7296   475.6916   93.2704    4.6356     0.4004     2.606899976730347 2207.208  
198.882    473.3716   92.0469    5.1758     0.3762     2.539999961853027 2210.3645 
199.0344   471.6885   92.4148    4.0338     0.4054     2.724299907684326 2207.0972 
199.1868   477.8333   93.2279    4.0143     0.437      2.638200044631958 2199.3877 
199.3392   486.5577   95.5511    3.8733     0.455      2.623399972915649 2190.3064 
199.4916   490.7889   93.8106    3.401      0.463      2.603800058364868 2183.4409 
199.644    493.3965   94.1591    2.8428     0.4966     2.660799980163574 2186.8804 
199.7964   488.8044   95.2623    3.0197     0.4776     2.655100107192993 2201.9336 
199.9488   482.0395   98.2607    4.41       0.4169     2.629800081253052 2212.1035 
200.1012   477.7619   98.0535    4.2481     0.4445     2.553400039672852 2210.479  
200.2536   478.3975   95.3242    3.7734     0.4616     2.595799922943115 2204.7725 
200.406    482.4823   95.4695    3.5994     0.4674     2.612799882888794 2200.2002 
200.5584   483.6591   94.908     3.5172     0.4568     2.584000110626221 2204.6814 
200.7108   481.0815   95.7789    3.4941     0.4637     2.506599903106689 2210.8721 
200.8632   475.9355   94.6562    4.007      0.4328     2.512500047683716 2220.3975 
201.0156   470.1649   95.4422    4.379      0.4164     2.516400098800659 2222.5232 
201.168    465.3519   93.4136    5.1776     0.4179     2.60260009765625 2217.1807 
201.3204   463.8566   92.4751    5.6434     0.408      2.510200023651123 2207.283  
201.4728   463.9562   90.7349    6.2252     0.4009     2.580100059509277 2209.0435 
201.6252   462.6833   88.0016    5.9859     0.4137     2.576900005340576 2214.5332 
201.7776   462.963    85.5718    6.3634     0.3993     2.412899971008301 2212.4717 
201.93     457.9038   86.1913    7.0522     0.3843     2.375400066375732 2205.2146 
202.0824   457.2529   88.3071    6.5737     0.3824     2.464999914169312 2206.9045 
202.2348   458.1393   90.5623    5.5938     0.3979     2.678800106048584 2215.9414 
202.3872   461.8918   92.8271    5.0171     0.4166     2.585200071334839 2222.0862 
202.5396   465.8486   96.8089    4.454      0.4488     2.680000066757202 2220.928  
202.692    464.6637   96.4605    4.4254     0.433      2.660399913787842 2244.7224 
202.8444   448.7759   90.9376    5.6442     0.4422     2.659600019454956 2322.5732 
202.9968   399.7248   79.0906    7.4877     0.3645     2.769200086593628 2441.5454 
203.1492   377.1242   71.6261    12.5027    0.2519     4.560599803924561 2540.0095 
203.3016   369.2742   72.6773    14.1163    0.3004     3.780699968338013 2490.2144 
203.454    379.2997   78.9705    8.2254     0.3643     2.365700006484985 2367.1223 
203.6064   422.1956   80.5424    8.0642     0.3281     2.329400062561035 2228.595  
203.7588   456.6545   73.051     8.5135     0.3176     2.390799999237061 2170.9531 
203.9112   463.8315   66.5953    9.0545     0.3005     2.210299968719482 2145.5327 
204.0636   467.3447   63.9508    9.651      0.2946     2.23639988899231 2139.687  
204.216    460.251    67.7528    8.8212     0.3265     2.236200094223022 2153.0188 
204.3684   443.1245   68.7284    8.4723     0.3427     2.241199970245361 2165.4133 
204.5208   442.5229   71.2044    8.5463     0.3602     2.237900018692017 2169.2148 
204.6732   451.8681   74.4293    6.256      0.3694     2.302099943161011 2174.7981 
204.8256   460.6      78.5061    4.8708     0.4196     2.495500087738037 2179.9854 
204.978    467.6202   80.8639    4.87       0.4413     2.413500070571899 2174.6931 
205.1304   465.5706   78.0763    6.6152     0.4128     2.273699998855591 2155.3166 
205.2828   454.8771   74.708     7.5183     0.3703     2.154799938201904 2131.4373 
205.4352   458.0252   74.2297    9.5261     0.3423     2.146199941635132 2121.3022 
