~Version
 VERS              .         2.0                           : CWLS LOG ASCII STANDARD - VERSION 2.0
 WRAP              .         NO                            : ONE LINE PER DEPTH STEP
 DLM               .         SPACE                         : DELIMITING CHARACTER(SPACE TAB OR COMMA)
~Well Information
#_______________________________________________________________________________
#
#PARAMETER_NAME    .UNIT     VALUE                         : DESCRIPTION
#_______________________________________________________________________________
STRT               .M        0                             : First reference value
STOP               .M        294.2844                      : Last reference value
STEP               .M        0.1524                        : Step increment
NULL               .         -9999                         : Missing value
COMP               .                                       : Company
WELL               .         F                             : Well name
FLD                .                                       : Field
LOC                .                                       : Location
CNTY               .                                       : County
STAT               .                                       : State
CTRY               .                                       : Country
SRVC               .                                       : Service Company
DATE               .                                       : Date
API                .                                       : API number
~Parameter Information Block
#_______________________________________________________________________________
#
#PARAMETER_NAME    .UNIT     VALUE                         : DESCRIPTION
#_______________________________________________________________________________
SET                .         Logs                          : 
TLFamily_DEPT      .         Measured Depth                : 
TLFamily_DT        .         Compressional Slowness        : 
TLFamily_GR        .         Gamma Ray                     : 
TLFamily_ILD       .         Resistivity - Deep            : 
TLFamily_NPOR_LIM  .         Thermal Neutron Porosity Limestone: 
TLFamily_PEF       .         Photoelectric Factor          : 
TLFamily_RHO       .         Bulk Density                  : 
~Curve Information
#_______________________________________________________________________________
#
#LOGNAME           .UNIT     LOG_ID                        : DESCRIPTION
#_______________________________________________________________________________
DEPT               .M                                      : 1 Depth Index - Measured Depth 
DT                 .US/M                                   : 111 1 1 DELTA-T (ALSO CALLED SLOWNESS OR INTERVAL TRANSIT TIME) (F14 
GR                 .GAPI                                   : 45 GAMMA RAY (F14.5) **MERGED** 
ILD                .OHMM                                   : 22 ARRAY INDUCTION ONE FOOT RESISTIVITY A90 (F14 
NPOR_LIM           .V/V                                    : 75 ENHANCED THERMAL NEUTRON POROSITY (MATRIX LIMESTONE) (F14.5) **MERGED** 
PEF                .B/E                                    : 80 HIGH RESOLUTION FORMATION PHOTOELECTRIC FACTOR (F14 
RHO                .K/M3                                   : 82 STANDARD RESOLUTION FORMATION DENSITY (F14 
~Ascii
# ...
88.5444    501.5329   99.4844    13.6217    0.3685     2.092099905014038 2102.0644 
88.6968    502.4583   102.1468   13.6575    0.324      2.079699993133545 2108.6509 
88.8492    502.3675   106.2977   13.0044    0.3355     2.171799898147583 2123.4973 
89.0016    500.4773   105.7364   12.4681    0.3516     2.195800065994263 2137.0725 
89.154     496.7513   104.7737   12.5949    0.3804     2.143599987030029 2143.906  
89.3064    489.6716   100.2784   13.7896    0.4117     2.123699903488159 2149.1035 
89.4588    482.9872   95.2899    14.7122    0.3646     2.151999950408936 2154.419  
89.6112    477.0488   90.1095    14.992     0.3522     2.169600009918213 2168.0884 
89.7636    470.2148   91.2962    14.9548    0.3563     2.119800090789795 2184.137  
89.916     470.7049   92.9162    15.0336    0.3381     2.170200109481812 2193.4524 
90.0684    471.2484   97.0142    13.5946    0.3705     2.272200107574463 2194.7849 
90.2208    470.4182   96.8378    12.6309    0.3823     2.219899892807007 2188.7246 
90.3732    475.7658   98.8269    12.6728    0.3923     2.274399995803833 2186.6565 
90.5256    470.9782   95.0658    12.7687    0.349      2.204299926757813 2185.9465 
90.678     467.6335   93.1571    14.8105    0.3545     2.516400098800659 2199.1443 
90.8304    464.7859   88.3454    17.5571    0.3846     2.671200037002563 2209.366  
90.9828    457.2423   88.7383    17.4061    0.3682     2.260200023651123 2219.0566 
91.1352    461.8062   93.4538    17.092     0.3377     2.154999971389771 2221.8936 
91.2876    471.84     97.1828    15.9631    0.3287     2.206500053405762 2223.4636 
91.44      476.9593   102.1791   12.9341    0.3924     2.223700046539307 2221.0911 
91.5924    483.2495   102.1795   13.4557    0.3999     2.222899913787842 2220.1943 
91.7448    483.229    103.1417   13.7726    0.4189     2.224100112915039 2220.5566 
91.8972    475.7412   103.3661   12.7681    0.3932     2.275799989700317 2223.1348 
92.0496    474.1925   101.2166   12.6709    0.3659     2.285200119018555 2213.6628 
92.202     470.7577   96.8782    12.582     0.3805     2.442699909210205 2209.28   
92.3544    457.7565   89.3559    14.203     0.3994     2.275500059127808 2239.9006 
92.5068    430.7937   81.4165    15.8914    0.3285     2.691699981689453 2299.9199 
92.6592    423.3829   80.7425    20.788     0.3264     3.733500003814697 2349.8286 
92.8116    422.2267   82.2019    15.2483    0.3582     2.754899978637695 2342.4263 
92.964     429.5794   87.912     13.2769    0.3166     2.420300006866455 2301.9866 
93.1164    454.5876   89.6766    12.7492    0.3444     2.552999973297119 2258.167  
93.2688    459.605    90.6869    13.7373    0.3515     2.238399982452393 2231.4522 
93.4212    460.3122   88.3447    14.2116    0.3123     2.151599884033203 2222.3474 
93.5736    458.1594   85.1211    14.538     0.3456     2.277400016784668 2229.9607 
93.726     458.9267   85.1934    13.2775    0.3341     2.423700094223022 2247.5405 
93.8784    459.0631   86.7496    13.033     0.3518     2.748800039291382 2250.1728 
94.0308    456.0418   84.5598    12.6024    0.3544     2.265899896621704 2240.0625 
94.1832    459.3426   83.9264    13.6958    0.3528     2.345700025558472 2221.5418 
94.3356    460.3477   83.3331    12.8282    0.3436     2.498899936676025 2218.8679 
94.488     460.3321   87.3189    12.4525    0.3473     2.335799932479858 2219.1824 
94.6404    463.5171   86.3886    12.04      0.3377     2.494100093841553 2218.5881 
94.7928    462.0256   85.185     12.5242    0.3296     2.266299962997437 2209.1228 
94.9452    461.6123   81.9213    13.2125    0.319      2.241300106048584 2201.929  
95.0976    460.9415   79.5956    13.7266    0.3215     2.328000068664551 2203.6038 
95.25      458.8859   78.9224    13.9718    0.2898     2.17389988899231 2213.489  
95.4024    458.2486   80.005     13.6699    0.3268     2.177799940109253 2216.7949 
95.5548    458.9096   78.5454    13.5922    0.3073     2.407299995422363 2209.0222 
95.7072    459.8198   76.4519    13.5614    0.3372     2.313100099563599 2195.0205 
95.8596    461.5136   73.2439    14.2103    0.3686     2.256500005722046 2186.1846 
96.012     464.4714   73.4203    14.2531    0.3364     2.512099981307983 2194.104  
96.1644    464.3559   76.0751    14.3858    0.3516     2.241400003433228 2198.0557 
96.3168    466.3593   81.0151    12.8354    0.3357     2.369999885559082 2201.6606 
96.4692    467.5205   83.7816    12.8112    0.3174     2.24810004234314 2198.9958 
96.6216    467.3455   86.9254    13.4036    0.3155     2.257200002670288 2204.5828 
96.774     466.8399   84.9528    12.6273    0.3283     2.437999963760376 2203.8469 
96.9264    467.2534   84.3674    12.3568    0.337      2.322000026702881 2194.7969 
97.0788    465.2578   75.9225    13.6777    0.375      2.249599933624268 2188.2742 
97.2312    464.066    70.7097    15.5426    0.3326     2.192600011825562 2186.9961 
97.3836    466.149    67.8067    14.5727    0.3968     2.624399900436401 2190.4575 
97.536     463.2869   69.0658    13.3843    0.3696     2.280200004577637 2194.8713 
97.6884    462.9014   74.5194    13.1939    0.3131     2.123699903488159 2207.0186 
97.8408    465.9834   75.1771    12.985     0.318      2.700200080871582 2209.6736 
97.9932    467.6642   76.5646    12.3216    0.3303     2.251499891281128 2191.4956 
98.1456    479.2139   73.6932    12.466     0.3607     2.318000078201294 2181.3738 
98.298     482.0486   78.8099    12.8541    0.3399     2.213099956512451 2192.4529 
98.4504    482.2454   88.8744    11.8139    0.3462     2.469399929046631 2226.7542 
98.6028    478.0992   96.9182    10.9243    0.3715     2.478699922561646 2248.6489 
98.7552    473.3398   99.0994    10.6892    0.3879     2.448999881744385 2258.1807 
98.9076    473.5137   96.9662    9.9518     0.3729     2.504199981689453 2258.7922 
99.06      471.4039   93.9585    9.9427     0.3758     2.4514000415802 2255.1218 
99.2124    471.096    90.9274    11.708     0.3461     2.38289999961853 2251.4497 
99.3648    469.1447   86.003     11.8838    0.3275     2.419399976730347 2239.2788 
99.5172    469.0124   87.7036    10.5582    0.3237     2.809900045394897 2231.373  
99.6696    470.7163   89.3955    10.379     0.3606     2.460099935531616 2220.4124 
99.822     473.4328   95.5548    10.1606    0.3576     2.480400085449219 2222.4602 
99.9744    472.9625   96.9822    8.8541     0.3562     2.670099973678589 2234.1934 
100.1268   468.59     94.9534    10.1236    0.3658     2.549999952316284 2248.2861 
100.2792   472.789    83.9827    12.2626    0.3675     2.642899990081787 2233.0344 
100.4316   478.3123   68.5206    13.9692    0.4142     2.594500064849854 2177.3777 
100.584    487.7683   52.7459    17.7978    0.3739     2.057100057601929 2116.9939 
100.7364   500.524    51.0615    18.0072    0.2892     1.960700035095215 2086.052  
100.8888   503.7117   54.879     12.2129    0.333      2.038599967956543 2082.4092 
101.0412   504.5825   60.0516    11.0142    0.4326     2.298399925231934 2077.7952 
101.1936   504.3321   52.385     13.9532    0.4082     2.098299980163574 2077.0554 
101.346    500.7931   49.5941    14.362     0.3468     2.127000093460083 2087.1011 
101.4984   490.5351   49.193     10.8486    0.3274     2.113600015640259 2096.8257 
101.6508   483.7955   55.1757    13.0465    0.361      2.323400020599365 2098.2793 
101.8032   476.3813   56.0579    15.4184    0.4056     2.07699990272522 2088.7227 
101.9556   473.132    58.7525    15.6762    0.3958     2.378200054168701 2087.9976 
102.108    475.6232   58.9931    14.5794    0.3952     2.375600099563599 2084.1619 
102.2604   473.294    62.9227    13.5469    0.3976     2.359100103378296 2082.8281 
102.4128   474.6271   62.4337    14.4624    0.4014     2.305299997329712 2080.6514 
102.5652   473.5329   61.8241    14.5742    0.3724     2.362099885940552 2089.8406 
102.7176   473.6      62.2732    14.8778    0.3632     2.164900064468384 2098.2959 
102.87     474.3944   59.0251    12.7165    0.3832     2.218400001525879 2100.9197 
103.0224   473.926    57.1163    13.7743    0.3685     2.127099990844727 2088.0867 
