~Version
 VERS              .         2.0                           : CWLS LOG ASCII STANDARD - VERSION 2.0
 WRAP              .         NO                            : ONE LINE PER DEPTH STEP
 DLM               .         SPACE                         : DELIMITING CHARACTER(SPACE TAB OR COMMA)
~Well Information
#_______________________________________________________________________________
#
#PARAMETER_NAME    .UNIT     VALUE                         : DESCRIPTION
#_______________________________________________________________________________
STRT               .M        0                             : First reference value
STOP               .M        294.2844                      : Last reference value
STEP               .M        0.1524                        : Step increment
NULL               .         -9999                         : Missing value
COMP               .                                       : Company
WELL               .         F                             : Well name
FLD                .                                       : Field
LOC                .                                       : Location
CNTY               .                                       : County
STAT               .                                       : State
CTRY               .                                       : Country
SRVC               .                                       : Service Company
DATE               .                                       : Date
API                .                                       : API number
~Parameter Information Block
#_______________________________________________________________________________
#
#PARAMETER_NAME    .UNIT     VALUE                         : DESCRIPTION
#_______________________________________________________________________________
SET                .         Logs                          : 
TLFamily_DEPT      .         Measured Depth                : 
TLFamily_DT        .         Compressional Slowness        : 
TLFamily_GR        .         Gamma Ray                     : 
TLFamily_ILD       .         Resistivity - Deep            : 
TLFamily_NPOR_LIM  .         Thermal Neutron Porosity Limestone: 
TLFamily_PEF       .         Photoelectric Factor          : 
TLFamily_RHO       .         Bulk Density                  : 
~Curve Information
#_______________________________________________________________________________
#
#LOGNAME           .UNIT     LOG_ID                        : DESCRIPTION
#_______________________________________________________________________________
DEPT               .M                                      : 1 Depth Index - Measured Depth 
DT                 .US/M                                   : 111 1 1 DELTA-T (ALSO CALLED SLOWNESS OR INTERVAL TRANSIT TIME) (F14 
GR                 .GAPI                                   : 45 GAMMA RAY (F14.5) **MERGED** 
ILD                .OHMM                                   : 22 ARRAY INDUCTION ONE FOOT RESISTIVITY A90 (F14 
NPOR_LIM           .V/V                                    : 75 ENHANCED THERMAL NEUTRON POROSITY (MATRIX LIMESTONE) (F14.5) **MERGED** 
PEF                .B/E                                    : 80 HIGH RESOLUTION FORMATION PHOTOELECTRIC FACTOR (F14 
RHO                .K/M3                                   : 82 STANDARD RESOLUTION FORMATION DENSITY (F14 
~Ascii
0.0000     -9999      90.8379    12.3198    -0.0394    9.996899604797363 2203.3303 
0.1524     -9999      168.1733   12.3198    -0.0305    9.996899604797363 2203.3303 
0.3048     -9999      191.1898   12.3198    0.0468     9.996899604797363 2203.3303 
0.4572     -9999      186.2979   12.3198    -0.0603    9.996899604797363 2203.3303 
0.6096     -9999      152.3748   12.3198    -0.0895    9.996899604797363 2203.3303 
0.762      -9999      130.4807   12.3198    0.0882     9.996899604797363 2203.3303 
0.9144     -9999      112.9979   12.3198    0.1316     9.996899604797363 2203.3303 
1.0668     -9999      89.8206    12.3198    0.1435     9.996899604797363 2203.3303 
1.2192     -9999      59.9875    12.3198    0.3149     9.996899604797363 2203.3303 
1.3716     -9999      43.7073    12.3198    0.6224     9.996899604797363 2203.3303 
1.524      -9999      55.1675    12.3198    0.3645     9.996899604797363 2203.3303 
1.6764     -9999      78.104     12.3198    0.1187     9.996899604797363 2203.3303 
1.8288     -9999      103.3662   12.3198    0.0654     9.996899604797363 2203.3303 
1.9812     -9999      118.1305   12.3198    0.1182     9.996899604797363 2203.3303 
2.1336     -9999      119.6541   12.3198    0.1158     9.996899604797363 2203.3303 
2.286      -9999      96.2366    12.3198    0.0488     9.996899604797363 2203.3303 
2.4384     -9999      59.9875    12.3198    0.0517     9.996899604797363 2203.3303 
2.5908     -9999      25.8235    12.3198    0.0666     9.996899604797363 2203.3303 
2.7432     -9999      13.3127    12.3198    0.0939     9.996899604797363 2203.3303 
2.8956     -9999      11.2276    12.3198    0.0734     9.996899604797363 2203.3303 
3.048      -9999      10.9068    12.3198    0.0138     9.996899604797363 2203.3303 
3.2004     -9999      10.4256    12.3198    0.0007     9.996899604797363 2203.3303 
3.3528     -9999      11.4682    12.3198    -0.0124    9.996899604797363 2203.3303 
3.5052     -9999      13.3929    12.3198    -0.0426    9.996899604797363 2203.3303 
3.6576     -9999      17.1149    12.3198    -0.0394    9.996899604797363 2203.3303 
3.81       -9999      22.6324    12.3198    -0.0299    9.996899604797363 2203.3303 
3.9624     -9999      29.2888    12.3198    -0.0651    9.996899604797363 2203.3303 
4.1148     -9999      31.5995    12.3198    -0.0696    9.996899604797363 2203.3303 
4.2672     -9999      29.2806    12.3198    -0.0182    9.996899604797363 2203.3303 
4.4196     -9999      26.4736    12.3198    0.2269     9.996899604797363 2203.3303 
4.572      -9999      24.6575    12.3198    0.4831     9.996899604797363 2203.3303 
4.7244     -9999      27.064     12.3198    0.6231     9.996899604797363 2203.3303 
4.8768     -9999      30.0652    12.3198    0.6701     9.996899604797363 2203.3303 
5.0292     -9999      32.2556    12.3198    0.6148     10         2158.7053 
5.1816     -9999      30.1082    12.3198    0.6084     10         2139.6987 
5.334      -9999      26.3513    12.3198    0.5668     10         2149.1663 
5.4864     -9999      23.6691    12.3198    0.5394     9.792200088500977 2191.917  
5.6388     -9999      22.7623    12.3198    0.5089     10         2216.272  
5.7912     -9999      22.3736    12.3198    0.5024     9.94950008392334 2220.4758 
5.9436     -9999      21.8122    12.3198    0.571      10         2221.3391 
6.096      -9999      24.4032    12.3198    0.572      9.855600357055664 2222.7498 
6.2484     -9999      24.2377    12.3198    0.637      9.718999862670898 2217.0029 
6.4008     -9999      24.9022    12.3198    0.5372     9.766599655151367 2197.471  
6.5532     -9999      24.5544    12.3198    0.5457     9.678199768066406 2184.3469 
6.7056     -9999      25.8859    12.3198    0.511      9.434200286865234 2191.5662 
6.858      -9999      26.6561    12.3198    0.5642     9.616700172424316 2211.9946 
7.0104     -9999      26.0323    12.3198    0.544      9.821800231933594 2222.9368 
7.1628     -9999      26.0731    12.3198    0.5427     9.593899726867676 2216.5608 
7.3152     -9999      25.2382    12.3198    0.6002     9.55720043182373 2207.9272 
7.4676     -9999      25.55      12.3198    0.6708     9.52079963684082 2212.897  
7.62       -9999      25.8978    12.3198    0.5974     9.526200294494629 2224.3953 
7.7724     -9999      29.7196    12.3198    0.6016     9.732099533081055 2233.3184 
7.9248     -9999      32.3225    12.3198    0.6203     9.776100158691406 2234.1738 
8.077199999999999 -9999      34.5249    12.3198    0.57       9.753800392150879 2229.9998 
8.2296     -9999      33.618     12.3198    0.5563     9.800100326538086 2225.3379 
8.382      -9999      34.1338    12.3198    0.6494     9.895400047302246 2221.971  
8.5344     -9999      33.8914    12.3198    0.5693     9.760700225830078 2221.1648 
8.6868     -9999      33.1214    12.3198    0.5356     9.654999732971191 2225.3833 
8.8392     -9999      31.634     12.3198    0.5742     9.761599540710449 2230.3867 
8.9916     -9999      30.324     12.3198    0.6068     10         2233.1238 
9.144      -9999      30.324     12.3198    0.6268     9.881999969482422 2234.8372 
9.2964     -9999      30.065     12.3198    0.5902     9.891799926757813 2222.3003 
9.4488     -9999      28.7552    12.3198    0.64       9.864700317382813 2210.4585 
9.6012     -9999      28.8175    12.3198    0.6058     9.742400169372559 2197.7307 
9.7536     -9999      29.5036    12.3198    0.615      9.75409984588623 2195.9585 
9.906000000000001 -9999      29.6285    12.3198    0.5751     9.696999549865723 2195.6494 
10.0584    -9999      29.4413    12.3198    0.63       9.747599601745605 2196.5916 
10.2108    -9999      29.662     12.3198    0.6349     9.638500213623047 2206.4971 
10.3632    -9999      29.5373    12.3198    0.6067     9.715100288391113 2204.2    
10.5156    -9999      29.7244    12.3198    0.6193     9.946700096130371 2191.436  
10.668     -9999      28.1314    12.3198    0.6559     9.636300086975098 2171.0688 
10.8204    -9999      29.4412    12.3198    0.6157     9.617600440979004 2162.9883 
10.9728    -9999      29.8899    12.3198    0.5582     9.538000106811523 2161.6511 
11.1252    -9999      30.8879    12.3198    0.4977     9.427000045776367 2160.4746 
11.2776    -9999      30.3889    12.3198    0.5779     9.468199729919434 2158.459  
11.43      -9999      31.1662    12.3198    0.6305     9.449399948120117 2160.5383 
11.5824    -9999      39.9611    12.3198    0.7887     9.42609977722168 2160.7085 
11.7348    -9999      61.2312    12.3198    0.661      9.478699684143066 2158.8721 
11.8872    -9999      81.2464    12.3198    0.6788     9.548399925231934 2160.3572 
12.0396    -9999      82.6812    12.3198    0.6324     9.435099601745605 2159.812  
12.192     -9999      65.2784    12.3198    0.7384     9.54170036315918 2166.3059 
12.3444    -9999      42.6648    12.3198    0.6053     9.645400047302246 2164.8594 
12.4968    -9999      32.0609    12.3198    0.5216     9.479900360107422 2165.8752 
12.6492    -9999      28.8798    12.3198    0.5653     9.621600151062012 2160.9854 
12.8016    -9999      30.5017    12.3198    0.5521     9.698599815368652 2157.5715 
12.954     -9999      28.3185    12.3198    0.5207     9.617500305175781 2151.0142 
13.1064    -9999      27.5076    12.3198    0.5134     9.692399978637695 2146.446  
13.2588    -9999      27.1238    12.3198    0.588      9.619600296020508 2143.769  
13.4112    -9999      29.3694    12.3198    0.8128     9.703700065612793 2145.6982 
13.5636    -9999      28.808     12.3198    0.8574     9.764399528503418 2141.9187 
13.716     -9999      28.3186    12.3198    0.7311     9.718000411987305 2138.346  
13.8684    -9999      26.8216    12.3198    0.6411     9.782500267028809 2134.5081 
14.0208    -9999      29.0047    12.3198    0.5859     9.836700439453125 2136.2891 
14.1732    -9999      28.9111    12.3198    0.6418     9.802700042724609 2138.6516 
14.3256    -9999      30.907     12.3198    0.6484     9.913399696350098 2139.7695 
14.478     -9999      30.907     12.3198    0.6796     9.890199661254883 2141.822  
