~Version
 VERS              .         2.0                           : CWLS LOG ASCII STANDARD - VERSION 2.0
 WRAP              .         NO                            : ONE LINE PER DEPTH STEP
 DLM               .         SPACE                         : DELIMITING CHARACTER(SPACE TAB OR COMMA)
~Well Information
#_______________________________________________________________________________
#
#PARAMETER_NAME    .UNIT     VALUE                         : DESCRIPTION
#_______________________________________________________________________________
STRT               .M        0                             : First reference value
STOP               .M        294.2844                      : Last reference value
STEP               .M        0.1524                        : Step increment
NULL               .         -9999                         : Missing value
COMP               .                                       : Company
WELL               .         F                             : Well name
FLD                .                                       : Field
LOC                .                                       : Location
CNTY               .                                       : County
STAT               .                                       : State
CTRY               .                                       : Country
SRVC               .                                       : Service Company
DATE               .                                       : Date
API                .                                       : API number
~Parameter Information Block
#_______________________________________________________________________________
#
#PARAMETER_NAME    .UNIT     VALUE                         : DESCRIPTION
#_______________________________________________________________________________
SET                .         Logs                          : 
TLFamily_DEPT      .         Measured Depth                : 
TLFamily_DT        .         Compressional Slowness        : 
TLFamily_GR        .         Gamma Ray                     : 
TLFamily_ILD       .         Resistivity - Deep            : 
TLFamily_NPOR_LIM  .         Thermal Neutron Porosity Limestone: 
TLFamily_PEF       .         Photoelectric Factor          : 
TLFamily_RHO       .         Bulk Density                  : 
~Curve Information
#_______________________________________________________________________________
#
#LOGNAME           .UNIT     LOG_ID                        : DESCRIPTION
#_______________________________________________________________________________
DEPT               .M                                      : 1 Depth Index - Measured Depth 
DT                 .US/M                                   : 111 1 1 DELTA-T (ALSO CALLED SLOWNESS OR INTERVAL TRANSIT TIME) (F14 
GR                 .GAPI                                   : 45 GAMMA RAY (F14.5) **MERGED** 
ILD                .OHMM                                   : 22 ARRAY INDUCTION ONE FOOT RESISTIVITY A90 (F14 
NPOR_LIM           .V/V                                    : 75 ENHANCED THERMAL NEUTRON POROSITY (MATRIX LIMESTONE) (F14.5) **MERGED** 
PEF                .B/E                                    : 80 HIGH RESOLUTION FORMATION PHOTOELECTRIC FACTOR (F14 
RHO                .K/M3                                   : 82 STANDARD RESOLUTION FORMATION DENSITY (F14 
~Ascii
# ...
132.4356   453.3079   47.5408    13.7838    0.3297     2.592900037765503 2079.1604 
132.588    450.354    49.674     14.2003    0.3637     2.674400091171265 2084.3833 
132.7404   453.0005   51.8396    13.5513    0.3467     2.718699932098389 2079.5767 
132.8928   458.4674   54.3096    13.2327    0.3456     2.650899887084961 2074.3779 
133.0452   462.502    55.304     13.4373    0.3827     2.657999992370605 2068.1646 
133.1976   462.4242   57.6937    13.1688    0.3948     2.657299995422363 2073.4917 
133.35     456.0147   53.9967    13.6133    0.3775     2.685800075531006 2080.6924 
133.5024   448.9734   51.5427    14.5649    0.3524     2.900399923324585 2095.0962 
133.6548   442.2126   48.1746    14.9337    0.3471     2.995599985122681 2105.0261 
133.8072   433.7723   48.5353    15.1382    0.3571     2.964299917221069 2116.6475 
133.9596   433.2685   49.4334    14.4079    0.3943     3.005000114440918 2120.386  
134.112    435.7894   49.8828    14.025     0.406      2.942199945449829 2115.2    
134.2644   438.5342   49.6421    13.8936    0.3813     2.799400091171265 2106.4356 
134.4168   445.774    52.5615    13.7164    0.3847     2.772599935531616 2098.9231 
134.5692   450.3844   54.0207    13.3146    0.3879     2.791199922561646 2095.4856 
134.7216   450.2068   55.1276    13.5781    0.3802     2.723099946975708 2096.7034 
134.874    450.1923   51.6468    13.9103    0.3832     2.65120005607605 2093.0334 
135.0264   450.1247   47.2681    14.0718    0.3696     2.70740008354187 2090.3801 
135.1788   452.2078   48.0539    14.0553    0.3749     2.56879997253418 2080.8213 
135.3312   457.9776   49.5699    13.6325    0.3925     2.391799926757813 2073.6323 
135.4836   464.5907   51.8154    13.0152    0.3916     2.323400020599365 2060.8294 
135.636    471.5526   53.1627    12.5248    0.4085     2.378200054168701 2050.7305 
135.7884   476.4336   53.7801    12.1197    0.4291     2.413000106811523 2042.1458 
135.9408   479.6661   55.5845    11.9993    0.3946     2.456199884414673 2042.7444 
136.0932   482.0535   55.0232    12.0999    0.402      2.526599884033203 2038.8954 
136.2456   484.6368   53.0023    11.911     0.4122     2.204799890518188 2032.181  
136.398    484.4896   53.7241    11.7418    0.3889     2.214400053024292 2024.6765 
136.5504   482.9741   51.0294    11.647     0.3906     2.236299991607666 2024.3621 
136.7028   481.1446   52.6735    11.611     0.3715     2.249599933624268 2022.7246 
136.8552   478.5435   50.9332    11.5151    0.3796     2.211699962615967 2021.2272 
137.0076   477.0842   53.6277    11.2918    0.3842     2.222399950027466 2021.7366 
137.16     478.6158   54.951     11.4093    0.3867     2.257800102233887 2026.7699 
137.3124   478.3189   55.0632    11.5352    0.3971     2.280200004577637 2029.6511 
137.4648   479.2464   55.1756    11.4341    0.4126     2.204400062561035 2028.5657 
137.6172   480.0888   55.296     11.4175    0.3679     2.250200033187866 2024.6887 
137.7696   479.1241   55.2962    11.3508    0.4137     2.237600088119507 2022.7034 
137.922    478.5052   55.4083    11.2653    0.3706     2.311399936676025 2020.1749 
138.0744   475.7412   56.0257    11.3751    0.3983     2.277299880981445 2021.0409 
138.2268   472.7265   57.4129    11.5874    0.4251     2.247299909591675 2020.9272 
138.3792   468.189    58.7605    11.5878    0.4094     2.201900005340576 2022.8202 
138.5316   464.0135   57.9747    11.5489    0.377      2.261899948120117 2024.0767 
138.684    463.9623   56.2905    11.3493    0.3872     2.17960000038147 2023.0648 
138.8364   464.812    57.6376    11.3618    0.4144     2.20199990272522 2021.197  
138.9888   467.621    57.7499    10.7854    0.3642     2.349800109863281 2018.0461 
139.1412   470.8156   58.7204    11.1362    0.3886     2.295700073242188 2009.3064 
139.2936   442.9544   54.5661    11.5756    0.4809     2.35319995880127 2043.8965 
139.446    377.6681   50.9732    17.6166    0.4192     2.33270001411438 2179.1194 
139.5984   300.9084   45.4718    40.9272    0.1587     2.901000022888184 2411.5588 
139.7508   226.9528   42.9455    172.8801   0.0602     3.674900054931641 2579.4614 
139.9032   220.7297   39.6895    56.7825    0.0622     3.632499933242798 2567.5183 
140.0556   293.4806   44.6296    29.8127    0.1871     3.437000036239624 2380.9185 
140.208    366.0011   48.2383    12.1412    0.4168     2.31439995765686 2183.1536 
140.3604   445.5929   53.0662    11.6472    0.4531     2.309400081634521 2059.1172 
140.5128   476.4475   56.8837    11.4862    0.4157     2.204799890518188 2018.7047 
140.6652   474.0355   57.9346    11.5104    0.3849     2.180900096893311 2011.9572 
140.8176   472.9943   57.8464    11.304     0.3906     2.168800115585327 2011.2388 
140.97     471.8702   55.6007    11.5209    0.3969     2.086899995803833 2015.9204 
141.1224   472.0527   52.457     11.2664    0.3707     2.124599933624268 2019.7074 
141.2748   470.0724   55.5848    11.0736    0.355      2.11050009727478 2019.9788 
141.4272   470.2386   54.7989    11.198     0.4039     2.169699907302856 2016.7679 
141.5796   469.7098   58.9528    11.3881    0.376      2.12280011177063 2018.373  
141.732    470.3553   59.6184    11.5274    0.3932     2.249000072479248 2024.4623 
141.8844   468.9899   59.6266    11.3777    0.3909     2.153300046920776 2026.4755 
142.0368   467.9763   57.1568    11.1975    0.3934     2.121400117874146 2028.6014 
142.1892   466.3478   57.6057    11.2632    0.395      2.228600025177002 2033.9225 
142.3416   465.8292   56.4026    11.2586    0.3764     2.288000106811523 2039.3331 
142.494    467.2915   58.5357    11.1027    0.395      2.19950008392334 2040.0519 
142.6464   467.8028   56.2906    11.0966    0.4047     2.221999883651733 2034.6114 
142.7988   470.219    58.5762    11.1542    0.399      2.25       2034.1272 
142.9512   469.8564   55.8817    11.2576    0.4084     2.262700080871582 2031.7638 
143.1036   467.6308   56.5309    11.2522    0.4186     2.215399980545044 2033.525  
143.256    464.9313   55.2158    11.1914    0.4056     2.263200044631958 2038.0732 
143.4084   464.6962   57.0119    11.0287    0.3823     2.24429988861084 2045.4786 
143.5608   462.634    57.4931    10.8846    0.3819     2.252799987792969 2051.8894 
143.7132   463.7135   58.1667    11.0265    0.3687     2.233099937438965 2049.2168 
143.8656   465.3603   57.4934    10.8554    0.378      2.247699975967407 2040.5151 
144.018    462.3263   54.8469    10.091     0.435      2.261600017547607 2044.5767 
144.1704   426.3221   51.4785    12.3906    0.457      2.212800025939941 2123.7991 
144.3228   362.7462   48.439     17.7652    0.2934     2.604199886322021 2249.6502 
144.4752   331.4715   46.9232    22.1532    0.1683     3.841399908065796 2338.8696 
144.6276   326.83     49.281     17.3458    0.2596     3.776599884033203 2299.3496 
144.78     363.7188   53.0854    12.7105    0.4062     2.720900058746338 2190.7346 
144.9324   422.0178   58.587     12.2693    0.4344     2.476700067520142 2112.7676 
145.0848   443.3887   60.608     12.3572    0.369      2.554699897766113 2097.5078 
145.2372   448.9835   64.142     12.2277    0.378      2.95110011100769 2098.0469 
145.3896   450.1301   62.6825    11.7146    0.3926     2.356600046157837 2079.0061 
145.542    455.0333   64.5912    11.6874    0.3614     2.341200113296509 2056.1763 
145.6944   459.7526   60.7411    11.7898    0.3293     2.22950005531311 2045.8812 
145.8468   460.419    60.7413    11.9477    0.3567     2.178600072860718 2044.2455 
145.9992   463.3705   57.0361    11.5333    0.3828     2.205699920654297 2041.0986 
146.1516   463.5126   56.5872    11.6013    0.4031     2.248899936676025 2037.4748 
146.304    464.4963   57.4291    11.6088    0.3814     2.283699989318848 2034.9324 
146.4564   464.6886   59.0011    11.4903    0.406      2.271500110626221 2031.5096 
146.6088   465.9582   62.9388    11.3857    0.4056     2.30049991607666 2026.4895 
146.7612   468.0796   58.7284    11.3267    0.3926     2.224299907684326 2027.8831 
146.9136   467.9773   55.2478    11.3068    0.4115     2.241199970245361 2027.8654 
