~Version
 VERS              .         2.0                           : CWLS LOG ASCII STANDARD - VERSION 2.0
 WRAP              .         NO                            : ONE LINE PER DEPTH STEP
 DLM               .         SPACE                         : DELIMITING CHARACTER(SPACE TAB OR COMMA)
~Well Information
#_______________________________________________________________________________
#
#PARAMETER_NAME    .UNIT     VALUE                         : DESCRIPTION
#_______________________________________________________________________________
STRT               .m        78.9431999999999              : First reference value
STOP               .m        361.7976                      : Last reference value
STEP               .m        0.1524                        : Step increment
NULL               .         -9999                         : Missing value
COMP               .                                       : Company
WELL               .         G                             : Well name
FLD                .                                       : Field
LOC                .                                       : Location
CNTY               .                                       : County
STAT               .                                       : State
CTRY               .                                       : Country
SRVC               .                                       : Service Company
DATE               .                                       : Date
API                .                                       : API number
~Parameter Information Block
#_______________________________________________________________________________
#
#PARAMETER_NAME    .UNIT     VALUE                         : DESCRIPTION
#_______________________________________________________________________________
SET                .         Inclination                   : 
TLFamily_C13       .         Caliper 1                     : 
TLFamily_C24       .         Caliper 2                     : 
TLFamily_DEVI      .         Hole Deviation                : 
TLFamily_GR        .         Gamma Ray                     : 
TLFamily_HAZI      .         Hole Azimuth                  : 
TLFamily_MD        .         Measured Depth                : 
TLFamily_P1AZ      .         Pad A Azimuth                 : 
TLFamily_RB        .         Relative Bearing              : 
~Curve Information
#_______________________________________________________________________________
#
#LOGNAME           .UNIT     LOG_ID                        : DESCRIPTION
#_______________________________________________________________________________
MD                 .m                                      :  
C13                .in                                     : Caliper 1-3 
C24                .in                                     : Caliper 2-4 
DEVI               .deg                                    : Deviation 
GR                 .gAPI                                   : Gamma Ray 
HAZI               .deg                                    : Hole Azimuth 
P1AZ               .deg                                    : Pad 1 Azimuth 
RB                 .deg                                    : Relative Bearing 
~Ascii
# ...
273.2531999999999 6.271124   6.24574    0.5236816  67.7951    291.296    331.6699   40.37534  
273.4055999999999 6.315997   6.327917   0.5220947  62.93782   290.4      331.9996   41.59769  
273.5579999999999 6.301201   6.327917   0.517334   65.9961    289.7596   332.4926   42.73111  
273.7103999999999 6.271124   6.327917   0.519104   68.18188   289.4671   332.2149   42.74783  
273.8627999999999 6.315997   6.327917   0.5170288  64.0442    289.8268   332.2133   42.38867  
274.0151999999999 6.315997   6.25748    0.5220337  67.73213   289.3011   333.0686   43.76563  
274.1675999999999 6.271124   6.25748    0.5222778  65.93314   288.7411   336.5453   47.80054  
274.3199999999999 6.271124   6.327917   0.5207214  70.97031   288.0519   338.7885   50.7373   
274.4723999999999 6.293561   6.25748    0.52005    68.54168   287.4847   338.8464   51.36255  
274.6247999999999 6.315997   6.304438   0.5274048  73.75876   287.1437   340.0903   52.9458   
274.7771999999999 6.278728   6.25748    0.5304871  76.27735   286.8363   340.6184   53.78271  
274.9295999999999 6.301201   6.269219   0.5296631  81.31454   286.1361   340.1489   54.01282  
275.0819999999999 6.293561   6.327917   0.5299988  87.43111   286.2111   340.6608   54.44736  
275.2343999999999 6.459757   6.40132    0.5314941  87.647     285.9878   340.7954   54.80777  
275.3867999999999 6.500962   6.410095   0.53125    82.19004   286.3133   338.141    51.82474  
275.5391999999999 6.330457   6.363136   0.52771    73.54588   285.8119   336.7281   50.91248  
275.6915999999999 6.352818   6.351397   0.5292053  75.30889   285.9666   336.2737   50.30875  
275.8439999999999 6.37518    6.327917   0.5274048  75.54876   285.9377   335.9093   49.97089  
275.9963999999999 6.315997   6.25748    0.5295105  76.99695   285.844    334.4772   48.63092  
276.1487999999999 6.30079    6.327917   0.5323792  75.55775   286.4218   333.7694   47.34494  
276.3011999999999 6.367651   6.327917   0.5334167  76.81705   286.1916   333.7236   47.53146  
276.4535999999999 6.352818   6.327917   0.5326538  82.57382   286.5125   334.7517   48.24008  
276.6059999999999 6.271124   6.327917   0.5298767  87.9708    286.6547   335.1576   48.50211  
276.7583999999999 6.389976   6.374876   0.5361938  90.00367   287.4425   335.5849   48.14441  
276.9107999999999 6.449159   6.421835   0.5360718  86.99036   287.6697   335.141    47.46909  
277.0631999999999 6.996602   6.926641   0.5314026  90.35448   287.5361   333.5884   46.0542   
277.2155999999999 7.03428    7.008819   0.5299683  93.23287   287.6813   330.146    42.46378  
277.3679999999999 6.389985   6.59006    0.5335083  84.73262   288.1635   330.3748   42.20963  
277.5203999999999 6.404771   6.327917   0.5343628  82.03413   288.1556   329.7971   41.63724  
277.6727999999999 6.37518    6.352454   0.5317078  81.13464   288.5137   329.225    40.71005  
277.8251999999999 6.434363   6.550972   0.5326843  73.03916   288.3585   327.8248   39.46649  
277.9775999999999 6.271124   6.25748    0.53479    72.49946   288.2534   326.9095   38.65454  
278.1299999999999 6.315997   6.24574    0.5318604  72.31956   288.1608   326.3557   38.19348  
278.2823999999999 6.278765   6.25748    0.5334167  74.47836   288.3623   325.9923   37.62982  
278.4347999999999 6.253757   6.252164   0.529541   72.31956   288.5431   326.4024   37.85602  
278.5871999999999 6.241458   6.304438   0.5272827  76.09744   288.5575   327.7642   39.20227  
278.7395999999999 6.293561   6.286905   0.5269775  76.45724   288.8535   329.0291   40.17371  
278.8919999999999 6.304461   6.286995   0.5260925  75.01804   288.5569   329.1589   40.5997   
279.0443999999999 6.330457   6.327917   0.5238647  72.13966   288.4007   328.3438   39.94357  
279.1967999999999 6.367614   6.327917   0.5239563  72.20261   288.9098   327.0903   38.17752  
279.3491999999999 6.37518    6.327917   0.5212402  70.94332   288.2385   324.1088   35.87027  
279.5015999999999 6.353927   6.339657   0.5220032  70.22372   288.3501   323.3881   35.03857  
279.6539999999999 6.315997   6.304438   0.5222168  71.06026   287.7182   324.6537   36.9328   
279.8063999999999 6.315997   6.269219   0.5207825  70.88036   287.3112   321.8128   34.50366  
279.9587999999999 6.293561   6.304438   0.519165   65.84318   287.0238   320.3152   33.29123  
280.1111999999999 6.315997   6.25748    0.5175781  67.28237   286.7388   318.8301   32.08899  
280.2635999999999 6.352818   6.327917   0.5158081  79.33562   286.3797   318.8408   32.46359  
280.4159999999999 6.345588   6.327918   0.5146484  83.12942   285.8695   319.2767   33.40796  
280.5683999999999 6.330457   6.327917   0.5107117  86.8914    285.5762   319.8066   34.22757  
280.7207999999999 6.577491   6.439086   0.5076294  90.84918   284.6353   317.9027   33.26407  
280.8731999999999 6.671617   6.691848   0.5049438  84.39079   284.3322   317.8801   33.5462   
281.0255999999999 6.37518    6.398355   0.5043945  75.93552   283.9547   317.6917   33.73508  
281.1779999999999 6.271124   6.327917   0.5018005  55.66885   283.3599   317.26     33.89737  
281.3303999999999 6.253462   6.25748    0.4993286  56.56835   282.7043   317.5228   34.81403  
281.4827999999999 6.275193   6.263336   0.4959717  56.18856   282.4936   318.4854   35.9906   
281.6351999999999 6.34529    6.327917   0.493103   63.02474   281.9256   318.9277   36.99908  
281.7875999999999 6.338022   6.327917   0.4933167  62.84484   281.0193   318.615    37.59738  
281.9399999999999 6.330457   6.327917   0.4884338  63.68437   280.8188   318.8705   38.05057  
282.0923999999999 6.352818   6.327917   0.4893188  60.98587   280.1628   317.6154   37.45343  
282.2447999999999 6.352818   6.327917   0.4837952  60.62608   280.067    316.2161   36.14545  
282.3971999999999 6.330457   6.327917   0.481842   62.60497   279.5785   315.7693   36.1868   
282.5495999999999 6.315997   6.327917   0.4797668  60.26628   279.0395   315.87     36.82864  
282.7019999999999 6.352818   6.327917   0.4785767  63.35155   278.8397   316.5518   37.70978  
282.8543999999999 6.345588   6.304438   0.4775085  60.11337   278.5104   317.1639   38.6546   
283.0067999999999 6.37518    6.304438   0.476593   62.81186   278.0116   318.5891   40.57428  
283.1591999999999 6.323189   6.25748    0.4744568  58.64719   277.7555   320.4211   42.66287  
283.3115999999999 6.315997   6.25748    0.471283   59.36679   277.7521   321.5455   43.7894   
283.4639999999999 6.310903   6.234      0.4681091  59.00699   277.3219   323.1923   45.87085  
283.6163999999999 6.293561   6.234      0.4656677  60.44618   277.2032   324.2291   47.02313  
283.7687999999999 6.330792   6.234      0.4636536  58.46729   277.2837   324.6759   47.39066  
283.9211999999999 6.271124   6.280959   0.4590454  55.01323   277.2414   324.6377   47.39423  
284.0735999999999 6.293561   6.234      0.4548645  53.57403   277.0688   325.1349   48.06128  
284.2259999999999 6.352818   6.327917   0.4515991  53.21423   277.4726   324.6458   47.1727   
284.3783999999999 6.330457   6.327917   0.4484253  55.40901   277.3994   323.6241   46.22119  
284.5307999999999 6.271124   6.316178   0.4434509  51.63112   277.1408   323.0655   45.92343  
284.6831999999999 6.37518    6.327917   0.4365234  51.45122   277.3055   322.5611   45.25885  
284.8355999999999 6.338022   6.327917   0.4317627  50.55172   277.6135   322.1194   44.50488  
284.9879999999999 6.37518    6.304438   0.4256897  52.85443   277.7614   321.4008   43.6384   
285.1403999999999 6.330457   6.327917   0.4204712  53.55405   278.2229   320.3958   42.17276  
285.2927999999999 6.315997   6.316178   0.4129639  55.53294   278.1458   319.1833   41.03546  
285.4451999999999 6.330792   6.327917   0.4063721  50.53173   278.3049   318.485    40.17712  
285.5975999999999 6.293561   6.304438   0.3996582  44.79494   278.5682   318.0771   39.50735  
285.7499999999999 6.315997   6.327917   0.3918152  38.31856   278.7539   317.6553   38.8981   
285.9023999999999 6.315997   6.304438   0.3864441  38.49846   278.9995   317.1877   38.18893  
286.0547999999999 6.315997   6.327917   0.3796997  40.83715   279.3655   316.9598   37.58972  
