~Version
 VERS              .         2.0                           : CWLS LOG ASCII STANDARD - VERSION 2.0
 WRAP              .         NO                            : ONE LINE PER DEPTH STEP
 DLM               .         SPACE                         : DELIMITING CHARACTER(SPACE TAB OR COMMA)
~Well Information
#_______________________________________________________________________________
#
#PARAMETER_NAME    .UNIT     VALUE                         : DESCRIPTION
#_______________________________________________________________________________
STRT               .m        78.9431999999999              : First reference value
STOP               .m        361.7976                      : Last reference value
STEP               .m        0.1524                        : Step increment
NULL               .         -9999                         : Missing value
COMP               .                                       : Company
WELL               .         G                             : Well name
FLD                .                                       : Field
LOC                .                                       : Location
CNTY               .                                       : County
STAT               .                                       : State
CTRY               .                                       : Country
SRVC               .                                       : Service Company
DATE               .                                       : Date
API                .                                       : API number
~Parameter Information Block
#_______________________________________________________________________________
#
#PARAMETER_NAME    .UNIT     VALUE                         : DESCRIPTION
#_______________________________________________________________________________
SET                .         Inclination                   : 
TLFamily_C13       .         Caliper 1                     : 
TLFamily_C24       .         Caliper 2                     : 
TLFamily_DEVI      .         Hole Deviation                : 
TLFamily_GR        .         Gamma Ray                     : 
TLFamily_HAZI      .         Hole Azimuth                  : 
TLFamily_MD        .         Measured Depth                : 
TLFamily_P1AZ      .         Pad A Azimuth                 : 
TLFamily_RB        .         Relative Bearing              : 
~Curve Information
#_______________________________________________________________________________
#
#LOGNAME           .UNIT     LOG_ID                        : DESCRIPTION
#_______________________________________________________________________________
MD                 .m                                      :  
C13                .in                                     : Caliper 1-3 
C24                .in                                     : Caliper 2-4 
DEVI               .deg                                    : Deviation 
GR                 .gAPI                                   : Gamma Ray 
HAZI               .deg                                    : Hole Azimuth 
P1AZ               .deg                                    : Pad 1 Azimuth 
RB                 .deg                                    : Relative Bearing 
~Ascii
# ...
182.5751999999999 6.360123   6.562711   0.3155518  53.07035   315.0797   273.1157   318.0358  
182.7275999999999 6.449159   6.57445    0.3123779  47.68236   314.4061   273.5446   319.1401  
182.8799999999999 6.449159   6.59793    0.3074036  44.62407   313.96     274.4016   320.4421  
183.0323999999999 6.463954   6.586191   0.3062134  45.78442   313.2486   274.8013   321.5541  
183.1847999999999 6.471783   6.581879   0.3022766  49.55331   312.8238   274.5609   321.7373  
183.3371999999999 6.449121   6.60967    0.3023682  47.21462   312.5924   273.8243   321.2311  
183.4895999999999 6.641503   6.633149   0.3024597  45.69447   310.8907   272.8307   321.9383  
183.6419999999999 6.649106   6.680108   0.3038025  45.51457   309.5405   274.559    325.0246  
183.7943999999999 6.360123   6.562711   0.3064575  51.99095   308.2127   275.3433   327.1277  
183.9467999999999 6.404771   6.539232   0.3110657  55.39105   306.6901   276.0832   329.3951  
184.0991999999999 6.404771   6.515752   0.3136902  57.36995   305.5175   276.4972   330.9764  
184.2515999999999 6.382447   6.515752   0.3178406  56.65034   304.6669   277.3956   332.7237  
184.4039999999999 6.364876   6.515752   0.3236694  57.33397   303.6113   276.9188   333.3073  
184.5563999999999 6.382447   6.515752   0.328064   53.37618   302.6462   275.7735   333.1322  
184.7087999999999 6.441704   6.580494   0.3339844  52.36874   301.9651   271.3826   329.4206  
184.8611999999999 6.39728    6.539232   0.3381348  53.14231   301.762    270.4192   328.6572  
185.0135999999999 6.404771   6.515752   0.3435059  55.481     301.317    269.7457   328.43    
185.1659999999999 6.367651   6.515752   0.3486938  53.43015   301.1639   268.8388   327.6776  
185.3183999999999 6.367651   6.539232   0.3513184  52.99839   301.1188   268.3801   327.2651  
185.4707999999999 6.404771   6.515752   0.3566895  55.54396   301.1575   268.4807   327.3249  
185.6231999999999 6.385154   6.528915   0.3582458  55.72387   301.1905   268.4563   327.2619  
185.7755999999999 6.404771   6.562711   0.3626099  57.41492   301.0914   268.244    327.1486  
185.9279999999999 6.404771   6.545303   0.3653259  53.31321   301.0958   268.98     327.8905  
186.0803999999999 6.360123   6.515752   0.3664551  53.31321   301.67     269.2206   327.5534  
186.2327999999999 6.382447   6.515752   0.3640137  53.67301   302.1214   269.7374   327.6151  
186.3851999999999 6.404771   6.515752   0.3647156  57.56783   302.7744   269.6298   326.8567  
186.5375999999999 6.404771   6.515752   0.3629456  57.72974   303.054    269.5981   326.5479  
186.6899999999999 6.382447   6.518781   0.362915   54.63719   303.0762   269.1533   326.0776  
186.8423999999999 6.360123   6.515752   0.3617859  51.42598   302.8232   269.3281   326.5006  
186.9947999999999 6.382447   6.515752   0.3595581  48.3497    302.9048   269.3357   326.4312  
187.1471999999999 6.382447   6.515752   0.3572388  46.31512   303.2955   268.8168   325.5208  
187.2995999999999 6.382447   6.539232   0.3537903  47.36753   303.313    267.9016   324.5861  
187.4519999999999 6.360123   6.550972   0.3514404  50.82161   302.579    265.564    322.9849  
187.6043999999999 6.360123   6.515752   0.3471985  52.35975   302.3559   264.6331   322.2767  
187.7567999999999 6.382447   6.527492   0.3444214  49.12156   301.82     264.6902   322.8708  
187.9091999999999 6.382447   6.515752   0.3432007  48.06015   301.1133   265.1711   324.0594  
188.0615999999999 6.360123   6.515752   0.3410339  50.56975   299.9688   266.5148   326.5429  
188.2139999999999 6.382447   6.515752   0.3381958  50.70467   299.0137   267.7745   328.7596  
188.3663999999999 6.404771   6.515752   0.336731   48.16809   297.9153   268.0704   330.1569  
188.5187999999999 6.382447   6.515752   0.3355408  45.65849   296.6557   269.1801   332.5295  
188.6711999999999 6.382447   6.515752   0.3366089  49.66125   295.7208   269.5945   333.875   
188.8235999999999 6.404771   6.515752   0.3397217  52.02693   294.7672   268.7827   334.0173  
188.9759999999999 6.382447   6.562711   0.3405151  54.35663   294.0103   267.5081   333.5007  
189.1283999999999 6.404771   6.515752   0.3435059  53.60105   293.2598   266.0832   332.822   
189.2807999999999 6.382447   6.539232   0.3455505  53.93386   292.6154   265.2722   332.6521  
189.4331999999999 6.360123   6.550972   0.3480225  50.57874   292.5219   266.1913   333.6699  
189.5855999999999 6.382447   6.515752   0.3523865  50.07502   292.3041   266.8809   334.5796  
189.7379999999999 6.360123   6.468793   0.3557129  50.25492   292.0055   268.003    336.0019  
189.8903999999999 6.360123   6.504013   0.3596802  49.74221   291.8175   269.1492   337.332   
190.0427999999999 6.382447   6.515752   0.3635254  46.50402   292.299    269.9582   337.6571  
190.1951999999999 6.360123   6.515752   0.3666077  46.68392   292.4067   270.1712   337.7641  
190.3475999999999 6.404771   6.515752   0.3686829  47.19664   292.4829   269.6556   337.1703  
190.4999999999999 6.404771   6.515752   0.3703613  50.79462   292.632    268.877    336.2435  
190.6523999999999 6.404771   6.504013   0.3692932  49.24749   293.1066   268.3224   335.2144  
190.8047999999999 6.37518    6.515752   0.3693542  50.78563   293.2145   268.4503   335.2334  
190.9571999999999 6.352818   6.515752   0.3694458  48.98663   293.3244   268.5805   335.2527  
191.1095999999999 6.404771   6.515752   0.3666077  48.55487   293.5093   271.649    338.1385  
191.2619999999999 6.382447   6.515752   0.3650818  48.29646   293.8145   274.0758   340.2608  
191.4143999999999 6.382447   6.515752   0.3624878  48.03316   293.9369   275.6005   341.6618  
191.5667999999999 6.382447   6.527492   0.3589172  46.8998    294.1362   276.4901   342.3506  
191.7191999999999 6.382447   6.480534   0.355835   48.33899   294.0676   277.1931   343.1292  
191.8715999999999 6.404622   6.515752   0.3486633  48.00618   294.6342   277.2844   342.6507  
192.0239999999999 6.419455   6.57445    0.34021    46.44105   295.5114   277.6852   342.1786  
192.1763999999999 6.426908   6.586191   0.3342896  47.14266   296.0364   277.2464   341.2066  
192.3287999999999 6.426872   6.586191   0.3260498  48.73477   296.1157   278.1592   342.0467  
192.4811999999999 6.642383   6.67038    0.3184814  49.45437   295.826    279.0198   343.1954  
192.6335999999999 6.686449   6.856204   0.3124695  47.74533   296.2583   281.1812   344.9247  
192.7859999999999 6.634273   6.750546   0.3065491  46.12623   295.9716   282.9991   347.0262  
192.9383999999999 6.404622   6.59793    0.303009   49.70623   295.6966   282.9839   347.2867  
193.0907999999999 6.404771   6.550972   0.2997131  49.09457   295.8533   282.6467   346.7987  
193.2431999999999 6.382447   6.515752   0.2948608  49.45436   295.8987   281.8327   345.9336  
193.3955999999999 6.382447   6.480534   0.2947693  44.83995   295.7777   280.5196   344.7426  
193.5479999999999 6.360123   6.515752   0.2937622  46.99874   295.7079   280.5845   344.8732  
193.7003999999999 6.404771   6.515752   0.2965088  44.83995   296.1556   280.3541   344.2     
193.8527999999999 6.360123   6.515752   0.2973328  46.95377   296.0681   280.6132   344.5412  
194.0051999999999 6.404771   6.515752   0.298584   43.86849   296.1856   281.1372   344.9575  
194.1575999999999 6.382447   6.515752   0.3001099  45.66748   296.6728   283.6941   347.021   
194.3099999999999 6.360123   6.515752   0.3014832  45.94633   296.8592   288.4799   351.6157  
194.4623999999999 6.360123   6.515752   0.3048096  44.53412   296.6481   290.111    353.4692  
194.6147999999999 6.389789   6.480534   0.3078613  38.05774   296.0942   291.0044   354.9063  
194.7671999999999 6.389789   6.468793   0.3092346  36.6905    295.9384   292.5163   356.5794  
194.9195999999999 6.39728    6.504013   0.3110352  31.83322   296.1101   294.1683   358.0638  
195.0719999999999 6.382447   6.515752   0.31427    31.47342   296.4379   294.7963   358.362   
195.2243999999999 6.404771   6.515752   0.3170166  30.7898    296.2504   294.5507   358.2957  
195.3767999999999 6.382447   6.445314   0.3205261  35.82698   296.5068   294.531    358.0262  
