~Version
 VERS              .         2.0                           : CWLS LOG ASCII STANDARD - VERSION 2.0
 WRAP              .         NO                            : ONE LINE PER DEPTH STEP
 DLM               .         SPACE                         : DELIMITING CHARACTER(SPACE TAB OR COMMA)
~Well Information
#_______________________________________________________________________________
#
#PARAMETER_NAME    .UNIT     VALUE                         : DESCRIPTION
#_______________________________________________________________________________
STRT               .m        78.9431999999999              : First reference value
STOP               .m        361.7976                      : Last reference value
STEP               .m        0.1524                        : Step increment
NULL               .         -9999                         : Missing value
COMP               .                                       : Company
WELL               .         G                             : Well name
FLD                .                                       : Field
LOC                .                                       : Location
CNTY               .                                       : County
STAT               .                                       : State
CTRY               .                                       : Country
SRVC               .                                       : Service Company
DATE               .                                       : Date
API                .                                       : API number
~Parameter Information Block
#_______________________________________________________________________________
#
#PARAMETER_NAME    .UNIT     VALUE                         : DESCRIPTION
#_______________________________________________________________________________
SET                .         Inclination                   : 
TLFamily_C13       .         Caliper 1                     : 
TLFamily_C24       .         Caliper 2                     : 
TLFamily_DEVI      .         Hole Deviation                : 
TLFamily_GR        .         Gamma Ray                     : 
TLFamily_HAZI      .         Hole Azimuth                  : 
TLFamily_MD        .         Measured Depth                : 
TLFamily_P1AZ      .         Pad A Azimuth                 : 
TLFamily_RB        .         Relative Bearing              : 
~Curve Information
#_______________________________________________________________________________
#
#LOGNAME           .UNIT     LOG_ID                        : DESCRIPTION
#_______________________________________________________________________________
MD                 .m                                      :  
C13                .in                                     : Caliper 1-3 
C24                .in                                     : Caliper 2-4 
DEVI               .deg                                    : Deviation 
GR                 .gAPI                                   : Gamma Ray 
HAZI               .deg                                    : Hole Azimuth 
P1AZ               .deg                                    : Pad 1 Azimuth 
RB                 .deg                                    : Relative Bearing 
~Ascii
# ...
169.6211999999999 6.382447   6.515752   0.3470154  58.31443   313.0559   290.0402   336.9854  
169.7735999999999 6.382447   6.515752   0.3491516  60.70709   312.7617   290.2569   337.4948  
169.9259999999999 6.382447   6.515752   0.351532   60.5002    312.9396   290.2041   337.2639  
170.0783999999999 6.382447   6.515752   0.3499756  61.3997    312.8147   290.3779   337.5612  
170.2307999999999 6.382447   6.515752   0.3486633  60.08644   312.5882   289.1959   336.6114  
170.3831999999999 6.404771   6.527492   0.3476257  60.80603   312.4425   287.8739   335.4358  
170.5355999999999 6.360123   6.515752   0.3454285  55.00927   312.0848   287.8344   335.7473  
170.6879999999999 6.404771   6.515752   0.3452759  54.9553    312.1694   288.1845   336.0154  
170.8403999999999 6.382447   6.515752   0.3442993  55.1352    312.0844   287.63     335.5465  
170.9927999999999 6.382447   6.515752   0.3421326  60.21236   311.8649   287.0833   335.224   
171.1451999999999 6.382447   6.562711   0.3406372  61.34572   311.6934   286.8062   335.1121  
171.2975999999999 6.382447   6.515752   0.3389282  58.10753   311.5073   286.7271   335.2198  
171.4499999999999 6.382447   6.515752   0.3384399  59.77161   311.7723   286.494    334.724   
171.6023999999999 6.382447   6.515752   0.341095   62.1103    311.6865   286.0727   334.3914  
171.7547999999999 6.382447   6.527492   0.342041   65.16859   311.5455   286.0287   334.487   
171.9071999999999 6.382447   6.515752   0.3408813  63.45955   311.6382   286.1691   334.5278  
172.0595999999999 6.382447   6.492273   0.3422546  64.89874   311.8508   284.9754   333.1246  
172.2119999999999 6.404771   6.515752   0.3401489  64.35905   312.204    283.4376   331.2372  
172.3643999999999 6.382447   6.515752   0.3403931  64.22412   312.4776   282.3324   329.8587  
172.5167999999999 6.404771   6.515752   0.3366089  62.42513   312.047    279.6477   327.6018  
172.6691999999999 6.404771   6.504013   0.3341675  61.16583   312.2032   278.6864   326.4805  
172.8215999999999 6.397243   6.515752   0.3332825  57.02814   311.5222   276.8723   325.3488  
172.9739999999999 6.360123   6.533563   0.3316956  53.06136   310.9487   277.3439   326.3969  
173.1263999999999 6.360123   6.515752   0.3310852  49.64327   310.0288   278.2755   328.2467  
173.2787999999999 6.404771   6.504013   0.3304749  51.0105    309.0007   278.4731   329.4682  
173.4311999999999 6.382447   6.515752   0.3321533  47.60141   308.0439   278.9745   330.9306  
173.5835999999999 6.382447   6.515752   0.3338013  46.34211   307.5327   279.9738   332.4425  
173.7359999999999 6.493546   6.515752   0.3363953  42.81608   306.582    280.8894   334.3123  
173.8883999999999 6.463954   6.492273   0.3400574  46.59397   306.5243   281.106    334.58    
174.0407999999999 6.434363   6.586191   0.3438721  46.41407   305.7559   280.9471   335.1973  
174.1931999999999 6.493546   6.59793    0.3457947  46.1802    305.6445   281.9198   336.2809  
174.3455999999999 6.471334   6.644889   0.3476257  43.12191   305.4839   283.3484   337.8683  
174.4979999999999 6.449121   6.60967    0.3504944  47.87925   305.5365   284.2688   338.7336  
174.6503999999999 6.419455   6.57445    0.353241   50.27192   305.6555   283.9015   338.2484  
174.8027999999999 6.404622   6.57445    0.3566589  56.2086    305.5117   284.1333   338.6248  
174.9551999999999 6.434363   6.515752   0.3578491  55.76884   305.6119   283.4662   337.8538  
175.1075999999999 6.456538   6.562711   0.3615417  53.96985   305.5299   282.0764   336.545   
175.2599999999999 6.360123   6.515752   0.3637085  56.12864   305.4684   281.6948   336.2276  
175.4123999999999 6.330457   6.515752   0.3630066  57.38794   306.0872   280.0587   333.9743  
175.5647999999999 6.330457   6.515752   0.3619385  57.56784   306.4783   278.7283   332.2556  
175.7171999999999 6.37518    6.515752   0.362793   50.96553   307.3653   278.0305   330.6674  
175.8695999999999 6.330457   6.515752   0.3596191  49.34643   308.1146   276.956    328.8409  
176.0219999999999 6.352818   6.539232   0.3578796  51.86502   309.0429   276.6479   327.6062  
176.1743999999999 6.37518    6.527492   0.3538818  52.71054   309.8482   277.3133   327.4687  
176.3267999999999 6.404771   6.539232   0.3494263  49.65226   310.6797   278.5006   327.8264  
176.4791999999999 6.382447   6.562711   0.3439331  46.70191   310.8073   278.8462   328.0425  
176.6315999999999 6.371386   6.515752   0.3378906  49.2205    311.2163   278.2844   327.0672  
176.7839999999999 6.360123   6.550972   0.3328247  51.91899   310.9993   277.0586   326.0623  
176.9363999999999 6.404771   6.539232   0.3277283  54.99527   310.7095   276.1913   325.477   
177.0887999999999 6.419455   6.562711   0.3210449  49.23849   310.3999   276.0845   325.6882  
177.2411999999999 6.360123   6.527492   0.3173523  45.4606    310.0643   276.4074   326.3451  
177.3935999999999 6.4565     6.586191   0.3139343  43.89548   309.751    276.7636   327.0102  
177.5459999999999 6.382447   6.515752   0.309845   46.95377   309.4282   276.7905   327.3598  
177.6983999999999 6.382447   6.52159    0.3063354  49.17553   309.2831   276.2309   326.9462  
177.8507999999999 6.352818   6.562711   0.3056335  50.43482   309.2208   275.1288   325.9059  
178.0031999999999 6.352818   6.527492   0.3045959  46.65693   309.2471   274.3202   325.0685  
178.1555999999999 6.360123   6.515752   0.3059387  50.19196   309.157    274.9933   325.8383  
178.3079999999999 6.382447   6.504013   0.3023071  51.09145   309.2394   275.7994   326.5574  
178.4603999999999 6.360123   6.492273   0.3020325  52.53064   308.9498   276.3209   327.3719  
178.6127999999999 6.382447   6.515752   0.3022156  54.32964   308.7138   277.4003   328.6847  
178.7651999999999 6.412076   6.468793   0.3014832  54.14975   308.5328   277.2916   328.7592  
178.9175999999999 6.360123   6.515752   0.3007202  56.84824   308.3499   277.1819   328.8344  
179.0699999999999 6.404771   6.515752   0.3035583  52.88145   308.0088   276.5388   328.5278  
179.2223999999999 6.397243   6.504013   0.305542   52.79196   307.6877   276.6897   329.0024  
179.3747999999999 6.404771   6.515752   0.3094482  52.70155   307.6772   276.4872   328.8101  
179.5271999999999 6.382447   6.562711   0.311615   53.24125   307.8329   275.1757   327.3399  
179.6795999999999 6.37518    6.562711   0.3136292  54.26668   308.0596   274.2273   326.1648  
179.8319999999999 6.352818   6.562711   0.3180542  53.72698   308.5523   274.0664   325.518   
179.9843999999999 6.367614   6.515752   0.3208923  55.52597   309.1225   273.0895   323.9634  
180.1367999999999 6.382447   6.515752   0.3239746  51.63115   310.0978   272.5586   322.4671  
180.2891999999999 6.360123   6.515752   0.3264465  51.93699   310.5451   273.159    322.6132  
180.4415999999999 6.382447   6.515752   0.3293762  52.47668   311.1612   273.0665   321.904   
180.5939999999999 6.360123   6.515752   0.3317871  50.49779   311.57     274.063    322.4945  
180.7463999999999 6.382447   6.515752   0.3322144  48.61784   311.7823   275.8458   324.0636  
180.8987999999999 6.382447   6.562711   0.3308411  44.12035   312.5545   275.9477   323.3979  
181.0511999999999 6.360123   6.515752   0.3330994  47.53844   312.7413   275.4951   322.7545  
181.2035999999999 6.360123   6.504013   0.3331299  53.43015   313.1344   275.2949   322.1599  
181.3559999999999 6.374955   6.515752   0.3314514  56.75829   313.6206   274.5974   320.9748  
181.5083999999999 6.382447   6.515752   0.335144   58.19748   314.0945   274.7744   320.6784  
181.6607999999999 6.360123   6.515752   0.3330994  55.49899   314.327    274.7413   320.4127  
181.8131999999999 6.382447   6.515752   0.3321228  55.32808   314.8664   273.9385   319.0724  
181.9655999999999 6.360123   6.515752   0.3294373  54.78839   315.1414   274.1757   319.0323  
182.1179999999999 6.352818   6.515752   0.3262939  51.1904    315.3677   273.4789   318.1113  
182.2703999999999 6.393736   6.539499   0.3237305  51.45125   315.455    273.4596   318.002   
182.4227999999999 6.360123   6.562711   0.3205872  54.50955   315.3627   273.3398   317.9771  
