~Version
 VERS              .         2.0                           : CWLS LOG ASCII STANDARD - VERSION 2.0
 WRAP              .         NO                            : ONE LINE PER DEPTH STEP
 DLM               .         SPACE                         : DELIMITING CHARACTER(SPACE TAB OR COMMA)
~Well Information
#_______________________________________________________________________________
#
#PARAMETER_NAME    .UNIT     VALUE                         : DESCRIPTION
#_______________________________________________________________________________
STRT               .m        78.9431999999999              : First reference value
STOP               .m        361.7976                      : Last reference value
STEP               .m        0.1524                        : Step increment
NULL               .         -9999                         : Missing value
COMP               .                                       : Company
WELL               .         G                             : Well name
FLD                .                                       : Field
LOC                .                                       : Location
CNTY               .                                       : County
STAT               .                                       : State
CTRY               .                                       : Country
SRVC               .                                       : Service Company
DATE               .                                       : Date
API                .                                       : API number
~Parameter Information Block
#_______________________________________________________________________________
#
#PARAMETER_NAME    .UNIT     VALUE                         : DESCRIPTION
#_______________________________________________________________________________
SET                .         Inclination                   : 
TLFamily_C13       .         Caliper 1                     : 
TLFamily_C24       .         Caliper 2                     : 
TLFamily_DEVI      .         Hole Deviation                : 
TLFamily_GR        .         Gamma Ray                     : 
TLFamily_HAZI      .         Hole Azimuth                  : 
TLFamily_MD        .         Measured Depth                : 
TLFamily_P1AZ      .         Pad A Azimuth                 : 
TLFamily_RB        .         Relative Bearing              : 
~Curve Information
#_______________________________________________________________________________
#
#LOGNAME           .UNIT     LOG_ID                        : DESCRIPTION
#_______________________________________________________________________________
MD                 .m                                      :  
C13                .in                                     : Caliper 1-3 
C24                .in                                     : Caliper 2-4 
DEVI               .deg                                    : Deviation 
GR                 .gAPI                                   : Gamma Ray 
HAZI               .deg                                    : Hole Azimuth 
P1AZ               .deg                                    : Pad 1 Azimuth 
RB                 .deg                                    : Relative Bearing 
~Ascii
# ...
130.7591999999999 7.4726     7.842337   0.4324341  83.83318   318.3797   270.7711   312.3905  
130.9115999999999 6.486129   6.586191   0.4331665  86.35177   318.2932   270.0659   311.7737  
131.0639999999999 6.449121   6.650874   0.4413452  79.51559   318.0132   270.8008   312.7881  
131.2163999999999 6.493546   6.586191   0.4487915  75.04509   317.8575   270.7056   312.8502  
131.3687999999999 6.419455   6.586191   0.4493408  74.86519   317.702    271.3897   313.692   
131.5211999999999 6.449121   6.586191   0.4569092  79.18277   318.0757   271.8231   313.7512  
131.6735999999999 6.508342   6.680108   0.4612122  82.57388   317.9933   271.5147   313.5232  
131.8259999999999 6.389789   6.586191   0.4689636  85.27237   316.5461   271.2999   314.7565  
131.9783999999999 6.412076   6.586191   0.47052    82.21408   316.4384   272.5241   316.0861  
132.1307999999999 6.434363   6.527492   0.4736328  81.49448   316.5791   272.7226   316.1452  
132.2831999999999 6.39728    6.515752   0.4758911  78.97589   316.868    272.6255   315.7578  
132.4355999999999 6.389789   6.550972   0.480011   80.95478   316.9365   273.4957   316.5629  
132.5879999999999 6.389789   6.515752   0.4812012  82.55589   317.4276   274.1797   316.7525  
132.7403999999999 6.434288   6.515752   0.4812927  89.39206   317.7237   274.6588   316.9334  
132.8927999999999 6.441704   6.562711   0.4852905  94.78904   317.7385   275.8582   318.1182  
133.0451999999999 6.441704   6.515752   0.4802551  94.08743   318.1028   275.9755   317.8747  
133.1975999999999 6.441704   6.515752   0.4743347  84.37286   317.062    275.6649   318.6046  
133.3499999999999 6.449121   6.515752   0.473999   82.39397   316.3959   276.4058   320.0117  
133.5023999999999 6.471334   6.515752   0.4766235  80.05527   315.7364   277.8488   322.1151  
133.6547999999999 6.493546   6.562711   0.4722595  78.43619   315.8187   280.7543   324.9362  
133.8071999999999 6.611911   6.686007   0.469635   71.77991   315.5581   288.104    332.5469  
133.9595999999999 6.641503   6.644889   0.4675598  65.30353   315.9435   289.0664   333.1223  
134.1119999999999 6.864446   6.680108   0.4667358  61.88544   315.8682   289.9553   334.0871  
134.2643999999999 7.834258   6.668368   0.4668274  60.80603   316.1176   288.8534   332.7367  
134.4167999999999 7.923765   7.394466   0.4669189  63.32463   315.6594   270.1754   314.5158  
134.5691999999999 7.78987    7.443188   0.4672852  65.56437   315.9652   264.7943   308.8307  
134.7215999999999 8.481245   8.194528   0.4658203  67.00356   315.6673   269.3343   313.6694  
134.8739999999999 6.878235   6.903162   0.4656372  70.96136   315.2491   275.8048   320.554   
135.0263999999999 6.72568    6.669857   0.4647217  74.11859   315.1288   277.7531   322.623   
135.1787999999999 7.991756   7.337531   0.4641418  74.11859   315.0411   278.9067   323.8481  
135.3311999999999 7.413268   7.37275    0.4640503  71.98679   315.3505   277.4548   322.1059  
135.4835999999999 6.4565     6.603944   0.4650879  73.96568   315.1598   277.2666   322.1097  
135.6359999999999 6.656783   6.680108   0.4712219  77.32681   316.6221   277.3213   320.7006  
135.7883999999999 6.412076   6.515752   0.4707336  75.23997   317.0134   276.6118   319.6017  
135.9407999999999 7.292516   7.137956   0.471344   69.30329   317.5902   275.8997   318.3113  
136.0931999999999 6.538119   6.644889   0.4697571  64.11619   318.1836   278.7346   320.5497  
136.2455999999999 6.389789   6.515752   0.4670715  70.43966   318.2254   279.3036   321.0765  
136.3979999999999 6.39728    6.515752   0.469574   75.65674   318.223    281.6336   323.4123  
136.5503999999999 6.404771   6.586191   0.4682312  76.55624   318.2586   282.5125   324.2535  
136.7027999999999 6.39728    6.568754   0.4640808  69.80102   318.1204   281.2145   323.0916  
136.8551999999999 6.382447   6.60967    0.4674072  71.95981   318.3467   280.4336   322.0875  
137.0075999999999 6.382388   6.515752   0.4660339  73.03921   317.6642   280.247    322.5847  
137.1599999999999 6.360123   6.515752   0.4684753  79.33569   317.955    280.3362   322.3835  
137.3123999999999 6.627117   6.633149   0.4688721  78.97588   317.8195   280.4295   322.6101  
137.4647999999999 7.008708   7.208351   0.4693909  81.49448   318.0001   282.3363   324.3383  
137.6171999999999 7.739594   7.454927   0.4699097  79.87538   318.1895   284.3361   326.1506  
137.7695999999999 7.419744   7.330441   0.4708252  82.79874   317.9658   282.8864   324.9222  
137.9219999999999 6.737992   6.797504   0.4745178  86.21684   318.1884   282.8271   324.6383  
138.0743999999999 6.429481   6.574303   0.4730225  86.41473   318.1469   283.3147   325.1685  
138.2267999999999 6.459238   6.610751   0.4673767  81.51246   318.1808   284.7474   326.5694  
138.3791999999999 7.241682   6.938381   0.4672546  76.96101   318.1355   285.9088   327.7762  
138.5315999999999 6.538119   6.633149   0.4629517  78.56211   318.0852   286.6277   328.5411  
138.6839999999999 6.523138   6.680108   0.4643571  81.18286   317.6957   286.6582   328.9626  
138.8363999999999 6.455735   6.603167   0.4659424  84.139     317.2565   286.6926   329.438   
138.9887999999999 6.493546   6.515752   0.4593811  90.12965   317.1729   285.6417   328.8549  
139.1411999999999 6.474391   6.562711   0.4620056  91.74875   316.6696   285.9562   329.2885  
139.2935999999999 6.441667   6.562711   0.4627075  92.44137   316.6175   285.1801   328.5637  
139.4459999999999 6.508342   6.615655   0.4620667  93.78062   316.3155   284.384    328.0683  
139.5983999999999 6.412076   6.539232   0.4640808  96.88388   316.9597   283.6714   326.7118  
139.7507999999999 6.441704   6.680108   0.4616089  99.42945   316.7391   282.5526   325.816   
139.9031999999999 6.619477   6.680108   0.4601135  96.03036   317.1606   279.392    322.231   
140.0555999999999 6.619477   6.656629   0.4581604  90.7683    316.8839   278.0382   321.1567  
140.2079999999999 6.504416   6.580696   0.4584656  85.48825   316.9651   278.1129   321.148   
140.3603999999999 6.47137    6.586191   0.4587097  84.48981   317.0282   278.1709   321.1412  
140.5127999999999 6.671094   6.703588   0.4580688  80.35212   316.5831   278.4188   321.8404  
140.6651999999999 6.805303   6.783917   0.4611816  80.59499   316.2385   278.9388   322.7017  
140.8175999999999 6.538119   6.680108   0.4671936  88.79041   314.8985   277.6171   322.7202  
140.9699999999999 6.430752   6.586191   0.4687195  87.35122   314.7195   276.5023   321.783   
141.1223999999999 6.493546   6.60967    0.47229    83.47339   314.7652   275.8741   321.1098  
141.2747999999999 6.412076   6.521852   0.4731445  82.75379   315.0225   275.5543   320.5328  
141.4271999999999 6.389789   6.515752   0.4784241  78.9939    315.1082   275.0201   319.914   
141.5795999999999 6.419455   6.586191   0.4807129  67.48034   314.8246   274.4106   319.5893  
141.7319999999999 6.404771   6.550972   0.4826965  59.20496   314.9148   273.6824   318.7698  
141.8843999999999 6.382447   6.515752   0.4854126  50.5518    315.1724   273.402    318.2325  
142.0367999999999 6.382447   6.515752   0.4868774  48.9327    314.9879   273.4798   318.493   
142.1891999999999 6.404771   6.515752   0.4892578  47.31361   315.0395   273.9299   318.8931  
142.3415999999999 6.382447   6.515752   0.4892883  50.83963   314.8704   273.7365   318.8633  
142.4939999999999 6.382447   6.515752   0.4915771  52.27884   315.0385   273.2463   318.2082  
142.6463999999999 6.360123   6.515752   0.4915161  51.30938   314.8399   272.6665   317.828   
142.7987999999999 6.382447   6.515752   0.4888916  50.28395   314.6064   272.0396   317.4351  
142.9511999999999 6.360123   6.515752   0.4921265  52.80254   314.6111   271.6471   317.0361  
143.1035999999999 6.382447   6.515752   0.4917297  54.4916    314.7381   270.2595   315.5196  
143.2559999999999 6.404771   6.551374   0.4918518  53.96989   314.9389   269.2709   314.3341  
143.4083999999999 6.404771   6.515752   0.4906311  56.30858   315.273    269.1005   313.8313  
143.5607999999999 6.360123   6.515752   0.4894409  63.32466   315.3605   269.2141   313.8548  
