~Version
 VERS              .         2.0                           : CWLS LOG ASCII STANDARD - VERSION 2.0
 WRAP              .         NO                            : ONE LINE PER DEPTH STEP
 DLM               .         SPACE                         : DELIMITING CHARACTER(SPACE TAB OR COMMA)
~Well Information
#_______________________________________________________________________________
#
#PARAMETER_NAME    .UNIT     VALUE                         : DESCRIPTION
#_______________________________________________________________________________
STRT               .m        78.9431999999999              : First reference value
STOP               .m        361.7976                      : Last reference value
STEP               .m        0.1524                        : Step increment
NULL               .         -9999                         : Missing value
COMP               .                                       : Company
WELL               .         G                             : Well name
FLD                .                                       : Field
LOC                .                                       : Location
CNTY               .                                       : County
STAT               .                                       : State
CTRY               .                                       : Country
SRVC               .                                       : Service Company
DATE               .                                       : Date
API                .                                       : API number
~Parameter Information Block
#_______________________________________________________________________________
#
#PARAMETER_NAME    .UNIT     VALUE                         : DESCRIPTION
#_______________________________________________________________________________
SET                .         Inclination                   : 
TLFamily_C13       .         Caliper 1                     : 
TLFamily_C24       .         Caliper 2                     : 
TLFamily_DEVI      .         Hole Deviation                : 
TLFamily_GR        .         Gamma Ray                     : 
TLFamily_HAZI      .         Hole Azimuth                  : 
TLFamily_MD        .         Measured Depth                : 
TLFamily_P1AZ      .         Pad A Azimuth                 : 
TLFamily_RB        .         Relative Bearing              : 
~Curve Information
#_______________________________________________________________________________
#
#LOGNAME           .UNIT     LOG_ID                        : DESCRIPTION
#_______________________________________________________________________________
MD                 .m                                      :  
C13                .in                                     : Caliper 1-3 
C24                .in                                     : Caliper 2-4 
DEVI               .deg                                    : Deviation 
GR                 .gAPI                                   : Gamma Ray 
HAZI               .deg                                    : Hole Azimuth 
P1AZ               .deg                                    : Pad 1 Azimuth 
RB                 .deg                                    : Relative Bearing 
~Ascii
# ...
351.5867999999999 6.493546   6.633149   0.1235352  112.7969   99.67548   171.2786   71.60321  
351.7391999999999 6.500962   6.680108   0.1210938  112.7969   101.3866   170.5911   69.21109  
351.8915999999999 6.50205    6.680108   0.1201782  112.7969   101.6347   170.3248   68.68643  
352.0439999999999 6.449121   6.586191   0.1190186  112.7969   103.5113   169.9481   66.44623  
352.1963999999999 6.449121   6.586191   0.1209106  112.7969   103.8655   169.5954   65.72632  
352.3487999999999 6.523138   6.633149   0.1201782  112.7969   104.7141   169.1146   64.39417  
352.5011999999999 6.471334   6.586191   0.1224365  112.7969   105.3374   167.8351   62.49408  
352.6535999999999 6.449121   6.60967    0.1246338  112.7969   107.3369   166.7859   59.43124  
352.8059999999999 6.449121   6.586191   0.1282043  112.7969   108.5524   165.6403   57.09103  
352.9583999999999 6.471334   6.586191   0.1299438  112.7969   110.0258   164.4037   54.37042  
353.1107999999999 6.471334   6.550972   0.1296692  112.7969   112.4045   163.097    50.67908  
353.2631999999999 6.449121   6.562711   0.1290588  112.7969   114.3406   161.9583   47.62027  
353.4155999999999 6.523138   6.586191   0.1280823  112.7969   114.622    160.6296   46.00323  
353.5679999999999 6.478787   6.633149   0.1311035  112.7969   117.0282   158.2901   41.26144  
353.7203999999999 6.508342   6.586191   0.1290894  112.7969   118.419    157.0804   38.67084  
353.8727999999999 6.471334   6.586191   0.1300659  112.7969   119.8808   156.3358   36.44293  
354.0251999999999 6.404771   6.562711   0.1291199  112.7969   123.6778   154.9492   31.28098  
354.1775999999999 6.389789   6.586191   0.1275635  112.7969   124.6543   153.8419   29.17703  
354.3299999999999 6.419567   6.586191   0.124054   112.7969   126.4201   152.8898   26.48053  
354.4823999999999 6.493546   6.680108   0.125824   112.7969   128.1604   151.1214   22.95892  
354.6347999999999 6.486167   6.680108   0.1248779  112.7969   130.132    149.8121   19.66946  
354.7871999999999 6.393456   6.562711   0.124054   112.7969   131.9557   149.0592   17.11157  
354.9395999999999 6.493546   6.539232   0.1253662  112.7969   134.2343   148.5039   14.26114  
355.0919999999999 6.471334   6.59793    0.1239014  112.7969   136.2961   147.8437   11.55634  
355.2443999999999 6.493546   6.57445    0.1245728  112.7969   136.1895   146.8611   10.67874  
355.3967999999999 6.471334   6.57445    0.1244202  112.7969   136.4774   145.0355   8.567474  
355.5491999999999 6.412076   6.527492   0.122345   112.7969   136.7145   143.0568   6.339661  
355.7015999999999 6.449159   6.60967    0.1233826  112.7969   137.7634   141.6387   3.87439   
355.8539999999999 6.545387   6.60967    0.1188049  112.7969   137.7758   140.1032   2.33017   
356.0063999999999 6.619477   6.680108   0.1202393  112.7969   139.1042   138.157    359.0528  
356.1587999999999 6.649106   6.691848   0.1169434  112.7969   138.3268   136.8613   358.5244  
356.3111999999999 6.663939   6.727067   0.1166382  112.7969   139.9185   136.1044   356.19    
356.4635999999999 6.678735   6.750546   0.1166992  112.7969   140.3039   135.5962   355.3069  
356.6159999999999 6.678735   6.715327   0.1149902  112.7969   139.1367   135.2851   356.1405  
356.7683999999999 6.64195    6.750546   0.1163635  112.7969   139.179    135.0058   355.8293  
356.9207999999999 6.700686   6.738806   0.1197205  112.7969   137.6138   135.0488   357.427   
357.0731999999999 6.537683   6.690042   0.1177368  112.7969   136.4896   135.5855   359.0885  
357.2255999999999 6.352818   6.60967    0.1168518  112.7969   134.7873   135.2973   0.5003052 
357.3779999999999 6.456538   6.680108   0.1178284  112.7969   133.8017   135.1106   1.310852  
357.5303999999999 6.404771   6.57445    0.1176147  112.7969   131.6024   135.2502   3.638397  
357.6827999999999 6.408619   6.562711   0.1184082  112.7969   130.8519   135.4967   4.643555  
357.8351999999999 6.330457   6.515752   0.1193237  112.7969   130.0227   136.0329   5.753998  
357.9875999999999 6.330457   6.515752   0.117981   112.7969   127.9261   135.9583   8.032318  
358.1399999999999 6.352818   6.515752   0.1173096  112.7969   127.4074   135.8778   8.46109   
358.2923999999999 6.352818   6.562711   0.1182861  112.7969   126.2397   135.9111   9.678589  
358.4447999999999 6.345364   6.550972   0.1221924  112.7969   123.8691   136.2521   12.37775  
358.5971999999999 6.352818   6.562711   0.1307983  112.7969   122.2328   136.9862   14.74893  
358.7495999999999 6.352818   6.515752   0.133728   112.7969   121.8559   136.8958   15.03961  
358.9019999999999 6.37518    6.515752   0.1364746  112.7969   120.2657   137.1113   16.84805  
359.0543999999999 6.37518    6.515752   0.1401367  112.7969   118.8506   136.9374   18.08932  
359.2067999999999 6.360272   6.515752   0.1427612  112.7969   118.5891   136.3936   17.80695  
359.3591999999999 6.330457   6.515752   0.1448669  112.7969   117.0819   135.8705   18.79395  
359.5115999999999 6.352818   6.515752   0.1463318  112.7969   117.332    135.0975   17.75977  
359.6639999999999 6.352818   6.515752   0.1478577  112.7969   116.9081   134.4018   17.50552  
359.8163999999999 6.381845   6.55421    0.1504822  112.7969   116.9083   133.8057   16.88956  
359.9687999999999 6.352818   6.507926   0.1493835  112.7969   116.102    133.4171   17.31537  
360.1211999999999 6.315723   6.47662    0.1493225  112.7969   116.7701   132.7574   15.98917  
360.2735999999999 6.211792   6.468793   0.148468   112.7969   116.6923   131.9658   15.26535  
360.4259999999999 6.228308   6.466908   0.1482239  112.7969   116.7898   131.3222   14.53036  
360.5783999999999 6.226183   6.427768   0.1481323  112.7969   116.9456   130.9966   14.04724  
360.7307999999999 6.209872   6.435347   0.1480713  112.7969   117.0414   130.7963   13.75006  
360.8831999999999 6.194935   6.413075   0.1470032  112.7969   117.3496   130.2876   12.9422   
361.0355999999999 6.202302   6.36705    0.1428833  112.7969   117.0269   129.6956   12.67126  
361.1879999999999 6.192438   6.351397   0.1398315  112.7969   117.5298   128.9718   11.43927  
361.3403999999999 6.182573   6.351397   0.1377869  112.7969   116.8964   128.4114   11.5181   
361.4927999999999 6.161264   6.348144   0.1359558  112.7969   117.2282   127.7182   10.4906   
361.6451999999999 6.144665   6.343224   0.1354675  112.7969   117.069    127.398    10.3284   
361.7975999999999 6.145435   6.339657   0.1346741  112.7969   116.8055   126.8681   10.05991  
