~Version
 VERS              .         2.0                           : CWLS LOG ASCII STANDARD - VERSION 2.0
 WRAP              .         NO                            : ONE LINE PER DEPTH STEP
 DLM               .         SPACE                         : DELIMITING CHARACTER(SPACE TAB OR COMMA)
~Well Information
#_______________________________________________________________________________
#
#PARAMETER_NAME    .UNIT     VALUE                         : DESCRIPTION
#_______________________________________________________________________________
STRT               .m        78.9431999999999              : First reference value
STOP               .m        361.7976                      : Last reference value
STEP               .m        0.1524                        : Step increment
NULL               .         -9999                         : Missing value
COMP               .                                       : Company
WELL               .         G                             : Well name
FLD                .                                       : Field
LOC                .                                       : Location
CNTY               .                                       : County
STAT               .                                       : State
CTRY               .                                       : Country
SRVC               .                                       : Service Company
DATE               .                                       : Date
API                .                                       : API number
~Parameter Information Block
#_______________________________________________________________________________
#
#PARAMETER_NAME    .UNIT     VALUE                         : DESCRIPTION
#_______________________________________________________________________________
SET                .         Inclination                   : 
TLFamily_C13       .         Caliper 1                     : 
TLFamily_C24       .         Caliper 2                     : 
TLFamily_DEVI      .         Hole Deviation                : 
TLFamily_GR        .         Gamma Ray                     : 
TLFamily_HAZI      .         Hole Azimuth                  : 
TLFamily_MD        .         Measured Depth                : 
TLFamily_P1AZ      .         Pad A Azimuth                 : 
TLFamily_RB        .         Relative Bearing              : 
~Curve Information
#_______________________________________________________________________________
#
#LOGNAME           .UNIT     LOG_ID                        : DESCRIPTION
#_______________________________________________________________________________
MD                 .m                                      :  
C13                .in                                     : Caliper 1-3 
C24                .in                                     : Caliper 2-4 
DEVI               .deg                                    : Deviation 
GR                 .gAPI                                   : Gamma Ray 
HAZI               .deg                                    : Hole Azimuth 
P1AZ               .deg                                    : Pad 1 Azimuth 
RB                 .deg                                    : Relative Bearing 
~Ascii
# ...
299.1611999999999 6.337985   6.327917   0.1843872  52.35069   183.9451   314.1679   130.2216  
299.3136   6.39728    6.398355   0.1880798  45.51451   182.1919   312.0646   129.8723  
299.4659999999999 6.508342   6.492273   0.1903076  39.44291   180.9909   311.2878   130.2982  
299.6184   6.449159   6.410095   0.1907349  34.94543   179.7751   311.3651   131.5915  
299.7707999999999 6.330457   6.339657   0.1916199  34.04593   178.6342   310.1087   131.4734  
299.9232   6.352818   6.421835   0.1934509  31.84216   177.1127   308.8893   131.7775  
300.0755999999999 6.330457   6.327917   0.1940613  35.97985   176.4124   307.9936   131.5841  
300.228    6.315623   6.327917   0.1950989  36.33965   175.5071   306.3988   130.8932  
300.3803999999999 6.315997   6.327917   0.1963806  41.55673   174.4019   305.7595   131.356   
300.5328   6.315997   6.327917   0.1967468  40.11753   173.543    304.1939   130.6522  
300.6851999999999 6.293561   6.327917   0.1959534  44.79492   172.9451   301.8732   128.9263  
300.8376   6.315997   6.327917   0.1933594  42.12341   172.3262   300.634    128.3085  
300.9899999999999 6.315997   6.327917   0.1929932  41.04402   171.6461   299.57     127.9218  
301.1424   6.315997   6.327917   0.1892395  40.32442   170.0323   298.8687   128.8323  
301.2947999999999 6.293561   6.327917   0.1882019  41.01703   169.4608   297.2679   127.8051  
301.4472   6.345588   6.327917   0.1834717  41.73663   168.4521   294.4256   125.9757  
301.5995999999999 6.315997   6.327917   0.1838074  40.47733   167.9417   290.8005   122.8604  
301.752    6.330792   6.327917   0.1793213  41.15195   166.83     289.3987   122.5684  
301.9043999999999 6.330457   6.421835   0.1773071  45.28964   165.6238   288.0419   122.4153  
302.0568   6.352818   6.410095   0.1761475  49.24743   164.5351   287.4296   122.8919  
302.2091999999999 6.293561   6.304438   0.1761169  45.69442   164.0358   286.6041   122.5684  
302.3616   6.301201   6.327917   0.1761169  43.17583   163.8019   285.1598   121.3582  
302.5139999999999 6.256291   6.327917   0.1761475  46.41402   163.2023   284.4448   121.243   
302.6664   6.241458   6.327917   0.1724854  56.30848   162.7751   283.5264   120.7502  
302.8187999999999 6.315997   6.327917   0.1714478  58.10748   162.4623   282.776    120.3173  
302.9712   6.352818   6.327917   0.1690063  52.64753   161.5485   282.5336   120.987   
303.1235999999999 6.330457   6.327917   0.16745    45.99125   161.4055   281.835    120.4302  
303.276    6.352818   6.351397   0.1665955  51.20833   159.47     280.7729   121.3017  
303.4283999999999 6.249136   6.269219   0.1660461  59.18687   160.3341   279.8469   119.5194  
303.5808   6.30079    6.234      0.1658936  68.18185   159.6878   280.578    120.8954  
303.7331999999999 6.352818   6.269219   0.1659546  68.90144   159.7575   280.5677   120.8142  
303.8856   6.37518    6.25748    0.1651611  69.29722   159.931    280.4567   120.5275  
304.0379999999999 6.374955   6.140082   0.1654663  61.74144   160.2607   280.615    120.3587  
304.1904   6.404771   6.527492   0.1638489  50.04799   160.106    279.7802   119.6786  
304.3427999999999 6.382447   6.398355   0.1643677  39.21804   160.7989   279.5448   118.7399  
304.4952   6.352818   6.374876   0.1627502  41.19693   160.8966   279.838    118.9415  
304.6475999999999 6.293561   6.339657   0.1636963  46.05422   160.8223   278.6962   117.8792  
304.8      6.352818   6.351397   0.1623535  44.23724   160.7164   277.1354   116.4123  
304.9523999999999 6.37518    6.421835   0.1629944  39.37996   160.0981   277.3293   117.2306  
305.1048   6.352818   6.304438   0.1610107  37.21217   159.8928   278.1852   118.2911  
305.2571999999999 6.367651   6.327917   0.1614075  47.30452   159.2518   278.6929   119.4439  
305.4096   6.348464   6.327917   0.1598206  58.99799   158.8295   279.105    120.278   
305.5619999999999 6.352818   6.374876   0.1583252  62.78487   158.5116   279.4673   120.949   
305.7144   6.382447   6.421835   0.1568604  51.15437   157.8743   278.8094   120.9344  
305.8667999999999 6.352818   6.327917   0.1542358  38.65137   158.5147   277.9189   119.3958  
306.0192   6.271124   6.24574    0.1511536  33.15544   156.8074   277.5039   120.6997  
306.1715999999999 6.352818   6.316178   0.1492004  35.71901   156.8658   278.0077   121.1444  
306.324    6.315997   6.327917   0.1454163  35.62906   156.2144   277.3845   121.1734  
306.4763999999999 6.293561   6.234      0.1444092  34.8285    155.7358   274.3975   118.6572  
306.6288   6.352818   6.292698   0.1410217  36.69946   155.2128   273.7987   118.5892  
306.7811999999999 6.370517   6.246013   0.1384888  34.73855   154.7211   273.7112   118.9943  
306.9336   6.323189   6.327917   0.1344299  37.07724   155.2621   273.5983   118.3304  
307.0859999999999 6.382447   6.421835   0.131012   41.87156   155.3241   272.796    117.4711  
307.2384   6.271124   6.327917   0.1272888  53.18724   155.3857   272.485    117.0943  
307.3907999999999 6.315997   6.327917   0.1236572  58.88405   155.217    272.6579   117.4401  
307.5432   6.34529    6.327917   0.1177979  58.71315   155.0339   272.4015   117.3632  
307.6955999999999 6.34529    6.351397   0.1158447  50.07797   154.2952   272.0026   117.7066  
307.848    6.352818   6.327917   0.1142578  40.96307   154.5464   271.0141   116.4645  
308.0003999999999 6.323152   6.386615   0.111145   36.15976   153.6422   270.3846   116.7528  
308.1528   6.293561   6.374876   0.1092834  41.01704   153.925    270.0678   116.1384  
308.3051999999999 6.315997   6.316178   0.1065674  49.73317   152.7902   269.6987   116.9023  
308.4576   6.330457   6.339657   0.1040649  53.69095   151.9537   269.1448   117.1927  
308.6099999999999 6.352818   6.421835   0.1030579  52.25176   152.0145   269.1263   117.1078  
308.7624   6.34529    6.327917   0.1008606  46.44101   150.7801   269.4501   118.6738  
308.9147999999999 6.293561   6.292698   0.09817505 45.36161   149.2024   267.5188   118.3246  
309.0672   6.293561   6.280959   0.09893799 39.78473   148.4263   266.9193   118.5022  
309.2195999999999 6.293561   6.386615   0.0987854  40.47734   146.6551   267.0255   120.3794  
309.372    6.389976   6.421835   0.1001892  40.48634   144.9842   265.9637   120.9721  
309.5243999999999 6.37518    6.327917   0.1000366  39.40694   144.6581   264.5886   119.9298  
309.6768   6.271124   6.327917   0.09817505 41.73664   143.0912   264.5954   121.5099  
309.8291999999999 6.352818   6.327917   0.09881592 45.87432   142.3615   264.3895   122.0367  
309.9816   6.312423   6.327917   0.09942627 49.50829   140.9333   264.2631   123.3144  
310.1339999999999 6.316422   6.338615   0.09802246 47.88919   140.1327   264.8243   124.6915  
310.2864   6.323152   6.327917   0.09631348 47.3495    136.7585   265.5801   128.8131  
310.4387999999999 6.352818   6.327917   0.09487915 48.75271   133.8564   266.5111   132.6652  
310.5912   6.330457   6.327917   0.09667969 51.4602    131.2306   266.3447   135.1128  
310.7435999999999 6.37518    6.421835   0.09274292 56.13758   128.7248   267.3039   138.5677  
310.896    6.315997   6.327917   0.09475708 55.41798   129.391    267.8617   138.4808  
311.0483999999999 6.360123   6.421835   0.09576416 59.72657   125.3531   268.4668   143.1299  
311.2008   6.404771   6.316178   0.09402466 60.62607   122.4026   269.4537   147.0417  
311.3531999999999 6.449159   6.421835   0.09353638 68.54165   119.4007   269.8143   150.4036  
311.5056   6.493546   6.421835   0.09494019 76.27732   115.6594   270.2217   154.5624  
311.6579999999999 6.58232    6.550972   0.09274292 70.20572   113.6305   268.7189   155.0793  
311.8104   6.715482   6.680108   0.09155273 54.5045    110.2764   267.9752   157.7097  
311.9627999999999 6.701427   6.539539   0.09298706 33.74411   105.7806   267.4166   161.6245  
312.1152   6.671617   6.539232   0.09487915 28.84185   102.0861   267.018    164.9331  
312.2675999999999 6.641503   6.492273   0.09539795 26.73303   100.0858   266.9608   166.879   
312.42     6.604681   6.504013   0.09640503 28.95478   96.41611   267.1603   170.7263  
