~Version
 VERS              .         2.0                           : CWLS LOG ASCII STANDARD - VERSION 2.0
 WRAP              .         NO                            : ONE LINE PER DEPTH STEP
 DLM               .         SPACE                         : DELIMITING CHARACTER(SPACE TAB OR COMMA)
~Well Information
#_______________________________________________________________________________
#
#PARAMETER_NAME    .UNIT     VALUE                         : DESCRIPTION
#_______________________________________________________________________________
STRT               .m        78.9431999999999              : First reference value
STOP               .m        361.7976                      : Last reference value
STEP               .m        0.1524                        : Step increment
NULL               .         -9999                         : Missing value
COMP               .                                       : Company
WELL               .         G                             : Well name
FLD                .                                       : Field
LOC                .                                       : Location
CNTY               .                                       : County
STAT               .                                       : State
CTRY               .                                       : Country
SRVC               .                                       : Service Company
DATE               .                                       : Date
API                .                                       : API number
~Parameter Information Block
#_______________________________________________________________________________
#
#PARAMETER_NAME    .UNIT     VALUE                         : DESCRIPTION
#_______________________________________________________________________________
SET                .         Inclination                   : 
TLFamily_C13       .         Caliper 1                     : 
TLFamily_C24       .         Caliper 2                     : 
TLFamily_DEVI      .         Hole Deviation                : 
TLFamily_GR        .         Gamma Ray                     : 
TLFamily_HAZI      .         Hole Azimuth                  : 
TLFamily_MD        .         Measured Depth                : 
TLFamily_P1AZ      .         Pad A Azimuth                 : 
TLFamily_RB        .         Relative Bearing              : 
~Curve Information
#_______________________________________________________________________________
#
#LOGNAME           .UNIT     LOG_ID                        : DESCRIPTION
#_______________________________________________________________________________
MD                 .m                                      :  
C13                .in                                     : Caliper 1-3 
C24                .in                                     : Caliper 2-4 
DEVI               .deg                                    : Deviation 
GR                 .gAPI                                   : Gamma Ray 
HAZI               .deg                                    : Hole Azimuth 
P1AZ               .deg                                    : Pad 1 Azimuth 
RB                 .deg                                    : Relative Bearing 
~Ascii
# ...
221.4371999999999 6.382447   6.539232   0.276886   66.91357   298.7025   322.829    24.12949  
221.5895999999999 6.382447   6.515752   0.2703552  65.33945   298.3306   323.652    25.31845  
221.7419999999999 6.330457   6.492273   0.2661743  66.78765   298.1121   323.1677   25.05978  
221.8943999999999 6.352818   6.480534   0.260498   65.42041   297.8454   322.768    24.92178  
222.0467999999999 6.352818   6.515752   0.2552795  65.24051   297.5615   321.7065   24.14505  
222.1991999999999 6.37518    6.468793   0.2494812  62.35312   296.6288   321.843    25.21378  
222.3515999999999 6.352818   6.445314   0.2434998  60.13137   295.7347   322.2951   26.56601  
222.5039999999999 6.330457   6.421835   0.240509   63.42352   294.253    322.8356   28.57843  
222.6563999999999 6.315623   6.480534   0.2374878  64.68282   293.3511   323.1063   29.75876  
222.8087999999999 6.338022   6.421835   0.2367249  64.63785   292.1752   323.2545   31.07495  
222.9611999999999 6.352818   6.421835   0.2373657  62.41609   291.0662   322.8296   31.76376  
223.1135999999999 6.323189   6.480534   0.2409668  60.6171    289.8062   323.2203   33.41629  
223.2659999999999 6.338022   6.515752   0.2463379  62.95579   288.7213   323.258    34.54221  
223.4183999999999 6.352818   6.515752   0.2533569  65.12357   287.1483   323.5059   36.35446  
223.5707999999999 6.352818   6.421835   0.2595215  66.49981   287.4176   324.5202   37.09973  
223.7231999999999 6.352818   6.433575   0.2658081  61.82242   287.1637   324.3213   37.1506   
223.8755999999999 6.352818   6.515752   0.2727051  58.1165    287.3188   323.2965   35.97681  
224.0279999999999 6.30079    6.533563   0.2762451  57.99956   287.6526   322.2469   34.59012  
224.1803999999999 6.37518    6.445314   0.2803345  57.13605   288.1965   322.179    33.98401  
224.3327999999999 6.352818   6.492273   0.281189   59.58268   288.95     323.5166   34.57108  
224.4851999999999 6.352818   6.480534   0.2828369  59.04298   289.4459   323.9603   34.51431  
224.6375999999999 6.330457   6.468793   0.2844238  60.23932   289.7207   323.7275   34.00879  
224.7899999999999 6.37518    6.504013   0.2850647  59.33981   290.7434   323.1595   32.41238  
224.9423999999999 6.352818   6.457054   0.2859192  59.51971   291.4302   322.0011   30.57071  
225.0947999999999 6.352818   6.468794   0.2868347  63.62142   292.5362   320.5778   28.04327  
225.2471999999999 6.330457   6.468793   0.285614   60.36524   293.2722   320.2035   26.93616  
225.3995999999999 6.37518    6.492273   0.2815247  60.90494   294.1471   321.3871   27.23938  
225.5519999999999 6.330457   6.515752   0.277832   58.44931   294.6225   322.9443   28.32339  
225.7043999999999 6.330457   6.492273   0.2731018  62.0383    295.4386   325.3742   29.9411   
225.8567999999999 6.337985   6.515752   0.2677917  59.33981   296.1298   326.5318   30.39923  
226.0091999999999 6.330457   6.433575   0.2601318  60.08639   297.0739   327.4912   30.42194  
226.1615999999999 6.352818   6.445314   0.2544556  60.11337   296.8328   325.9865   29.15308  
226.3139999999999 6.37518    6.445314   0.2491455  63.53146   296.6849   323.472    26.78537  
226.4663999999999 6.360384   6.445314   0.2429199  64.94367   296.0272   323.8283   27.80008  
226.6187999999999 6.37518    6.492273   0.2376404  67.82206   294.8871   323.349    28.4631   
226.7711999999999 6.330457   6.433575   0.2351074  66.20296   293.2662   322.0567   28.78812  
226.9235999999999 6.352818   6.492273   0.2342529  64.04417   291.4767   321.6722   30.2027   
227.0759999999999 6.330457   6.480534   0.2345276  60.11337   290.1537   321.1261   30.97321  
227.2283999999999 6.367614   6.445314   0.2354126  63.71136   289.6093   320.1293   30.51654  
227.3807999999999 6.382447   6.515752   0.2372437  67.36332   288.8547   319.3861   30.53067  
227.5331999999999 6.360123   6.515752   0.2404175  68.95543   288.2811   318.6873   30.40546  
227.6855999999999 6.404771   6.515752   0.2398987  60.21232   288.093    318.6888   30.59595  
227.8379999999999 6.39728    6.527492   0.2430115  57.81966   288.0956   317.6259   29.53107  
227.9903999999999 6.37518    6.504013   0.2461548  53.14228   288.0378   316.4358   28.40485  
228.1427999999999 6.382447   6.527492   0.2523499  57.24398   288.4981   315.4007   26.89487  
228.2951999999999 6.397243   6.515752   0.2571106  60.30228   288.1185   313.5561   25.43106  
228.4475999999999 6.441704   6.562711   0.2631531  68.00197   287.7684   312.1608   24.39221  
228.5999999999999 6.441704   6.562711   0.2728271  69.76498   287.58     311.2889   23.70322  
228.7523999999999 6.452039   6.545519   0.2808838  69.94489   286.9958   311.9495   24.94574  
228.9047999999999 6.441704   6.539232   0.2900391  71.48302   286.6539   312.4108   25.75851  
229.0571999999999 6.419455   6.550972   0.2956238  71.48302   286.8285   311.2745   24.4472   
229.2095999999999 6.441704   6.445314   0.3020325  71.32111   287.0916   311.6631   24.57458  
229.3619999999999 6.426908   6.515752   0.3074036  64.96168   287.8987   314.8725   26.22708  
229.5143999999999 6.463954   6.57445    0.3155823  62.00233   289.2161   314.1054   24.88742  
229.6667999999999 6.382447   6.515752   0.3187256  56.40746   289.597    313.6476   24.04678  
229.8191999999999 6.360123   6.492273   0.3213277  56.99101   289.7373   313.8057   24.06753  
229.9715999999999 6.382447   6.562711   0.3243408  57.66675   289.8998   313.9889   24.09155  
230.1239999999999 6.382447   6.515752   0.3255005  66.64373   290.1257   314.5386   24.41208  
230.2763999999999 6.382447   6.421835   0.3240051  71.32111   290.1012   315.2964   25.19711  
230.4287999999999 6.382447   6.457054   0.3290405  71.59997   290.2377   315.7853   25.55084  
230.5811999999999 6.404771   6.515752   0.3309631  75.01806   289.9191   316.1472   26.23114  
230.7335999999999 6.360123   6.515752   0.3328552  72.70634   289.6098   316.4984   26.89145  
230.8859999999999 6.382447   6.515752   0.3353882  75.40484   289.7029   317.2259   27.52112  
231.0383999999999 6.404771   6.515752   0.3394165  75.58742   291.6385   316.3976   24.75961  
231.1907999999999 6.360123   6.539232   0.3389731  75.67622   291.6202   316.0392   24.42005  
231.3431999999999 6.47875    6.58619    0.3385315  75.76464   291.6021   315.6822   24.08191  
231.4955999999999 6.345588   6.421835   0.3404846  76.96097   293.283    314.7733   21.49347  
231.6479999999999 6.693172   6.743736   0.3387146  75.88157   293.9801   316.7861   22.80573  
231.8003999999999 7.137999   7.090997   0.3348694  70.25971   294.905    318.1618   23.25848  
231.9527999999999 8.215143   6.937615   0.3336487  67.4173    295.4501   314.1343   18.68936  
232.1051999999999 8.989668   7.70146    0.3326721  70.11581   295.8674   313.9204   18.05756  
232.2575999999999 7.220318   6.763937   0.3321228  73.57887   296.6443   313.0581   16.41531  
232.4099999999999 6.567524   7.008819   0.3283691  79.49756   296.2144   311.1632   14.94788  
232.5623999999999 6.91842    6.938381   0.3286438  82.37595   296.7083   305.4402   8.72998   
232.7147999999999 6.762263   6.744331   0.3303223  91.37092   296.1157   308.9848   12.86942  
232.8671999999999 6.82332    6.761319   0.3306885  94.1054    295.9668   310.6744   14.70892  
233.0195999999999 6.878235   6.750546   0.3340759  94.6451    295.7607   312.2449   16.48193  
233.1719999999999 7.175939   6.727067   0.3408508  89.53595   295.305    312.804    17.49728  
233.3243999999999 7.307779   6.912924   0.3414307  90.05766   294.7397   310.1801   15.43997  
233.4767999999999 7.55884    7.008819   0.3438416  86.31574   294.8091   317.8505   23.04623  
233.6291999999999 7.381291   6.844464   0.3436279  87.4671    292.147    332.2467   40.09726  
233.7815999999999 6.604644   6.680108   0.3482056  87.79992   292.4417   332.078    39.63403  
233.9339999999999 6.434363   6.562711   0.3538513  88.84333   292.8237   331.8593   39.03339  
234.0863999999999 6.419455   6.59793    0.3508911  80.05524   290.9503   331.2693   40.33798  
234.2387999999999 6.419567   6.468794   0.3595398  82.92151   290.0381   331.3023   41.2641   
