~Version
 VERS              .         2.0                           : CWLS LOG ASCII STANDARD - VERSION 2.0
 WRAP              .         NO                            : ONE LINE PER DEPTH STEP
 DLM               .         SPACE                         : DELIMITING CHARACTER(SPACE TAB OR COMMA)
~Well Information
#_______________________________________________________________________________
#
#PARAMETER_NAME    .UNIT     VALUE                         : DESCRIPTION
#_______________________________________________________________________________
STRT               .m        78.9431999999999              : First reference value
STOP               .m        361.7976                      : Last reference value
STEP               .m        0.1524                        : Step increment
NULL               .         -9999                         : Missing value
COMP               .                                       : Company
WELL               .         G                             : Well name
FLD                .                                       : Field
LOC                .                                       : Location
CNTY               .                                       : County
STAT               .                                       : State
CTRY               .                                       : Country
SRVC               .                                       : Service Company
DATE               .                                       : Date
API                .                                       : API number
~Parameter Information Block
#_______________________________________________________________________________
#
#PARAMETER_NAME    .UNIT     VALUE                         : DESCRIPTION
#_______________________________________________________________________________
SET                .         Inclination                   : 
TLFamily_C13       .         Caliper 1                     : 
TLFamily_C24       .         Caliper 2                     : 
TLFamily_DEVI      .         Hole Deviation                : 
TLFamily_GR        .         Gamma Ray                     : 
TLFamily_HAZI      .         Hole Azimuth                  : 
TLFamily_MD        .         Measured Depth                : 
TLFamily_P1AZ      .         Pad A Azimuth                 : 
TLFamily_RB        .         Relative Bearing              : 
~Curve Information
#_______________________________________________________________________________
#
#LOGNAME           .UNIT     LOG_ID                        : DESCRIPTION
#_______________________________________________________________________________
MD                 .m                                      :  
C13                .in                                     : Caliper 1-3 
C24                .in                                     : Caliper 2-4 
DEVI               .deg                                    : Deviation 
GR                 .gAPI                                   : Gamma Ray 
HAZI               .deg                                    : Hole Azimuth 
P1AZ               .deg                                    : Pad 1 Azimuth 
RB                 .deg                                    : Relative Bearing 
~Ascii
# ...
312.5723999999999 6.604681   6.433575   0.09619141 25.1769    92.655     266.7383   174.074   
312.7248   6.627117   6.421835   0.09616089 25.89649   89.47641   265.1463   175.6514  
312.8771999999999 6.737992   6.539232   0.09671021 26.26529   87.76321   264.4246   176.6573  
313.0296   6.812046   6.557014   0.0960083  30.67282   86.33322   265.2737   178.9255  
313.1819999999999 6.819052   6.586191   0.09646606 32.11201   83.62277   265.3964   181.7594  
313.3343999999999 6.752825   6.656629   0.09921265 35.1703    83.97754   262.9853   179.0003  
313.4867999999999 6.671617   6.586191   0.1022949  39.21804   80.33868   260.0693   179.7114  
313.6391999999999 6.538119   6.492273   0.1012573  43.19382   80.21915   258.5744   178.3661  
313.7915999999999 6.463954   6.527492   0.1047974  44.27321   79.63257   258.1428   178.5149  
313.9439999999999 6.47815    6.342327   0.1074219  41.93452   81.33139   255.6822   174.3571  
314.0963999999999 6.736638   6.558658   0.1081238  46.59391   81.39355   254.9425   173.5575  
314.2487999999999 6.678735   6.562711   0.114563   41.91653   81.57565   253.882    172.3055  
314.4011999999999 6.560145   6.410095   0.1161499  40.8911    83.88644   252.4389   168.5559  
314.5535999999999 6.471334   6.327917   0.1191406  37.11322   85.35211   252.8688   167.5226  
314.7059999999999 6.649143   6.386615   0.1213074  36.93332   85.35565   253.949    168.5953  
314.8583999999999 6.708364   6.680108   0.1250305  33.82106   85.95068   252.8181   166.8624  
315.0107999999999 6.79725    6.680108   0.127655   29.67338   88.06512   251.7274   163.6507  
315.1631999999999 6.716115   6.680108   0.1350708  30.36599   91.10901   249.9386   158.8253  
315.3155999999999 6.759869   6.586191   0.1401672  30.54589   92.53806   248.8745   156.3313  
315.4679999999999 6.737992   6.656629   0.144043   31.99508   94.5025    249.0421   154.5319  
315.6203999999999 6.752825   6.680108   0.1503906  34.72055   96.18237   249.7355   153.55    
315.7727999999999 6.716115   6.586191   0.1536255  34.36076   97.66965   250.5363   152.8702  
315.9251999999999 6.734928   6.549518   0.1573792  33.61418   99.40305   250.1297   150.7291  
316.0775999999999 6.676808   6.571447   0.1604309  30.91569   100.4604   249.6745   149.2092  
316.2299999999999 6.626791   6.571378   0.1642456  30.73578   101.8495   250.565    148.703   
316.3823999999999 6.686449   6.586191   0.1665649  30.94267   102.5586   252.5456   149.9785  
316.5347999999999 6.678735   6.492273   0.1680298  29.32358   103.0979   252.6767   149.575   
316.6871999999999 6.737992   6.738806   0.1716919  29.86327   103.1333   252.1523   149.0308  
316.8395999999999 6.678735   6.539232   0.1712646  27.60554   104.2144   251.0705   146.8615  
316.9919999999999 6.708364   6.586191   0.172699   26.88594   103.3922   249.8711   146.4761  
317.1443999999999 6.678735   6.680108   0.1758118  28.50503   104.4105   249.477    145.0651  
317.2967999999999 6.607766   6.586191   0.1764832  25.36579   103.7823   250.1546   146.3784  
317.4491999999999 6.669216   6.586191   0.1792603  26.08539   104.3474   250.7805   146.4253  
317.6015999999999 6.715482   6.586191   0.1816406  22.10061   103.3474   249.9955   146.6534  
317.7539999999999 6.678735   6.586191   0.1805725  26.0584    102.5473   250.0921   147.5508  
317.9063999999999 6.700686   6.515752   0.1806946  27.99232   102.4878   250.6104   148.1142  
318.0587999999999 6.627117   6.586191   0.1799011  31.43739   101.2941   249.7652   148.4727  
318.2111999999999 6.648789   6.47548    0.1807861  33.05649   102.243    249.3732   147.1245  
318.3635999999999 6.759869   6.586191   0.1787415  31.84217   101.8316   249.8855   148.0565  
318.5159999999999 6.611911   6.504013   0.1805115  30.94267   101.7025   248.135    146.4373  
318.6683999999999 6.879279   6.680108   0.1799927  28.06428   101.8443   248.2167   146.3774  
318.8207999999999 6.716115   6.586191   0.1784058  24.83508   101.1592   247.9724   146.8155  
318.9731999999999 6.775447   6.621409   0.1759644  23.93559   101.8495   247.5831   145.7279  
319.1255999999999 6.848644   6.668368   0.1776733  24.29539   102.45     246.8771   144.4217  
319.2779999999999 6.805114   6.680108   0.1737976  26.00443   103.0276   247.2667   144.2334  
319.4303999999999 6.775447   6.656629   0.1745605  26.90393   102.399    246.8934   144.4966  
319.5827999999999 6.805114   6.680108   0.1740723  29.78232   103.8508   247.1049   143.2492  
319.7351999999999 6.826879   6.750546   0.1715088  33.10147   103.1246   245.8183   142.6991  
319.8875999999999 6.708364   6.586191   0.1721191  34.48669   105.8499   245.9543   140.0952  
320.0399999999999 6.597451   6.492273   0.1722717  32.5078    106.7612   246.3214   139.5595  
320.1923999999999 6.693531   6.527492   0.1705017  31.2485    106.2972   247.0744   140.7705  
320.3447999999999 6.68589    6.492273   0.1694336  27.65951   107.4963   247.9427   140.4512  
320.4971999999999 6.737992   6.656629   0.171051   27.11981   107.9074   249.3445   141.4394  
320.6495999999999 6.678735   6.680108   0.1737671  25.50072   108.8108   249.6239   140.803   
320.8019999999999 6.668147   6.68577    0.1726685  25.84252   108.5038   248.4952   139.9906  
320.9543999999999 6.678735   6.668368   0.1748352  24.76313   108.9305   248.1998   139.269   
321.1067999999999 6.693567   6.586191   0.1734619  25.66262   108.6142   247.8427   139.2367  
321.2591999999999 6.712953   6.666207   0.1746216  25.32081   109.1895   247.2274   138.0421  
321.4115999999999 6.505147   6.58946    0.1776428  26.58011   109.3562   247.1146   137.7534  
321.5639999999999 6.671617   6.633149   0.1827087  24.04353   108.7937   246.8444   138.0443  
321.7163999999999 6.716115   6.586191   0.1815186  26.2473    108.0749   246.7345   138.6608  
321.8687999999999 6.79725    6.844464   0.1842957  26.6071    107.6975   246.652    138.946   
322.0211999999999 6.775447   6.750546   0.1832886  27.52458   107.5832   245.5722   137.9877  
322.1735999999999 6.759869   6.691848   0.1842346  24.46629   107.0603   243.9584   136.8872  
322.3259999999999 6.767658   6.668368   0.1827698  21.0482    106.3412   241.8745   135.5276  
322.4783999999999 6.848644   6.715327   0.1824341  20.68841   104.7294   240.0825   135.3449  
322.6307999999999 6.805114   6.750546   0.1813354  20.8683    103.3847   238.7611   135.3754  
322.7831999999999 6.775447   6.680108   0.1803589  24.82609   103.5787   237.263    133.6871  
322.9355999999999 6.775447   6.656629   0.1802063  29.05373   102.7086   235.8488   133.1401  
323.0879999999999 6.730278   6.492273   0.1775818  29.23363   101.8411   235.7437   133.894   
323.2403999999999 6.471334   6.398355   0.1749878  29.05373   101.5717   235.7547   134.1864  
323.3927999999999 6.500962   6.363136   0.1735229  24.95202   99.86569   234.6576   134.8033  
323.5451999999999 6.471334   6.374876   0.1730042  25.85152   99.51248   233.6284   134.1185  
323.6975999999999 6.449121   6.374876   0.1728821  22.43343   99.27954   233.1386   133.8624  
323.8499999999999 6.730278   6.398355   0.1716614  21.7678    97.94598   232.7981   134.8565  
324.0023999999999 6.693567   6.398355   0.1703186  22.12759   97.33292   232.0561   134.7186  
324.1547999999999 6.627117   6.363136   0.1697998  24.02553   96.68109   231.4444   134.7677  
324.3071999999999 6.678735   6.468793   0.1722107  25.46473   95.22116   231.2803   136.0538  
324.4595999999999 6.656783   6.468793   0.1720886  24.92503   94.10519   230.9855   136.8772  
324.6119999999999 6.686449   6.492273   0.1729126  27.34468   91.91815   231.3508   139.4343  
324.7643999999999 6.678735   6.433575   0.1774902  28.28015   88.77271   230.0901   141.3159  
324.9167999999999 6.678735   6.527492   0.1791077  30.43894   86.83942   229.8881   143.0421  
325.0691999999999 6.478787   6.504013   0.1829529  28.99975   83.97305   229.6611   145.6836  
325.2215999999999 6.486167   6.421835   0.1847534  31.66226   81.83978   230.0786   148.2401  
325.3739999999999 6.567785   6.421835   0.1903992  35.26025   81.27408   230.9865   149.7165  
