~Version
 VERS              .         2.0                           : CWLS LOG ASCII STANDARD - VERSION 2.0
 WRAP              .         NO                            : ONE LINE PER DEPTH STEP
 DLM               .         SPACE                         : DELIMITING CHARACTER(SPACE TAB OR COMMA)
~Well Information
#_______________________________________________________________________________
#
#PARAMETER_NAME    .UNIT     VALUE                         : DESCRIPTION
#_______________________________________________________________________________
STRT               .m        78.9431999999999              : First reference value
STOP               .m        361.7976                      : Last reference value
STEP               .m        0.1524                        : Step increment
NULL               .         -9999                         : Missing value
COMP               .                                       : Company
WELL               .         G                             : Well name
FLD                .                                       : Field
LOC                .                                       : Location
CNTY               .                                       : County
STAT               .                                       : State
CTRY               .                                       : Country
SRVC               .                                       : Service Company
DATE               .                                       : Date
API                .                                       : API number
~Parameter Information Block
#_______________________________________________________________________________
#
#PARAMETER_NAME    .UNIT     VALUE                         : DESCRIPTION
#_______________________________________________________________________________
SET                .         Inclination                   : 
TLFamily_C13       .         Caliper 1                     : 
TLFamily_C24       .         Caliper 2                     : 
TLFamily_DEVI      .         Hole Deviation                : 
TLFamily_GR        .         Gamma Ray                     : 
TLFamily_HAZI      .         Hole Azimuth                  : 
TLFamily_MD        .         Measured Depth                : 
TLFamily_P1AZ      .         Pad A Azimuth                 : 
TLFamily_RB        .         Relative Bearing              : 
~Curve Information
#_______________________________________________________________________________
#
#LOGNAME           .UNIT     LOG_ID                        : DESCRIPTION
#_______________________________________________________________________________
MD                 .m                                      :  
C13                .in                                     : Caliper 1-3 
C24                .in                                     : Caliper 2-4 
DEVI               .deg                                    : Deviation 
GR                 .gAPI                                   : Gamma Ray 
HAZI               .deg                                    : Hole Azimuth 
P1AZ               .deg                                    : Pad 1 Azimuth 
RB                 .deg                                    : Relative Bearing 
~Ascii
# ...
156.6671999999999 6.826879   6.903162   0.3777771  119.813    317.145    268.0051   310.8615  
156.8195999999999 6.619477   6.715327   0.380188   119.2733   317.3813   268.1236   310.7443  
156.9719999999999 6.649106   6.727067   0.3836365  112.0774   317.4637   268.1597   310.6963  
157.1243999999999 6.641503   6.680108   0.3868713  102.7136   317.5414   268.1937   310.6511  
157.2767999999999 6.382447   6.515752   0.385498   98.03622   318.6309   267.6301   309.6525  
157.4291999999999 6.412076   6.515752   0.3910828  93.53873   318.4916   269.6683   311.1766  
157.5815999999999 6.471334   6.562711   0.3905029  98.5849    319.4473   269.8575   310.4091  
157.7339999999999 6.449121   6.562711   0.3928223  102.7226   319.8378   269.8216   309.9834  
157.8863999999999 6.415972   6.556722   0.3929749  105.0613   320.0882   269.985    309.9019  
158.0387999999999 6.471334   6.515752   0.3946228  97.3256    320.7934   269.4779   308.688   
158.1911999999999 6.419567   6.515752   0.3938293  90.47144   320.5441   269.0054   308.4647  
158.3435999999999 6.412889   6.556168   0.3945618  89.21214   320.2992   268.6761   308.3791  
158.4959999999999 6.434363   6.586191   0.3926697  93.52972   320.7172   267.4409   306.7225  
158.6483999999999 6.434363   6.562711   0.3947754  90.48942   321.1189   266.799    305.682   
158.8007999999999 6.493546   6.586191   0.3907166  89.23013   321.1527   266.5826   305.4313  
158.9531999999999 6.454755   6.586191   0.3887329  84.52576   321.3216   265.8598   304.5363  
159.1055999999999 6.500962   6.609885   0.38797    89.74284   321.2066   265.2442   304.0342  
159.2579999999999 6.523286   6.680108   0.3869324  89.02323   320.9494   265.1151   304.1661  
159.4103999999999 6.523138   6.586191   0.3811035  90.84921   320.9481   264.1235   303.1765  
159.5627999999999 6.567525   6.562711   0.3779297  89.41001   321.1614   263.4488   302.2878  
159.7151999999999 7.078667   7.020559   0.3744202  92.10851   321.2014   265.101    303.9001  
159.8675999999999 6.878235   6.856204   0.3692322  97.28961   321.3117   269.3721   308.0607  
160.0199999999999 6.85647    6.938381   0.3646851  91.65277   321.4364   270.6174   309.1841  
160.1723999999999 6.650814   6.625983   0.3601074  90.80724   321.1308   272.7711   311.6432  
160.3247999999999 6.907827   6.98534    0.3588562  79.50956   320.2909   273.607    313.3138  
160.4771999999999 6.389789   6.750546   0.3630371  72.37356   320.2024   276.1823   315.9807  
160.6295999999999 6.382447   6.539232   0.3617859  63.32461   320.4739   275.8138   315.3376  
160.7819999999999 6.360123   6.515752   0.3642578  64.02621   320.6438   275.614    314.9682  
160.9343999999999 6.382447   6.515752   0.3686829  67.2644    320.7709   275.6776   314.9051  
161.0867999999999 6.404771   6.515752   0.3738708  66.18501   320.4265   276.2865   315.8583  
161.2391999999999 6.382447   6.515752   0.3754272  59.18692   320.6618   276.5373   315.874   
161.3915999999999 6.404771   6.515752   0.3825989  51.91899   320.5131   276.0267   315.5139  
161.5439999999999 6.393603   6.515752   0.3838806  51.0195    320.8137   275.9162   315.099   
161.6963999999999 6.382447   6.515752   0.3825378  49.5803    320.7148   275.9019   315.1898  
161.8487999999999 6.360123   6.515752   0.382019   51.45126   320.729    277.0981   316.3699  
162.0011999999999 6.382447   6.515752   0.3858337  46.07227   320.493    278.0822   317.5915  
162.1535999999999 6.404771   6.515752   0.3835144  47.33156   320.2063   279.0466   318.8399  
162.3059999999999 6.382447   6.515752   0.387085   46.99875   319.9709   279.9482   319.9763  
162.4583999999999 6.39728    6.533563   0.3877869  52.19784   319.801    280.1069   320.3049  
162.6107999999999 6.404771   6.515752   0.3882446  52.36874   319.6536   279.9805   320.3285  
162.7631999999999 6.404771   6.515752   0.3914795  53.78096   319.4862   281.076    321.5916  
162.9155999999999 6.389789   6.515752   0.3888855  50.18297   320.019    281.3646   321.349   
163.0679999999999 6.382447   6.515752   0.3881531  50.01207   319.7593   281.5566   321.801   
163.2203999999999 6.360123   6.521852   0.3870544  50.19197   318.9909   282.9302   323.9394  
163.3727999999999 6.404771   6.515752   0.3819885  54.68945   318.8776   282.7163   323.8401  
163.5251999999999 6.382447   6.515752   0.3749695  52.6386    318.8953   284.1912   325.2965  
163.6775999999999 6.382447   6.515752   0.3684082  52.45869   318.9538   285.9177   326.9652  
163.8299999999999 6.382447   6.515752   0.3597412  48.32101   318.037    287.9876   329.9493  
163.9823999999999 6.382447   6.515752   0.3492737  49.83216   317.7626   288.9563   331.1899  
164.1347999999999 6.382447   6.521852   0.3479004  50.129     317.0684   290.1886   333.1213  
164.2871999999999 6.360123   6.515752   0.3470154  50.8486    316.8694   291.8726   335.0024  
164.4395999999999 6.434288   6.562711   0.3449402  50.3089    316.6879   292.0555   335.3704  
164.5919999999999 6.493546   6.562711   0.3435059  49.96709   316.5155   292.6842   336.1665  
164.7443999999999 6.475154   6.603949   0.3417053  53.38518   316.6489   293.3553   336.7074  
164.8967999999999 6.47177    6.586191   0.3398132  58.60226   316.5094   295.2912   338.78    
165.0491999999999 6.591672   6.660436   0.3367004  66.29296   317.081    296.9116   339.8336  
165.2015999999999 6.79725    6.809244   0.3347473  77.44672   317.3198   295.6549   338.3387  
165.3539999999999 6.871304   6.914902   0.3310547  84.4628    317.5972   295.9781   338.3802  
165.5063999999999 6.782492   6.867943   0.3278809  84.12099   317.7578   296.5203   338.7663  
165.6587999999999 6.649069   6.680108   0.3220825  75.12601   318.256    295.2401   336.9859  
165.8111999999999 6.4565     6.562711   0.3157654  69.783     318.2488   293.6475   335.397   
165.9635999999999 6.449159   6.550972   0.3139648  68.59566   318.4066   293.3282   334.9251  
166.1159999999999 6.449121   6.60967    0.3100281  68.23586   318.2984   292.9882   334.6933  
166.2683999999999 6.419455   6.562711   0.3099365  62.59601   318.2767   293.0211   334.7473  
166.4207999999999 6.47875    6.586191   0.3114319  53.78094   317.2025   292.5385   335.3363  
166.5731999999999 6.382447   6.562711   0.3104858  49.46336   317.4776   293.0659   335.5885  
166.7255999999999 6.382447   6.515752   0.3067627  48.77974   317.4481   294.2687   336.8166  
166.8779999999999 6.360123   6.515752   0.3068848  54.53653   317.6505   295.5096   337.8646  
167.0303999999999 6.382447   6.515752   0.3074341  56.66833   317.228    295.4497   338.221   
167.1827999999999 6.382447   6.539232   0.3075562  52.89044   316.8936   296.3102   339.4164  
167.3351999999999 6.382447   6.539232   0.3054199  51.99095   316.9082   296.3152   339.4056  
167.4875999999999 6.382447   6.515752   0.3078918  52.59361   315.9932   296.6317   340.6425  
167.6399999999999 6.382447   6.515752   0.311676   55.472     315.3909   296.4395   341.0463  
167.7923999999999 6.404771   6.515752   0.3155212  55.18417   314.7207   296.0056   341.2855  
167.9447999999999 6.360123   6.550972   0.3206482  52.78251   314.501    296.1642   341.6602  
168.0971999999999 6.382447   6.515752   0.3254089  53.82593   314.047    295.9602   341.9149  
168.2495999999999 6.404771   6.527492   0.3288269  51.95498   313.9948   296.1156   342.126   
168.4019999999999 6.382447   6.527492   0.3325195  55.01326   313.3834   295.9654   342.5781  
168.5543999999999 6.360123   6.515752   0.3363342  54.14975   313.6398   294.7379   341.0958  
168.7067999999999 6.404771   6.527492   0.3396912  57.38794   313.53     294.1807   340.6515  
168.8591999999999 6.382447   6.521852   0.3420715  60.3203    313.6456   293.9487   340.3063  
169.0115999999999 6.383525   6.515752   0.342041   65.17758   314.1039   293.8342   339.7364  
169.1639999999999 6.360123   6.515752   0.3439026  61.93939   313.9018   292.7911   338.8932  
169.3163999999999 6.34529    6.515752   0.3483887  56.12865   313.5914   291.7662   338.1706  
169.4687999999999 6.382447   6.515752   0.3470764  54.35664   313.1502   290.4593   337.3113  
