~Version
 VERS              .         2.0                           : CWLS LOG ASCII STANDARD - VERSION 2.0
 WRAP              .         NO                            : ONE LINE PER DEPTH STEP
 DLM               .         SPACE                         : DELIMITING CHARACTER(SPACE TAB OR COMMA)
~Well Information
#_______________________________________________________________________________
#
#PARAMETER_NAME    .UNIT     VALUE                         : DESCRIPTION
#_______________________________________________________________________________
STRT               .m        78.9431999999999              : First reference value
STOP               .m        361.7976                      : Last reference value
STEP               .m        0.1524                        : Step increment
NULL               .         -9999                         : Missing value
COMP               .                                       : Company
WELL               .         G                             : Well name
FLD                .                                       : Field
LOC                .                                       : Location
CNTY               .                                       : County
STAT               .                                       : State
CTRY               .                                       : Country
SRVC               .                                       : Service Company
DATE               .                                       : Date
API                .                                       : API number
~Parameter Information Block
#_______________________________________________________________________________
#
#PARAMETER_NAME    .UNIT     VALUE                         : DESCRIPTION
#_______________________________________________________________________________
SET                .         Inclination                   : 
TLFamily_C13       .         Caliper 1                     : 
TLFamily_C24       .         Caliper 2                     : 
TLFamily_DEVI      .         Hole Deviation                : 
TLFamily_GR        .         Gamma Ray                     : 
TLFamily_HAZI      .         Hole Azimuth                  : 
TLFamily_MD        .         Measured Depth                : 
TLFamily_P1AZ      .         Pad A Azimuth                 : 
TLFamily_RB        .         Relative Bearing              : 
~Curve Information
#_______________________________________________________________________________
#
#LOGNAME           .UNIT     LOG_ID                        : DESCRIPTION
#_______________________________________________________________________________
MD                 .m                                      :  
C13                .in                                     : Caliper 1-3 
C24                .in                                     : Caliper 2-4 
DEVI               .deg                                    : Deviation 
GR                 .gAPI                                   : Gamma Ray 
HAZI               .deg                                    : Hole Azimuth 
P1AZ               .deg                                    : Pad 1 Azimuth 
RB                 .deg                                    : Relative Bearing 
~Ascii
# ...
338.6328   6.37518    6.351397   0.1448059  40.11753   80.67252   201.3279   120.6549  
338.7851999999999 6.352818   6.421835   0.1427002  50.52472   80.57639   199.4989   118.9293  
338.9376   6.37518    6.421835   0.1386719  51.96391   80.7811    199.0482   118.2701  
339.0899999999999 6.278765   6.421835   0.1363831  47.6913    81.35468   199.7197   118.3752  
339.2423999999999 6.278728   6.351397   0.1313782  42.47422   80.12564   201.2653   121.1411  
339.3947999999999 6.293561   6.374876   0.1260376  40.39638   80.04889   202.6565   122.6034  
339.5471999999999 6.293561   6.280959   0.1224365  38.5794    79.3078    201.8716   122.5598  
339.6995999999999 6.271124   6.327917   0.1141663  38.34553   79.79581   202.3618   122.5592  
339.8519999999999 6.286405   6.25748    0.1105042  38.80428   77.6994    203.3745   125.6872  
340.0043999999999 6.293561   6.25748    0.1051331  39.88367   76.3266    203.8352   127.5137  
340.1567999999999 6.315997   6.292698   0.09912109 40.22548   77.56891   202.5021   124.9469  
340.3091999999999 6.311521   6.25748    0.0958252  42.92397   76.80521   198.2303   121.4402  
340.4615999999999 6.315997   6.25748    0.08853149 45.26266   77.34204   195.9589   118.6203  
340.6139999999999 6.241458   6.327917   0.08563232 43.72452   77.03967   194.3041   117.2583  
340.7663999999999 6.249098   6.21052    0.08276367 42.46523   79.17294   193.3847   114.2109  
340.9187999999999 6.315997   6.187041   0.07940674 38.50744   79.06946   192.9285   113.8503  
341.0711999999999 6.279346   6.163562   0.07559204 40.04558   80.01614   193.3952   113.3706  
341.2235999999999 6.256291   6.175302   0.07467651 39.14608   83.49258   193.0322   109.5407  
341.3759999999999 6.349713   6.193282   0.07141113 45.62246   84.27341   190.8086   106.5272  
341.5283999999999 6.293561   6.175302   0.07150269 58.09848   85.87967   190.1188   104.2473  
341.6807999999999 6.315997   6.163562   0.07150269 76.62812   85.88205   191.0255   105.1514  
341.8331999999999 6.278728   6.151822   0.07168579 90.28249   86.97073   190.6392   103.6755  
341.9855999999999 6.471334   6.269219   0.07196045 96.58797   88.46277   190.1099   101.6527  
342.1379999999999 6.945394   6.938381   0.07458496 98.93566   90.54684   189.7944   99.23755  
342.2903999999999 6.819052   6.867943   0.078125   101.4722   92.74496   189.8049   97.03882  
342.4427999999999 6.937418   6.856204   0.07867432 97.55943   96.09082   189.6873   93.58646  
342.5951999999999 6.79028    6.938381   0.08221436 96.3631    97.97919   189.6837   91.6853   
342.7475999999999 6.752788   6.809244   0.08123779 95.60067   99.15305   189.9273   90.79742  
342.8999999999999 6.708364   6.633149   0.08517456 96.11338   102.5312   190.1098   87.60272  
343.0523999999999 6.671094   6.680108   0.08639526 89.66784   104.1339   189.421    85.27106  
343.2047999999999 6.700686   6.668368   0.0881958  84.87685   106.6204   187.9678   81.35147  
343.3571999999999 6.693531   6.703588   0.08590698 81.3904    107.5054   185.8069   78.29788  
343.5095999999999 6.730278   6.691848   0.09082031 81.70967   110.1954   184.9126   74.70981  
343.6619999999999 6.767658   6.680108   0.09133911 81.09808   111.3802   184.2876   72.918    
343.8143999999999 6.812046   6.703588   0.08786011 83.34875   111.3378   183.2393   71.90881  
343.9667999999999 6.79725    6.680108   0.09197998 84.00608   113.5442   182.0681   68.52652  
344.1191999999999 6.663902   6.774025   0.09103394 86.24099   116.156    182.0849   65.93228  
344.2715999999999 6.678735   6.762286   0.0930481  85.35754   118.7244   181.5448   62.80276  
344.4239999999999 6.641503   6.809244   0.09274292 88.9071    121.2566   180.1775   58.91452  
344.5763999999999 6.782454   6.891422   0.09255981 90.48468   121.8872   179.5934   57.69043  
344.7287999999999 6.745781   6.856204   0.09255981 91.23666   123.674    179.0797   55.39792  
344.8811999999999 6.819052   6.832724   0.09127808 84.66341   124.0219   178.5023   54.48126  
345.0335999999999 6.782454   6.727067   0.09158325 78.09017   124.5864   178.1672   53.59152  
345.1859999999999 6.612284   6.762286   0.09243774 74.54062   125.1065   177.0828   51.98615  
345.3383999999999 6.271609   6.562711   0.09259033 78.79482   125.2722   179.2584   53.96857  
345.4907999999999 6.323227   6.539232   0.09127808 82.81668   125.0499   176.931    51.87912  
345.6431999999999 6.663939   6.527492   0.09213257 90.94647   124.6725   177.4472   52.77838  
345.7955999999999 6.656783   6.680108   0.09417725 88.92718   125.388    178.4033   53.01639  
345.9479999999999 6.634597   6.685849   0.09521484 89.06686   126.5376   177.8724   51.34909  
346.1003999999999 6.737992   6.727067   0.09646606 81.44833   124.6877   176.7923   52.0957   
346.2527999999999 6.79725    6.738806   0.09606934 83.90641   125.3405   176.3276   50.97321  
346.4051999999999 6.789461   6.727067   0.09869385 85.04919   124.8143   176.1791   51.371    
346.5575999999999 6.774665   6.774025   0.09674072 87.94507   122.2363   178.0767   55.83353  
346.7099999999999 6.746437   6.728174   0.09777832 88.9947    120.2386   180.7308   60.49167  
346.8623999999999 6.804256   6.750546   0.09597778 89.24946   118.4216   181.4852   63.05667  
347.0147999999999 6.767621   6.727067   0.09649658 86.98169   115.5399   181.4938   65.94958  
347.1671999999999 6.819052   6.738806   0.09759521 88.94015   114.6401   181.7734   67.1308   
347.3195999999999 6.604681   6.562711   0.0994873  88.70884   111.4769   180.8007   69.30655  
347.4719999999999 6.523138   6.527492   0.1056519  93.17865   110.8914   179.4097   68.51147  
347.6243999999999 6.352818   6.480534   0.1076355  90.92991   110.2405   177.9227   67.69333  
347.7767999999999 6.419455   6.680108   0.113678   88.77112   107.9572   176.3636   68.41806  
347.9291999999999 6.715482   6.680108   0.1188965  87.43109   107.071    175.702    68.63574  
348.0815999999999 6.716115   6.680108   0.1249695  86.9306    105.2147   176.0443   70.81512  
348.2339999999999 6.752788   6.680108   0.1291809  88.72961   105.1879   176.899    71.71942  
348.3863999999999 6.767584   6.691848   0.1350098  89.9889    102.6567   178.0223   75.35745  
348.5387999999999 6.819052   6.750546   0.1388855  90.16418   101.6381   178.6105   76.97736  
348.6911999999999 6.382484   6.539232   0.1436768  90.80536   100.7132   178.6422   77.92392  
348.8435999999999 6.293561   6.504013   0.1470642  89.13322   99.94629   179.6343   79.68588  
348.9959999999999 6.256814   6.562711   0.1499329  88.69501   101.297    179.5382   78.25128  
349.1483999999999 6.145417   6.421835   0.1531677  87.90622   100.179    180.0213   79.84311  
349.3007999999999 6.152461   6.527492   0.1555786  86.8545    100.3606   180.4616   80.10828  
349.4531999999999 6.19763    6.433575   0.1592407  86.32864   99.57123   180.6809   81.11136  
349.6055999999999 6.271124   6.515752   0.1599426  84.99208   100.3945   179.8514   79.46118  
349.7579999999999 6.382447   6.550972   0.1615601  85.34265   99.45459   180.3204   80.86505  
349.9103999999999 6.404771   6.57445    0.1610413  94.45756   99.92184   181.1601   81.2338   
350.0627999999999 6.360123   6.57445    0.1548767  103.8573   99.85965   181.8955   82.03061  
350.2151999999999 6.373708   6.560163   0.1518555  112.7969   99.95721   181.5213   81.56863  
350.3675999999999 6.360123   6.562711   0.1459656  112.7969   100.8308   180.4334   79.59189  
350.5199999999999 6.360123   6.562711   0.1418152  112.7969   100.1549   179.1567   78.99905  
350.6723999999999 6.374955   6.57445    0.1390076  112.7969   100.0953   178.2325   78.14685  
350.8247999999999 6.39728    6.539232   0.1359253  112.7969   100.8038   177.2333   76.43671  
350.9771999999999 6.382447   6.562711   0.1299133  112.7969   101.0885   175.9885   74.89139  
351.1295999999999 6.360123   6.562711   0.130188   112.7969   100.8811   174.7358   73.84674  
351.2819999999999 6.419567   6.539232   0.1233521  112.7969   102.1165   173.7549   71.64319  
351.4343999999999 6.412076   6.57445    0.1244812  112.7969   100.6522   172.6941   72.04834  
