~Version
 VERS              .         2.0                           : CWLS LOG ASCII STANDARD - VERSION 2.0
 WRAP              .         NO                            : ONE LINE PER DEPTH STEP
 DLM               .         SPACE                         : DELIMITING CHARACTER(SPACE TAB OR COMMA)
~Well Information
#_______________________________________________________________________________
#
#PARAMETER_NAME    .UNIT     VALUE                         : DESCRIPTION
#_______________________________________________________________________________
STRT               .m        78.9431999999999              : First reference value
STOP               .m        361.7976                      : Last reference value
STEP               .m        0.1524                        : Step increment
NULL               .         -9999                         : Missing value
COMP               .                                       : Company
WELL               .         G                             : Well name
FLD                .                                       : Field
LOC                .                                       : Location
CNTY               .                                       : County
STAT               .                                       : State
CTRY               .                                       : Country
SRVC               .                                       : Service Company
DATE               .                                       : Date
API                .                                       : API number
~Parameter Information Block
#_______________________________________________________________________________
#
#PARAMETER_NAME    .UNIT     VALUE                         : DESCRIPTION
#_______________________________________________________________________________
SET                .         Inclination                   : 
TLFamily_C13       .         Caliper 1                     : 
TLFamily_C24       .         Caliper 2                     : 
TLFamily_DEVI      .         Hole Deviation                : 
TLFamily_GR        .         Gamma Ray                     : 
TLFamily_HAZI      .         Hole Azimuth                  : 
TLFamily_MD        .         Measured Depth                : 
TLFamily_P1AZ      .         Pad A Azimuth                 : 
TLFamily_RB        .         Relative Bearing              : 
~Curve Information
#_______________________________________________________________________________
#
#LOGNAME           .UNIT     LOG_ID                        : DESCRIPTION
#_______________________________________________________________________________
MD                 .m                                      :  
C13                .in                                     : Caliper 1-3 
C24                .in                                     : Caliper 2-4 
DEVI               .deg                                    : Deviation 
GR                 .gAPI                                   : Gamma Ray 
HAZI               .deg                                    : Hole Azimuth 
P1AZ               .deg                                    : Pad 1 Azimuth 
RB                 .deg                                    : Relative Bearing 
~Ascii
# ...
260.2991999999999 12.67899   10.20201   0.395874   67.41931   298.9938   321.0389   22.043    
260.4515999999999 9.445998   8.178455   0.3894043  75.40685   299.6151   324.0576   24.44443  
260.6039999999999 7.12298    6.562711   0.3964539  82.03614   298.7188   326.9594   28.24246  
260.7563999999999 6.952214   6.116603   0.3930969  86.06388   297.7263   325.4662   27.74326  
260.9087999999999 6.794248   6.285537   0.3957214  81.49444   297.8547   325.9677   28.11124  
261.0611999999999 7.470066   6.621409   0.3850403  77.89645   296.5526   327.7831   31.2312   
261.2135999999999 8.278688   7.055778   0.3840027  70.41264   296.3504   331.7961   35.44821  
261.3659999999999 8.411962   7.513626   0.3806152  68.56367   295.3638   344.871    49.50357  
261.5183999999999 7.523248   7.466667   0.3869934  72.71035   294.5601   349.3571   54.79431  
261.6707999999999 7.61206    7.407969   0.3790894  72.09869   294.3952   353.0997   58.70892  
261.8231999999999 7.739594   7.220133   0.3829346  73.40796   292.7528   350.6359   57.8786   
261.9755999999999 7.632819   7.654502   0.374115   66.74268   291.7291   349.7794   58.04727  
262.1279999999999 7.884347   8.14757    0.3704224  68.72158   291.7258   353.7199   61.99017  
262.2803999999999 7.849053   7.619283   0.3676758  69.44118   291.1086   351.1752   60.06281  
262.4327999999999 7.902756   7.947994   0.3683472  70.70048   289.9006   351.5081   61.60599  
262.5851999999999 7.759107   8.131856   0.3606262  68.72158   290.3226   350.7897   60.46384  
262.7375999999999 8.204635   8.675855   0.3648376  64.5839    287.9427   348.7753   60.8313   
262.8899999999999 8.106283   8.13583    0.3659973  65.66329   287.16     346.8269   59.66235  
263.0423999999999 7.834258   7.73668    0.361145   66.74269   286.2759   341.2188   54.94363  
263.1947999999999 7.220438   7.067518   0.3660278  69.62109   285.4841   340.8289   55.34467  
263.3471999999999 6.464434   6.673506   0.366394   71.59998   285.3633   342.2282   56.86456  
263.4995999999999 7.211941   7.314051   0.3667297  69.44118   285.2662   343.354    58.08731  
263.6519999999999 8.051088   8.253226   0.3772278  69.80097   283.2628   347.3136   64.0459   
263.8043999999999 9.035095   7.929246   0.381012   68.18188   282.346    347.3453   64.99927  
263.9567999999999 10.38241   8.48802    0.3892822  67.10249   281.6653   351.0411   69.37299  
264.1091999999999 9.511879   8.241487   0.3891602  62.06531   280.1756   354.8091   74.63394  
264.2615999999999 7.398435   7.302312   0.3945007  62.95581   280.6523   357.1733   76.51779  
264.4139999999999 6.878235   6.961861   0.401123   69.61208   280.1095   1.171021   81.06277  
264.5663999999999 6.826879   6.844464   0.4070435  73.74977   280.2524   2.351715   82.09619  
264.7187999999999 6.922623   6.997079   0.4058533  74.65826   279.6286   3.610352   83.98297  
264.8711999999999 7.233334   7.102736   0.4118958  77.89645   279.6939   4.604462   84.90549  
265.0235999999999 6.86344    6.738806   0.4139404  81.49444   279.8881   7.131927   87.24329  
265.1759999999999 6.545461   6.633149   0.418396   80.05524   281.2856   7.773132   86.48615  
265.3283999999999 6.486167   6.527492   0.4185229  81.5604    281.1228   7.864892   86.74409  
265.4807999999999 6.435216   6.549705   0.4186401  82.95162   280.9724   7.949707   86.98251  
265.6331999999999 6.879279   6.9736     0.4230652  82.95162   282.0712   4.400177   82.3259   
265.7855999999999 7.389788   7.443188   0.4232178  87.98881   282.5892   2.916595   80.32974  
265.9379999999999 7.573636   7.290572   0.4224243  87.61102   282.5286   1.100342   78.56934  
266.0903999999999 7.666205   7.593344   0.4241638  91.92861   283.7447   355.5168   71.77582  
266.2427999999999 7.049113   7.431448   0.4306335  94.0874    284.957    351.64     66.68604  
266.3951999999999 7.396087   7.137956   0.4261475  94.29428   285.4782   350.7975   65.32065  
266.5475999999999 7.676923   7.680198   0.4263306  91.05609   286.3208   352.0313   65.7124   
266.6999999999999 8.328218   8.241487   0.4288025  84.75961   287.4915   352.3685   64.87543  
266.8523999999999 7.928733   7.689721   0.4338989  85.09242   287.4354   351.5063   64.06714  
267.0047999999999 7.625134   7.407969   0.4362793  85.27232   287.68     351.144    63.46344  
267.1571999999999 7.086401   7.161435   0.4367065  83.29342   287.7325   350.9671   63.2348   
267.3095999999999 7.049113   7.196654   0.4356689  84.01302   287.3499   350.3948   63.04318  
267.4619999999999 7.093501   6.938381   0.4347229  87.9708    286.9863   349.8508   62.86108  
267.6143999999999 7.262925   7.314052   0.4375     83.83312   287.5598   346.8296   59.26987  
267.7667999999999 7.330605   7.008819   0.4382019  83.55643   287.2193   346.4368   59.21613  
267.9191999999999 7.269819   7.028043   0.4354553  83.29343   286.5071   347.4927   60.98425  
268.0715999999999 7.085376   6.997079   0.4369812  78.25625   285.601    348.9662   63.36267  
268.2239999999999 7.537932   7.173175   0.4398804  87.40414   285.2206   351.4539   66.23093  
268.3763999999999 6.844726   6.875005   0.4433594  84.88554   285.0447   351.7305   66.6853   
268.5287999999999 6.879232   6.912214   0.4494019  85.06544   284.017    352.2513   68.23145  
268.6811999999999 7.19722    7.196654   0.4473572  82.39394   285.3423   352.2426   66.90079  
268.8335999999999 7.137999   7.055778   0.4487915  91.56881   284.8873   351.9059   67.01767  
268.9859999999999 7.449083   7.38449    0.4464111  93.90749   284.6659   352.1773   67.5083   
269.1383999999999 7.449083   7.37275    0.4512939  93.90749   284.562    354.8871   70.32541  
269.2907999999999 7.529249   7.337531   0.4558105  88.82534   284.6254   358.0789   71.85138  
269.4431999999999 7.493507   7.38449    0.4507446  89.00524   284.3833   0.1475525  75.76135  
269.5955999999999 7.626856   7.38449    0.4544067  85.09243   284.054    0.4336243  76.37857  
269.7479999999999 7.66241    7.36101    0.4614563  84.91253   284.0729   359.8585   75.78522  
269.9003999999999 7.322108   7.220133   0.4695129  87.07132   284.6482   357.2555   72.61047  
270.0527999999999 7.03428    7.36101    0.4786072  90.30951   284.7035   354.187    69.47992  
270.2051999999999 7.493545   7.337531   0.4820251  90.42645   284.9369   349.8611   64.92136  
270.3575999999999 7.588431   7.443188   0.4872131  88.98724   284.6414   349.5103   64.86469  
270.5099999999999 7.226923   7.454927   0.4939575  88.80734   285.0804   349.0887   64.00778  
270.6623999999999 7.010593   7.143599   0.5038452  88.87031   286.5415   342.3756   55.83536  
270.8147999999999 7.212818   7.090997   0.5025448  87.81624   287.066    339.6026   52.5379   
270.9671999999999 6.879817   6.913373   0.5014038  86.89142   287.5261   337.1696   49.64478  
271.1195999999999 6.915765   6.844464   0.5137024  89.36504   286.4739   336.1487   49.67114  
271.2719999999999 7.078742   6.961861   0.5140991  91.70373   287.1129   336.1055   48.99274  
271.4243999999999 6.808357   7.196654   0.5167847  90.26453   287.5817   336.5354   48.95105  
271.5767999999999 6.793917   6.87464    0.5189819  84.37283   288.1763   336.1231   47.94754  
271.7291999999999 6.907827   6.832724   0.520752   80.07323   288.3512   334.2984   45.94708  
271.8815999999999 6.374955   6.527492   0.5213928  83.13152   289.1993   334.826    45.62585  
272.0339999999999 6.401683   6.460921   0.5269775  82.77173   289.6724   333.8195   44.14377  
272.1863999999999 6.975763   7.002893   0.5279236  84.37283   290.5315   333.3973   42.86719  
272.3387999999999 6.759869   6.668368   0.5266113  84.37283   290.7126   333.5558   42.84265  
272.4911999999999 6.686449   6.785765   0.5252686  89.41001   290.8985   333.7183   42.8175   
272.6435999999999 6.47137    6.562711   0.5229797  86.95438   290.7661   333.2185   42.45352  
272.7959999999999 6.352818   6.404936   0.5215149  85.71134   290.5856   332.1923   41.6051   
272.9483999999999 6.293561   6.327917   0.5234375  84.43579   291.306    332.0131   40.70316  
273.1007999999999 6.293561   6.327917   0.5258484  72.92223   291.4202   331.7249   40.30316  
