~Version
 VERS              .         2.0                           : CWLS LOG ASCII STANDARD - VERSION 2.0
 WRAP              .         NO                            : ONE LINE PER DEPTH STEP
 DLM               .         SPACE                         : DELIMITING CHARACTER(SPACE TAB OR COMMA)
~Well Information
#_______________________________________________________________________________
#
#PARAMETER_NAME    .UNIT     VALUE                         : DESCRIPTION
#_______________________________________________________________________________
STRT               .m        78.9431999999999              : First reference value
STOP               .m        361.7976                      : Last reference value
STEP               .m        0.1524                        : Step increment
NULL               .         -9999                         : Missing value
COMP               .                                       : Company
WELL               .         G                             : Well name
FLD                .                                       : Field
LOC                .                                       : Location
CNTY               .                                       : County
STAT               .                                       : State
CTRY               .                                       : Country
SRVC               .                                       : Service Company
DATE               .                                       : Date
API                .                                       : API number
~Parameter Information Block
#_______________________________________________________________________________
#
#PARAMETER_NAME    .UNIT     VALUE                         : DESCRIPTION
#_______________________________________________________________________________
SET                .         Inclination                   : 
TLFamily_C13       .         Caliper 1                     : 
TLFamily_C24       .         Caliper 2                     : 
TLFamily_DEVI      .         Hole Deviation                : 
TLFamily_GR        .         Gamma Ray                     : 
TLFamily_HAZI      .         Hole Azimuth                  : 
TLFamily_MD        .         Measured Depth                : 
TLFamily_P1AZ      .         Pad A Azimuth                 : 
TLFamily_RB        .         Relative Bearing              : 
~Curve Information
#_______________________________________________________________________________
#
#LOGNAME           .UNIT     LOG_ID                        : DESCRIPTION
#_______________________________________________________________________________
MD                 .m                                      :  
C13                .in                                     : Caliper 1-3 
C24                .in                                     : Caliper 2-4 
DEVI               .deg                                    : Deviation 
GR                 .gAPI                                   : Gamma Ray 
HAZI               .deg                                    : Hole Azimuth 
P1AZ               .deg                                    : Pad 1 Azimuth 
RB                 .deg                                    : Relative Bearing 
~Ascii
# ...
208.4831999999999 6.404771   6.457054   0.3146362  58.44032   291.2256   316.2145   24.98633  
208.6355999999999 6.404771   6.468793   0.3174744  57.35193   290.6553   317.1213   26.46698  
208.7879999999999 6.404771   6.468793   0.3209534  58.21544   290.171    317.2085   27.03455  
208.9403999999999 6.360123   6.421835   0.3239746  57.17203   289.4702   317.6244   28.15915  
209.0927999999999 6.404771   6.468794   0.3265686  54.67143   289.3817   318.4898   29.10416  
209.2451999999999 6.382447   6.515752   0.3261414  55.35505   288.7732   319.963    31.19293  
209.3975999999999 6.404622   6.515752   0.3273315  51.93696   288.3489   320.7786   32.42874  
209.5499999999999 6.412076   6.504013   0.3262939  51.91897   288.3607   324.9196   36.55753  
209.7023999999999 6.471334   6.586191   0.3269043  51.74807   288.2153   327.2084   38.99734  
209.8547999999999 6.441704   6.515752   0.3233337  51.74807   289.0047   327.1957   38.19293  
210.0071999999999 6.34529    6.562711   0.3182373  52.27877   289.6297   328.7416   39.11462  
210.1595999999999 6.360384   6.515752   0.3151855  53.96083   290.0846   330.5146   40.43301  
210.3119999999999 6.37518    6.539232   0.3086548  55.00425   290.6888   331.842    41.14777  
210.4643999999999 6.363594   6.520253   0.3009033  56.09264   290.8353   333.3741   42.53937  
210.6167999999999 6.404771   6.492273   0.2928162  58.25143   291.5445   333.706    42.15646  
210.7691999999999 6.360123   6.492273   0.2877502  58.25143   291.3732   334.408    43.03708  
210.9215999999999 6.360123   6.515752   0.2801819  58.07153   290.9254   334.2404   43.31638  
211.0739999999999 6.330457   6.480534   0.2727356  57.30696   290.7756   334.1247   43.3429   
211.2263999999999 6.352818   6.457054   0.2671509  56.62334   290.3032   334.5428   44.24265  
211.3787999999999 6.337985   6.515752   0.2606812  56.22757   289.7916   335.446    45.64908  
211.5311999999999 6.337985   6.504013   0.2549133  52.85445   289.0954   336.7073   47.61884  
211.6835999999999 6.337985   6.515752   0.2516174  53.03435   288.3696   335.9782   47.61057  
211.8359999999999 6.352818   6.445314   0.2502747  53.96983   287.7952   336.2285   48.43353  
211.9883999999999 6.352818   6.457054   0.2493286  53.25023   286.8883   335.9234   49.03442  
212.1407999999999 6.37518    6.445314   0.2474976  51.81104   286.4351   335.8048   49.37122  
212.2931999999999 6.37518    6.468793   0.2487488  50.53375   286.277    336.1006   49.82571  
212.4455999999999 6.37518    6.480534   0.2507324  48.55486   285.197    336.8008   51.60388  
212.5979999999999 6.330457   6.492273   0.254303   50.53375   284.46     336.2669   51.80807  
212.7503999999999 6.345588   6.515752   0.2603149  55.66088   283.8698   337.9867   54.11899  
212.9027999999999 6.323189   6.515752   0.2672424  60.87796   283.6725   339.8704   56.20001  
213.0551999999999 6.30079    6.515752   0.2733765  58.44932   283.4113   340.9547   57.54269  
213.2075999999999 6.352818   6.492273   0.2807922  49.74219   283.1392   340.3135   57.16916  
213.3599999999999 6.30079    6.457054   0.2871094  47.0437    283.6888   339.7454   56.05527  
213.5123999999999 6.337985   6.468793   0.2951355  52.17083   284.1952   339.0496   54.85101  
213.6647999999999 6.352818   6.468793   0.3033142  59.3668    284.4565   338.413    53.95621  
213.8171999999999 6.352818   6.468793   0.3092041  60.52715   284.736    338.0251   53.28995  
213.9695999999999 6.37518    6.468793   0.3158264  57.10907   285.1474   337.8871   52.73816  
214.1219999999999 6.352818   6.457054   0.3217163  54.59047   285.7943   337.6511   51.85461  
214.2743999999999 6.334248   6.486395   0.3254089  57.83766   286.4948   337.495    50.99722  
214.4267999999999 6.37518    6.504013   0.3279724  63.23463   287.2331   337.5614   50.33276  
214.5791999999999 6.330457   6.457054   0.3291626  65.89715   287.9749   337.0186   49.04318  
214.7315999999999 6.315623   6.445314   0.3287354  66.34689   288.3929   335.991    47.59305  
214.8839999999999 6.352818   6.421835   0.3267822  62.38911   288.8458   334.7874   45.93759  
215.0363999999999 6.404771   6.468794   0.3244324  63.75634   289.2949   334.0185   44.72208  
215.1887999999999 6.352818   6.504013   0.3205566  62.49704   290.0185   333.6432   43.62378  
215.3411999999999 6.352818   6.521852   0.3153687  63.03674   290.4933   332.6245   42.13309  
215.4935999999999 6.37518    6.539232   0.3109741  62.06529   291.1447   331.2708   40.13058  
215.6459999999999 6.323189   6.515752   0.3072205  60.0864    291.6228   330.0084   38.38419  
215.7983999999999 6.271124   6.457054   0.3027344  59.007     292.3173   328.5399   36.22488  
215.9507999999999 6.37518    6.457054   0.2980652  57.07308   292.8982   327.6015   34.70398  
216.1031999999999 6.360123   6.492273   0.2928467  60.13137   293.3033   324.5245   31.21655  
216.2555999999999 6.360123   6.468793   0.2889099  63.67538   293.8522   325.1577   31.31006  
216.4079999999999 6.404771   6.515752   0.2878723  65.42941   294.7033   325.8705   31.17133  
216.5603999999999 6.30079    6.468794   0.2836304  61.05785   295.1271   328.7169   33.59164  
216.7127999999999 6.323189   6.515752   0.2829285  60.75203   295.4534   329.2769   33.82083  
216.8651999999999 6.345588   6.515752   0.2783813  56.79424   295.5796   328.0303   32.44516  
217.0175999999999 6.345588   6.515752   0.2749939  60.38324   295.0712   327.8577   32.78055  
217.1699999999999 6.323189   6.445314   0.2736206  62.2272    294.7216   328.6088   33.88718  
217.3223999999999 6.323189   6.515752   0.2751465  65.28549   294.2842   329.3053   35.01736  
217.4747999999999 6.323189   6.445314   0.2774048  65.7982    293.7526   329.5931   35.83606  
217.6271999999999 6.352818   6.492273   0.2781067  66.29293   293.8814   331.0806   37.19754  
217.7795999999999 6.338022   6.468793   0.2810059  63.55846   293.106    333.0058   39.90283  
217.9319999999999 6.337985   6.480534   0.2842407  62.74891   293.0829   334.3642   41.27377  
218.0843999999999 6.352818   6.515752   0.2881775  60.71605   292.5155   335.9825   43.46796  
218.2367999999999 6.382447   6.468793   0.2923889  67.2284    292.5784   337.546    44.96841  
218.3891999999999 6.404771   6.504013   0.2975159  67.5882    292.5229   336.7656   44.24652  
218.5415999999999 6.404771   6.515752   0.3003845  67.93001   292.5246   335.5572   43.02817  
218.6939999999999 6.352818   6.515752   0.3035889  66.67072   293.0253   333.811    40.78085  
218.8463999999999 6.352818   6.468794   0.3060608  65.41142   293.6008   331.5167   37.91891  
218.9987999999999 6.352818   6.515752   0.3075256  64.72781   293.6017   330.8334   37.2312   
219.1511999999999 6.37518    6.515752   0.3096924  62.74891   293.9807   330.5659   36.58032  
219.3035999999999 6.323189   6.515752   0.3102417  61.66951   294.1444   329.6442   35.50006  
219.4559999999999 6.305834   6.515752   0.3137512  59.90649   294.5951   328.307    33.70682  
219.6083999999999 6.382447   6.539232   0.3161926  59.5377    295.3672   326.4808   31.11594  
219.7607999999999 6.382447   6.515752   0.3191223  62.23619   296.077    325.3403   29.26413  
219.9131999999999 6.382447   6.550972   0.318573   61.77745   296.8116   324.7139   27.89896  
220.0655999999999 6.360123   6.515752   0.318634   62.14624   297.5438   324.8563   27.31094  
220.2179999999999 6.382447   6.445314   0.3194885  60.69806   297.633    326.2007   28.56891  
220.3703999999999 6.404771   6.468793   0.3179321  60.01443   298.2509   328.0938   29.83865  
220.5227999999999 6.34529    6.515752   0.3141479  61.45363   298.6296   328.536    29.9082   
220.6751999999999 6.404771   6.521852   0.3080139  62.36212   299.1731   327.2337   28.06229  
220.8275999999999 6.352818   6.480534   0.3016968  62.70393   299.4291   325.0587   25.63306  
220.9799999999999 6.323189   6.504013   0.2937622  59.46574   299.486    324.396    24.9071   
221.1323999999999 6.308393   6.480534   0.2877197  59.24086   299.5723   323.7188   24.15085  
221.2847999999999 6.345588   6.457054   0.2810974  62.91981   299.1617   322.8135   23.65775  
