~Version
 VERS              .         2.0                           : CWLS LOG ASCII STANDARD - VERSION 2.0
 WRAP              .         NO                            : ONE LINE PER DEPTH STEP
 DLM               .         SPACE                         : DELIMITING CHARACTER(SPACE TAB OR COMMA)
~Well Information
#_______________________________________________________________________________
#
#PARAMETER_NAME    .UNIT     VALUE                         : DESCRIPTION
#_______________________________________________________________________________
STRT               .m        78.9431999999999              : First reference value
STOP               .m        361.7976                      : Last reference value
STEP               .m        0.1524                        : Step increment
NULL               .         -9999                         : Missing value
COMP               .                                       : Company
WELL               .         G                             : Well name
FLD                .                                       : Field
LOC                .                                       : Location
CNTY               .                                       : County
STAT               .                                       : State
CTRY               .                                       : Country
SRVC               .                                       : Service Company
DATE               .                                       : Date
API                .                                       : API number
~Parameter Information Block
#_______________________________________________________________________________
#
#PARAMETER_NAME    .UNIT     VALUE                         : DESCRIPTION
#_______________________________________________________________________________
SET                .         Inclination                   : 
TLFamily_C13       .         Caliper 1                     : 
TLFamily_C24       .         Caliper 2                     : 
TLFamily_DEVI      .         Hole Deviation                : 
TLFamily_GR        .         Gamma Ray                     : 
TLFamily_HAZI      .         Hole Azimuth                  : 
TLFamily_MD        .         Measured Depth                : 
TLFamily_P1AZ      .         Pad A Azimuth                 : 
TLFamily_RB        .         Relative Bearing              : 
~Curve Information
#_______________________________________________________________________________
#
#LOGNAME           .UNIT     LOG_ID                        : DESCRIPTION
#_______________________________________________________________________________
MD                 .m                                      :  
C13                .in                                     : Caliper 1-3 
C24                .in                                     : Caliper 2-4 
DEVI               .deg                                    : Deviation 
GR                 .gAPI                                   : Gamma Ray 
HAZI               .deg                                    : Hole Azimuth 
P1AZ               .deg                                    : Pad 1 Azimuth 
RB                 .deg                                    : Relative Bearing 
~Ascii
78.94319999999991 7.453555   7.233635   0.6859741  110.2884   326.4578   246.1404   279.6827  
79.09559999999991 7.437177   7.228116   0.686554   98.23511   326.3908   246.0117   279.6209  
79.24799999999991 7.336857   7.217966   0.6873779  77.18688   326.297    245.8314   279.5342  
79.40039999999991 7.137999   7.231873   0.6882019  56.67834   326.2032   245.651    279.4476  
79.55279999999991 7.042064   7.158879   0.6890259  44.26529   326.1094   245.4706   279.361   
79.70519999999991 6.937418   7.079257   0.6898499  45.1348    326.0157   245.2903   279.2743  
79.85759999999991 6.794916   6.959673   0.6906738  50.41385   325.9218   245.1099   279.1877  
80.00999999999991 6.666143   6.84191    0.6914063  55.60095   325.841    244.9544   279.113   
80.16239999999991 6.626455   6.738268   0.6911621  60.30832   325.7903   245.5092   279.7188  
80.31479999999991 6.597451   6.665111   0.690918   62.75495   325.7458   245.997    280.2514  
80.46719999999991 6.597451   6.674705   0.6907043  66.74271   325.7013   246.4848   280.7841  
80.61959999999991 6.637912   6.684546   0.6904907  66.02312   325.6568   246.9727   281.3168  
80.77199999999991 6.740142   6.695761   0.6902771  59.24691   325.6122   247.4605   281.8495  
80.92439999999991 6.784275   6.727595   0.690033   57.80771   325.5677   247.9482   282.382   
81.07679999999991 6.848644   6.774025   0.6898804  63.2047    325.5369   248.2857   282.7504  
81.22919999999991 6.911998   6.832673   0.6882324  71.37012   325.3681   249.0673   283.701   
81.38159999999991 6.993189   6.910288   0.6869507  65.43345   325.239    249.6652   284.4281  
81.53399999999991 7.082011   7.014135   0.6856689  59.49678   325.11     250.2631   285.1554  
81.68639999999991 7.137962   7.155077   0.6843872  58.47144   324.9809   250.8609   285.8825  
81.83879999999991 7.202262   7.272726   0.6832581  57.40795   324.8643   251.4012   286.5394  
81.99119999999991 7.15114    7.294464   0.6830444  62.98483   324.8125   251.3931   286.5829  
82.14359999999991 7.1096     7.321588   0.6828613  64.06422   324.7653   251.3858   286.6226  
82.29599999999991 7.006137   7.296421   0.6826782  62.24524   324.7181   251.3785   286.6623  
82.44839999999991 6.812046   6.861872   0.6655884  58.10756   324.6932   246.2107   289.2577  
82.60079999999991 6.938611   7.113498   0.6617432  58.51733   322.4868   244.0124   281.5269  
82.75319999999991 6.907827   7.055778   0.6592712  58.87712   322.2889   240.1727   277.8868  
82.90559999999991 6.619477   6.774025   0.6565552  57.43793   322.6276   237.8333   275.2053  
83.05799999999991 6.745073   7.079257   0.653595   54.86937   321.7073   234.9479   273.2409  
83.21039999999991 6.983109   7.290572   0.6506348  59.17696   321.6659   229.4902   267.8276  
83.36279999999991 6.741841   6.965738   0.6313171  67.81213   321.0327   237.4695   276.4379  
83.51519999999991 6.723159   6.972968   0.6268005  77.1669    320.8426   239.5416   278.7007  
83.66759999999991 7.499657   7.272272   0.617218   86.35177   320.1639   240.929    280.7664  
83.81999999999991 7.546765   7.466667   0.6078796  90.30955   319.5954   242.0965   282.5004  
83.97239999999991 7.635763   7.537106   0.5991821  93.39783   319.2383   241.9431   282.7042  
84.12479999999991 7.493545   7.642762   0.5936508  90.25455   318.8912   241.5104   282.6203  
84.27719999999991 7.3899     7.548845   0.5881653  87.13733   318.5469   241.0813   281.2382  
84.42959999999991 7.487433   7.642762   0.5743049  89.4016    317.4038   238.9496   281.5464  
84.58199999999991 7.45527    7.407969   0.5714111  89.47602   316.9967   238.8449   281.8503  
84.73439999999991 7.389863   7.239297   0.5653076  91.77874   316.3782   239.9842   283.6068  
84.88679999999991 7.561597   7.454927   0.547821   82.24406   314.8525   235.8561   281.0029  
85.03919999999991 7.493545   7.290572   0.5426941  81.52447   314.3472   235.3122   280.9647  
85.19159999999991 7.692002   7.38449    0.537262   83.50336   313.5941   234.3512   280.757   
85.34399999999991 7.758957   7.23306    0.5300293  91.289     312.8835   236.7716   283.8919  
85.49639999999991 7.546765   7.302311   0.5220032  96.88387   313.0856   237.2878   284.2048  
85.64879999999991 7.449121   7.20192    0.5116882  101.2514   312.4133   237.4256   285.015   
85.80119999999991 7.123166   7.231873   0.5112414  99.45627   312.343    237.2557   284.9137  
85.95359999999991 6.923778   7.51167    0.5107727  97.57349   312.2692   237.0775   284.8074  
86.10599999999991 7.150306   7.290572   0.5067444  94.6771    311.781    235.2424   283.4638  
86.25839999999991 7.123166   7.243613   0.5021973  93.18793   311.518    233.1764   281.6591  
86.41079999999991 7.012775   7.213631   0.4941834  95.13935   311.4299   231.6611   280.2322  
86.56319999999991 6.932871   7.079257   0.4934692  96.99581   311.4015   231.5437   280.1439  
86.71559999999991 6.826879   7.002575   0.4917603  94.29733   311.3342   231.2656   279.9344  
86.86799999999991 6.923778   7.032299   0.4825745  99.12463   311.6221   229.7194   278.0961  
87.02039999999991 6.945394   7.149696   0.4754639  96.10632   311.4613   227.5609   276.0992  
87.17279999999991 6.937418   7.044038   0.4638672  101.1435   311.8653   224.8317   273.1284  
87.32519999999991 6.879279   7.090077   0.4660603  98.48444   311.6517   225.0511   273.4779  
87.47759999999991 6.915765   7.198695   0.4681702  95.92641   311.4463   225.2621   273.814   
87.62999999999991 6.86344    7.008819   0.4508362  94.08744   311.4544   222.3616   270.9054  
87.78239999999991 6.829329   6.929754   0.447052   98.40503   310.8911   219.9324   269.0406  
87.93479999999991 6.856507   6.950121   0.4460449  98.76482   310.4726   218.1942   267.7239  
88.08719999999991 6.819052   6.943964   0.4448242  102.3628   310.0052   216.0289   266.0259  
88.23959999999991 6.805114   6.961861   0.4383545  101.8231   309.7488   217.5284   267.7802  
88.39199999999991 6.742863   6.933545   0.4377136  101.5033   309.4758   218.7883   269.3123  
88.54439999999991 6.775447   6.914902   0.4371338  91.78873   309.2315   219.9163   270.684   
88.69679999999991 6.826879   6.938381   0.4326172  88.73045   308.782    220.5004   271.7206  
88.84919999999991 6.805114   6.738806   0.4330444  86.64161   308.9938   220.1769   271.1844  
89.00159999999991 6.767658   7.032299   0.4335022  94.73708   309.205    219.8543   270.6498  
89.15399999999991 6.641503   6.774025   0.4314575  95.77151   309.1808   220.3411   271.1616  
89.30639999999991 6.826879   6.938381   0.4302063  97.76855   309.166    220.64     271.4757  
89.45879999999991 6.708364   6.774025   0.4293823  99.75928   309.3405   221.2726   271.9293  
89.61119999999991 6.79725    6.867943   0.4265747  96.70099   309.3777   221.4452   272.0661  
89.76359999999991 6.716115   6.938381   0.4233398  100.5239   309.6833   220.3392   270.6547  
89.91599999999991 6.723159   6.914902   0.4187317  97.86535   310.3248   220.6318   270.3074  
90.06839999999991 6.907827   6.797504   0.4120789  99.48444   310.643    221.1001   270.4606  
90.22079999999991 6.877601   6.953625   0.41745    100.204    310.013    224.4094   274.3989  
90.37319999999991 6.7815     6.788397   0.4163208  97.86535   311.0007   224.0774   273.0759  
90.52559999999991 6.800939   6.791584   0.4150696  96.78595   311.0151   224.2706   273.2547  
90.67799999999991 6.728965   6.729477   0.4157104  88.87038   310.8632   225.4733   274.612   
90.83039999999991 6.759869   6.785593   0.4150696  93.4878    310.9925   225.281    274.2908  
90.98279999999991 6.718521   6.805996   0.4145203  93.92856   311.1034   225.116    274.0152  
91.13519999999991 6.703416   6.774025   0.4142151  100.245    311.4875   225.2609   273.7738  
91.28759999999991 6.71427    6.786565   0.4205627  100.1881   312.4209   226.4928   274.0701  
91.43999999999991 6.72313    6.727067   0.4238586  97.76841   312.649    225.9857   273.3364  
91.59239999999991 6.789461   6.797504   0.4261169  93.21096   312.8065   225.6354   272.8296  
91.74479999999991 6.752825   6.727067   0.4216614  92.96809   312.7448   225.1634   272.4197  
