~Version
 VERS              .         2.0                           : CWLS LOG ASCII STANDARD - VERSION 2.0
 WRAP              .         NO                            : ONE LINE PER DEPTH STEP
 DLM               .         SPACE                         : DELIMITING CHARACTER(SPACE TAB OR COMMA)
~Well Information
#_______________________________________________________________________________
#
#PARAMETER_NAME    .UNIT     VALUE                         : DESCRIPTION
#_______________________________________________________________________________
STRT               .m        78.9431999999999              : First reference value
STOP               .m        361.7976                      : Last reference value
STEP               .m        0.1524                        : Step increment
NULL               .         -9999                         : Missing value
COMP               .                                       : Company
WELL               .         G                             : Well name
FLD                .                                       : Field
LOC                .                                       : Location
CNTY               .                                       : County
STAT               .                                       : State
CTRY               .                                       : Country
SRVC               .                                       : Service Company
DATE               .                                       : Date
API                .                                       : API number
~Parameter Information Block
#_______________________________________________________________________________
#
#PARAMETER_NAME    .UNIT     VALUE                         : DESCRIPTION
#_______________________________________________________________________________
SET                .         Inclination                   : 
TLFamily_C13       .         Caliper 1                     : 
TLFamily_C24       .         Caliper 2                     : 
TLFamily_DEVI      .         Hole Deviation                : 
TLFamily_GR        .         Gamma Ray                     : 
TLFamily_HAZI      .         Hole Azimuth                  : 
TLFamily_MD        .         Measured Depth                : 
TLFamily_P1AZ      .         Pad A Azimuth                 : 
TLFamily_RB        .         Relative Bearing              : 
~Curve Information
#_______________________________________________________________________________
#
#LOGNAME           .UNIT     LOG_ID                        : DESCRIPTION
#_______________________________________________________________________________
MD                 .m                                      :  
C13                .in                                     : Caliper 1-3 
C24                .in                                     : Caliper 2-4 
DEVI               .deg                                    : Deviation 
GR                 .gAPI                                   : Gamma Ray 
HAZI               .deg                                    : Hole Azimuth 
P1AZ               .deg                                    : Pad 1 Azimuth 
RB                 .deg                                    : Relative Bearing 
~Ascii
# ...
91.89719999999991 6.804256   6.774025   0.4278259  99.98416   312.3175   223.895    271.5778  
92.04959999999991 6.708364   6.680108   0.4331055  104.5036   312.4011   222.4276   270.0257  
92.20199999999991 6.730278   6.774025   0.4447937  104.2338   312.2232   220.7326   268.5134  
92.35439999999991 6.716115   6.938381   0.4472961  98.6569    311.9885   220.907    268.9178  
92.50679999999991 6.656783   6.891423   0.4516907  97.5955    311.8244   220.0053   268.1781  
92.65919999999991 6.716115   6.885323   0.4533081  93.36787   312.1948   219.668    267.4751  
92.81159999999991 6.789461   6.867943   0.4584351  92.08858   312.1919   219.4807   267.2886  
92.96399999999991 6.789461   6.938381   0.4568481  91.54889   311.9055   218.7675   266.8633  
93.11639999999991 6.826879   6.914902   0.4588013  97.12577   311.9813   221.188    269.2036  
93.26879999999991 6.819052   6.844464   0.4642944  102.12     312.3916   220.6416   268.2459  
93.42119999999991 6.789461   6.774025   0.4673462  98.06226   312.485    219.0026   266.5155  
93.57359999999991 6.730948   6.774025   0.4682007  93.62774   312.7321   217.2132   264.4806  
93.7259999999999 6.745781   6.879683   0.469696   98.76486   312.7218   216.975    264.2503  
93.8783999999999 6.915765   6.938381   0.4642944  103.802    312.5773   220.1222   267.5436  
94.0307999999999 6.708364   6.774025   0.4710999  101.4633   312.5965   219.3669   266.7678  
94.1831999999999 6.715482   6.750546   0.4661865  97.68546   313.4251   219.4467   266.0225  
94.3355999999999 6.730278   6.779809   0.4654541  97.68546   313.219    220.1736   266.9547  
94.4879999999999 6.723197   6.774025   0.4629211  96.42617   313.5808   220.2476   266.6657  
94.6403999999999 6.878235   6.997079   0.4621664  97.04903   313.6821   220.6625   266.9799  
94.7927999999999 6.833848   6.926641   0.4613953  97.68546   313.7856   221.0863   267.3009  
94.94519999999991 6.693567   6.785765   0.4581909  99.84425   314.2285   221.2036   266.9728  
95.09759999999991 6.678735   6.785765   0.4573975  105.7809   314.2555   220.5849   266.3278  
95.2499999999999 6.627117   6.814971   0.4564819  109.239    314.2269   220.2532   266.0269  
95.4023999999999 6.663902   6.826653   0.4535828  109.7607   314.2842   221.2351   266.9517  
95.5547999999999 6.597451   6.750546   0.4510803  109.0411   314.6742   222.273    267.5979  
95.7071999999999 6.619477   6.727067   0.4500732  108.0916   314.8653   222.7444   267.8824  
95.8595999999999 6.619477   6.680108   0.4473572  104.1608   315.0049   222.5898   267.5865  
96.0119999999999 6.619477   6.680108   0.4454041  103.5112   315.5486   222.4058   266.8572  
96.1643999999999 6.641503   6.680108   0.4476318  105.3202   315.7593   221.7638   266.0031  
96.3167999999999 6.619477   6.709428   0.4466858  109.0891   316.1605   222.2489   266.0898  
96.4691999999999 6.589849   6.691905   0.4479065  109.7387   316.2854   222.2393   265.9525  
96.6215999999999 6.589849   6.691848   0.4442749  111.5377   316.5708   221.8664   265.2947  
96.7739999999999 6.611911   6.703588   0.4393005  107.0402   316.9046   221.3415   264.4352  
96.9263999999999 6.552952   6.668368   0.4407654  102.5427   316.9965   220.1239   263.1304  
97.0787999999999 6.641503   6.680108   0.4383545  100.0241   317.3879   219.9164   262.5263  
97.2311999999999 6.552729   6.686007   0.4392395  102.1829   317.6033   220.1271   262.5234  
97.3835999999999 6.611911   6.680108   0.4371643  104.8814   317.3159   220.3161   263.0012  
97.5359999999999 6.58232    6.680108   0.4395752  107.0402   317.5435   219.9828   262.4394  
97.6883999999999 6.560257   6.680108   0.4411926  106.8603   317.8833   220.0334   262.1488  
97.8407999999999 6.619477   6.680108   0.4415894  109.9086   317.9708   220.4572   262.4877  
97.9931999999999 6.597451   6.703588   0.4405518  107.2101   318.4771   220.368    261.8898  
98.1455999999999 6.567524   6.680108   0.4470215  109.7287   318.9293   220.7864   261.8566  
98.2979999999999 6.552729   6.686007   0.4458618  107.0402   319.0866   221.3963   262.312   
98.4503999999999 6.597451   6.680108   0.445343   103.6221   319.6277   222.0042   262.3779  
98.6027999999999 6.649106   6.727067   0.4461975  95.52666   320.0727   221.5473   261.4729  
98.7551999999999 6.708364   6.691848   0.4473267  93.54777   320.2647   221.1996   260.9383  
98.9075999999999 6.671094   6.774025   0.4462891  97.50555   320.5382   221.1901   260.6499  
99.0599999999999 6.671094   6.785765   0.4452209  103.0824   321.3087   220.4166   259.1088  
99.2123999999999 6.678443   6.774025   0.4440918  105.7809   321.5977   220.1087   258.5099  
99.3647999999999 6.63797    6.779922   0.4466248  108.4704   322.0987   220.2891   258.191   
99.5171999999999 6.597451   6.774025   0.4475708  106.3116   322.32     220.2609   257.9395  
99.6695999999999 6.630655   6.753158   0.4494934  105.592    322.7822   219.3272   256.5461  
99.8219999999999 6.606403   6.682505   0.4507446  96.24625   323.4727   219.0998   255.6278  
99.9743999999999 6.597451   6.680108   0.4536133  92.46835   323.9772   219.7598   255.7844  
100.1267999999999 6.63431    6.691848   0.4533691  91.16908   324.3554   220.0141   255.6565  
100.2791999999999 6.686449   6.774025   0.4515686  94.04746   324.7474   218.7726   254.0249  
100.4315999999999 6.619477   6.762286   0.4539185  102.5127   325.5328   218.4455   252.9101  
100.5839999999999 6.641503   6.774025   0.457489   100.7087   325.6882   216.9137   251.226   
100.7363999999999 6.627117   6.914902   0.4554749  100.5488   326.0416   216.1635   250.1222  
100.8887999999999 6.730278   6.774025   0.4560547  93.88256   326.3568   216.5553   250.1975  
101.0411999999999 6.671617   6.867943   0.459198   95.30676   326.2954   218.1751   251.8791  
101.1935999999999 6.700686   6.785765   0.4613342  99.19958   326.5305   219.3312   252.7999  
101.3459999999999 6.708364   6.774025   0.4605408  98.83978   326.8302   219.3668   252.5378  
101.4983999999999 6.730278   6.943964   0.4659424  97.28065   327.1499   219.1635   252.0096  
101.6507999999999 6.647976   6.774025   0.46521    92.05857   327.2904   218.779    251.4861  
101.8031999999999 6.671094   6.809244   0.4689941  91.51887   327.2987   218.2061   250.9063  
101.9555999999999 6.597451   6.732908   0.4680786  88.46058   327.2444   217.6587   250.4163  
102.1079999999999 6.641503   6.727067   0.4693298  92.46835   327.6475   217.0928   249.4416  
102.2603999999999 6.619477   6.750546   0.4685669  93.54774   327.701    217.6979   249.9955  
102.4127999999999 6.649106   6.703588   0.4700317  96.78593   327.905    217.6148   249.7114  
102.5651999999999 6.627117   6.774025   0.4715881  93.53774   328.2259   217.3065   249.0801  
102.7175999999999 6.721553   6.803631   0.471344   93.17795   328.885    218.6718   249.7882  
102.8699999999999 6.864446   6.938381   0.4738464  97.49554   328.8929   218.9499   250.0536  
103.0223999999999 6.96701    7.043233   0.4736633  101.2834   328.7287   218.0517   249.3224  
103.1747999999999 6.907827   6.938381   0.4734192  101.1035   328.9712   218.3115   249.3414  
103.3271999999999 6.86344    6.926641   0.4760742  95.88644   328.9978   218.3155   249.3174  
103.4795999999999 6.775447   6.903162   0.4781494  92.66824   329.2259   218.2578   249.0313  
103.6319999999999 6.767658   7.079257   0.4786377  97.52551   329.3778   218.4062   249.0257  
103.7843999999999 6.737992   6.867943   0.4794312  94.6771    329.7471   217.3562   247.6095  
103.9367999999999 6.78238    6.879683   0.4819336  96.27621   329.8687   217.8334   247.961   
104.0891999999999 6.745781   6.943964   0.4798889  92.13853   329.8293   218.4728   248.6408  
104.2415999999999 6.737992   6.938381   0.482666   90.66935   329.6807   217.0271   247.3445  
104.3939999999999 6.716115   6.809244   0.4841003  87.74099   329.6909   215.3689   245.6778  
104.5463999999999 6.759869   6.867943   0.4868469  83.06361   330.5437   213.8562   243.3116  
104.6987999999999 6.701282   6.879683   0.4848633  87.89391   330.4644   212.495    242.0303  
