~Version
 VERS              .         2.0                           : CWLS LOG ASCII STANDARD - VERSION 2.0
 WRAP              .         NO                            : ONE LINE PER DEPTH STEP
 DLM               .         SPACE                         : DELIMITING CHARACTER(SPACE TAB OR COMMA)
~Well Information
#_______________________________________________________________________________
#
#PARAMETER_NAME    .UNIT     VALUE                         : DESCRIPTION
#_______________________________________________________________________________
STRT               .m        78.9431999999999              : First reference value
STOP               .m        361.7976                      : Last reference value
STEP               .m        0.1524                        : Step increment
NULL               .         -9999                         : Missing value
COMP               .                                       : Company
WELL               .         G                             : Well name
FLD                .                                       : Field
LOC                .                                       : Location
CNTY               .                                       : County
STAT               .                                       : State
CTRY               .                                       : Country
SRVC               .                                       : Service Company
DATE               .                                       : Date
API                .                                       : API number
~Parameter Information Block
#_______________________________________________________________________________
#
#PARAMETER_NAME    .UNIT     VALUE                         : DESCRIPTION
#_______________________________________________________________________________
SET                .         Inclination                   : 
TLFamily_C13       .         Caliper 1                     : 
TLFamily_C24       .         Caliper 2                     : 
TLFamily_DEVI      .         Hole Deviation                : 
TLFamily_GR        .         Gamma Ray                     : 
TLFamily_HAZI      .         Hole Azimuth                  : 
TLFamily_MD        .         Measured Depth                : 
TLFamily_P1AZ      .         Pad A Azimuth                 : 
TLFamily_RB        .         Relative Bearing              : 
~Curve Information
#_______________________________________________________________________________
#
#LOGNAME           .UNIT     LOG_ID                        : DESCRIPTION
#_______________________________________________________________________________
MD                 .m                                      :  
C13                .in                                     : Caliper 1-3 
C24                .in                                     : Caliper 2-4 
DEVI               .deg                                    : Deviation 
GR                 .gAPI                                   : Gamma Ray 
HAZI               .deg                                    : Hole Azimuth 
P1AZ               .deg                                    : Pad 1 Azimuth 
RB                 .deg                                    : Relative Bearing 
~Ascii
# ...
247.3451999999999 6.476897   6.565913   0.375885   89.11321   297.7778   329.4005   31.62329  
247.4975999999999 6.47875    6.57445    0.3722096  89.30033   297.7064   330.6421   32.93528  
247.6499999999999 6.47875    6.504013   0.3691711  89.45502   297.6474   331.6684   34.0199   
247.8023999999999 6.493546   6.492273   0.3659058  95.07687   296.6163   332.2455   35.62955  
247.9547999999999 6.737992   6.680108   0.3674927  90.0397    296.8447   332.0703   35.22504  
248.1071999999999 7.196073   6.680041   0.364502   83.16753   295.2655   336.576    41.31488  
248.2595999999999 6.992628   7.247703   0.3630981  87.12533   294.4332   339.23     44.79718  
248.4119999999999 6.796018   6.755557   0.3619995  87.79095   294.3297   340.8477   46.51898  
248.5643999999999 6.896949   6.727003   0.3623657  93.72763   293.5175   342.8676   49.34653  
248.7167999999999 6.990461   7.001066   0.3626099  88.25869   292.9248   342.2964   48.89905  
248.8691999999999 6.871341   7.466667   0.3657227  85.66813   292.9349   336.1881   43.25186  
249.0215999999999 7.271311   7.220133   0.3691101  94.01546   292.7908   333.9854   41.19571  
249.1739999999999 6.644624   6.706689   0.3728638  99.23254   292.3694   332.9464   40.57184  
249.3263999999999 6.671094   6.703588   0.3760986  98.58491   292.6952   331.2798   38.58017  
249.4787999999999 6.642164   6.833144   0.3791504  97.07375   292.4359   329.8071   37.37106  
249.6311999999999 6.700686   6.727067   0.3801769  93.83129   292.9438   330.622    37.67702  
249.7835999999999 6.908944   6.809244   0.3811951  90.61536   293.4475   331.4301   37.98047  
249.9359999999999 6.999554   7.075975   0.3821106  84.49878   293.9619   330.2981   36.33447  
250.0883999999999 6.700686   6.680108   0.3863525  78.99386   295.1412   329.8334   35.24374  
250.2407999999999 6.382447   6.515752   0.3852234  76.25939   294.7299   330.8201   36.08936  
250.3931999999999 6.374955   6.504013   0.3842468  73.7408    294.1974   331.3806   37.18442  
250.5455999999999 6.341931   6.539232   0.3914795  75.35989   294.9045   332.6487   37.74808  
250.6979999999999 6.37518    6.515752   0.3853455  78.79597   294.9892   334.9263   39.93262  
250.8503999999999 6.323189   6.515752   0.3855591  81.58441   295.3195   336.1999   40.87631  
251.0027999999999 6.337985   6.515752   0.3882446  80.50501   295.4056   337.2443   41.83963  
251.1551999999999 6.37518    6.445314   0.387146   78.94889   295.8984   337.3468   41.44336  
251.3075999999999 6.323189   6.515752   0.384491   78.67904   296.1675   336.7829   40.61285  
251.4599999999999 6.35193    6.544263   0.3838806  78.34623   296.0289   338.0373   42.00388  
251.6123999999999 6.870862   6.926666   0.3805237  79.72246   296.1805   341.6599   45.47565  
251.7647999999999 7.337829   6.95321    0.3764038  78.96688   296.0362   343.9207   47.88727  
251.9171999999999 7.389826   7.173175   0.3736572  76.4213    295.4888   350.7474   55.25385  
252.0695999999999 7.212128   7.032299   0.3727417  76.0615    294.8251   353.2375   58.41101  
252.2219999999999 7.368768   7.431448   0.3683472  83.29346   294.4831   353.8069   59.32181  
252.3743999999999 7.499657   7.196654   0.3673401  85.27235   293.5168   352.2752   58.76111  
252.5267999999999 6.900969   6.879683   0.3638916  82.03416   292.936    350.4359   57.5022   
252.6791999999999 6.989736   6.894075   0.3631897  77.02396   292.1004   347.9314   55.83267  
252.8315999999999 7.315958   6.844464   0.3660889  76.84406   291.2277   344.2661   53.0343   
252.9839999999999 6.441704   6.515752   0.3655396  79.90235   291.249    342.1194   50.8736   
253.1363999999999 6.441704   6.550972   0.362854   81.31457   290.3561   341.3901   51.034    
253.2887999999999 6.360123   6.527492   0.3690491  80.523     290.2673   342.1799   51.91296  
253.4411999999999 6.382447   6.562711   0.3700562  83.0416    289.9578   342.4341   52.47491  
253.5935999999999 6.404771   6.562711   0.3726501  81.2426    289.7032   342.5909   52.88611  
253.7459999999999 6.404771   6.539232   0.3757935  81.92622   289.3849   342.5226   53.14093  
253.8983999999999 6.330457   6.515752   0.3795166  79.04783   289.5545   342.061    52.50638  
254.0507999999999 6.360123   6.515752   0.3833618  77.78853   289.4837   341.6751   52.19263  
254.2031999999999 6.330457   6.562711   0.3864136  76.63717   289.6004   342.201    52.60413  
254.3555999999999 6.352818   6.504013   0.3919678  75.98953   290.5999   344.6609   54.05664  
254.5079999999999 6.330457   6.515752   0.3936768  74.73023   291.4958   343.6137   52.11215  
254.6603999999999 6.404771   6.515752   0.396637   70.75446   291.4221   342.4825   51.05957  
254.8127999999999 6.537933   6.680108   0.3977356  67.80412   292.1765   342.9435   50.76791  
254.9651999999999 6.382447   6.492273   0.4007874  69.68406   292.4661   342.9586   50.48889  
255.1175999999999 6.360123   6.539232   0.4023132  71.12325   292.7892   342.5853   49.79196  
255.2699999999999 6.419455   6.539232   0.4002991  67.34537   293.4328   341.5489   48.11758  
255.4223999999999 6.441704   6.539232   0.4043884  67.68717   293.8835   338.8155   44.93204  
255.5747999999999 6.426908   6.539232   0.4032288  65.88818   294.2968   335.9408   41.64651  
255.7271999999999 6.404771   6.527492   0.4027405  69.48617   295.0739   336.2634   41.18893  
255.8795999999999 6.404771   6.515752   0.403595   66.56281   295.469    338.287    42.34662  
256.0319999999999 6.382447   6.527492   0.3972778  61.88542   296.9709   338.075    41.10358  
256.1843999999999 6.404771   6.504013   0.3952332  57.92763   296.947    335.4593   38.50821  
256.3367999999999 6.382447   6.539232   0.3896179  60.08643   298.1155   334.0675   35.94852  
256.4891999999999 6.382447   6.515752   0.390564   70.16079   298.4386   333.3896   34.9523   
256.6415999999999 6.37256    6.509212   0.3854065  72.97622   298.7086   333.1871   34.47678  
256.7939999999999 6.404771   6.539232   0.3858948  70.99732   298.9857   333.2059   34.22205  
256.9463999999999 6.37518    6.492273   0.3796082  74.77521   299.4451   332.2625   32.81378  
257.0987999999999 6.382447   6.515752   0.3772278  74.4334    299.7759   329.1432   29.37143  
257.2511999999999 6.382447   6.515752   0.3721008  67.77712   299.8741   327.3742   27.50375  
257.4035999999999 6.404771   6.504013   0.3673706  63.09974   299.8248   326.3913   26.56689  
257.5559999999999 6.404771   6.515752   0.3650208  55.40904   299.7641   325.4197   25.65231  
257.7083999999999 6.463954   6.586191   0.3610229  57.02814   299.2572   324.2484   24.99545  
257.8607999999999 6.382447   6.586191   0.3651428  61.34572   297.4336   323.389    25.95416  
258.0131999999999 6.360123   6.515752   0.3552856  73.57888   298.6025   322.3448   23.73953  
258.1655999999999 6.449159   6.515752   0.359436   84.37284   298.3269   321.8264   23.49896  
258.3179999999999 6.641503   6.686007   0.3552246  89.58993   298.1611   321.667    23.50519  
258.4703999999999 6.654788   6.687524   0.3597717  88.63645   297.8457   320.5959   22.74634  
258.6227999999999 6.672397   6.742941   0.3625183  90.61535   296.9626   317.9073   20.94241  
258.7751999999999 6.597451   6.727067   0.3628845  92.59424   297.566    315.1656   17.60065  
258.9275999999999 6.634273   6.715327   0.3635199  94.20078   296.7301   315.627    18.8979   
259.0799999999999 6.847449   6.831924   0.3640442  95.52659   296.0403   316.0078   19.96848  
259.2323999999999 7.241682   6.891423   0.3650818  92.4683    297.5903   314.9597   18.24149  
259.3847999999999 7.795572   6.762286   0.370575   91.02911   297.0107   312.4939   15.48312  
259.5371999999999 8.471442   7.079257   0.374176   88.87032   296.6291   312.0276   15.39813  
259.6895999999999 6.54736    6.697849   0.3803406  84.19293   296.6995   314.5316   17.83087  
259.8419999999999 6.420511   6.639899   0.3807068  78.79595   297.3116   318.0331   20.72235  
259.9943999999999 6.713357   6.828851   0.3881531  73.21906   297.1678   322.8474   25.68164  
260.1467999999999 8.624134   8.11235    0.3939514  65.69028   297.0559   326.5906   29.53748  
