~Version
 VERS              .         2.0                           : CWLS LOG ASCII STANDARD - VERSION 2.0
 WRAP              .         NO                            : ONE LINE PER DEPTH STEP
 DLM               .         SPACE                         : DELIMITING CHARACTER(SPACE TAB OR COMMA)
~Well Information
#_______________________________________________________________________________
#
#PARAMETER_NAME    .UNIT     VALUE                         : DESCRIPTION
#_______________________________________________________________________________
STRT               .m        78.9431999999999              : First reference value
STOP               .m        361.7976                      : Last reference value
STEP               .m        0.1524                        : Step increment
NULL               .         -9999                         : Missing value
COMP               .                                       : Company
WELL               .         G                             : Well name
FLD                .                                       : Field
LOC                .                                       : Location
CNTY               .                                       : County
STAT               .                                       : State
CTRY               .                                       : Country
SRVC               .                                       : Service Company
DATE               .                                       : Date
API                .                                       : API number
~Parameter Information Block
#_______________________________________________________________________________
#
#PARAMETER_NAME    .UNIT     VALUE                         : DESCRIPTION
#_______________________________________________________________________________
SET                .         Inclination                   : 
TLFamily_C13       .         Caliper 1                     : 
TLFamily_C24       .         Caliper 2                     : 
TLFamily_DEVI      .         Hole Deviation                : 
TLFamily_GR        .         Gamma Ray                     : 
TLFamily_HAZI      .         Hole Azimuth                  : 
TLFamily_MD        .         Measured Depth                : 
TLFamily_P1AZ      .         Pad A Azimuth                 : 
TLFamily_RB        .         Relative Bearing              : 
~Curve Information
#_______________________________________________________________________________
#
#LOGNAME           .UNIT     LOG_ID                        : DESCRIPTION
#_______________________________________________________________________________
MD                 .m                                      :  
C13                .in                                     : Caliper 1-3 
C24                .in                                     : Caliper 2-4 
DEVI               .deg                                    : Deviation 
GR                 .gAPI                                   : Gamma Ray 
HAZI               .deg                                    : Hole Azimuth 
P1AZ               .deg                                    : Pad 1 Azimuth 
RB                 .deg                                    : Relative Bearing 
~Ascii
# ...
117.8051999999999 6.663865   6.727067   0.4859314  75.55181   335.8315   229.5858   253.7542  
117.9575999999999 6.619477   6.633149   0.4838867  79.4896    335.9706   229.0478   253.0787  
118.1099999999999 6.619477   6.59793    0.4804993  82.87771   335.4208   230.4494   255.0293  
118.2623999999999 7.203742   7.020559   0.4804077  83.81318   335.1859   230.1545   254.9674  
118.4147999999999 8.343015   7.889296   0.4820557  79.82541   334.8508   229.6105   254.7604  
118.5671999999999 7.197145   7.102737   0.4776306  81.2646    334.0103   231.9045   257.8929  
118.7195999999999 6.945357   6.997079   0.4808697  80.67837   333.9879   233.424    259.4362  
118.8719999999999 7.150376   7.138747   0.4845886  80.0053    333.9623   235.1686   261.2083  
119.0243999999999 7.027608   7.231873   0.4822998  77.71658   333.3863   231.17     257.7811  
119.1767999999999 6.434363   6.515752   0.4780579  76.30737   332.591    228.7343   255.5454  
119.3291999999999 6.412076   6.480534   0.4778748  65.27954   332.671    229.0597   256.3887  
119.4815999999999 6.463954   6.562711   0.4776001  60.7221    332.7465   229.1922   256.4453  
119.6339999999999 6.482722   6.586191   0.4722595  68.51174   331.8388   229.8312   257.9904  
119.7863999999999 6.568636   6.726525   0.4745789  72.82932   330.7172   230.6716   259.9553  
119.9387999999999 6.463954   6.621409   0.4707947  74.4784    330.3289   230.495    260.1659  
120.0911999999999 6.619477   6.680108   0.4784546  74.1186    329.5615   229.9641   260.4041  
120.2435999999999 6.550961   6.653962   0.4779968  73.21911   329.4073   229.9769   260.5708  
120.3959999999999 6.449121   6.562711   0.4775696  64.94373   329.2625   229.989    260.7273  
120.5483999999999 6.434057   6.589248   0.476593   62.75496   328.9462   230.0153   261.0691  
120.7007999999999 6.459604   6.680108   0.4757385  63.36693   328.5659   231.0719   262.5043  
120.8531999999999 6.471334   6.60967    0.4756165  64.01426   328.428    231.896    263.4682  
121.0055999999999 6.330457   6.59793    0.4754944  69.95094   327.9321   231.9713   264.0398  
121.1579999999999 6.352818   6.550972   0.4822083  68.54173   328.4354   231.8012   263.3643  
121.3103999999999 6.356501   6.574502   0.4798584  73.03921   328.1297   232.1994   264.0685  
121.4627999999999 6.382447   6.58619    0.4708252  78.61609   328.1303   231.5298   263.3994  
121.6151999999999 6.326687   6.626622   0.4716474  79.18151   328.2719   231.1445   262.8729  
121.7675999999999 6.337985   6.60967    0.4726563  79.87538   328.4456   230.6717   262.2268  
121.9199999999999 6.30079    6.727067   0.4685974  79.33569   328.0459   229.5884   261.5445  
122.0723999999999 6.326882   6.907853   0.4700317  76.34736   328.5797   227.1317   258.5511  
122.2247999999999 6.404771   7.407969   0.4697266  83.00363   328.7881   225.9299   257.1412  
122.3771999999999 6.286405   7.548845   0.4729309  81.56444   328.8654   223.1917   254.3253  
122.5295999999999 6.65875    8.462229   0.4724121  78.61609   328.4517   223.7012   255.2471  
122.6819999999999 8.051088   9.298058   0.4760132  80.77488   328.1213   224.4245   256.3026  
122.8343999999999 9.434286   8.969347   0.4711304  85.62217   327.922    226.2513   258.3268  
122.9867999999999 9.005297   9.58903    0.4723816  86.88146   327.4525   231.3993   263.9442  
123.1391999999999 8.332914   8.065392   0.4700317  89.75985   327.3197   231.2608   263.9414  
123.2915999999999 8.323152   8.441061   0.4696655  93.00803   326.7751   231.1048   264.3286  
123.4439999999999 8.496078   7.947994   0.4694519  98.58492   326.8227   230.9098   264.0858  
123.5963999999999 7.442934   8.229747   0.4642944  99.84422   326.0037   230.1681   264.1669  
123.7487999999999 6.848644   7.302311   0.472168   102.003    325.9819   231.4134   265.4299  
123.9011999999999 6.836598   7.249435   0.4630737  105.9608   325.2679   230.442    265.1727  
124.0535999999999 6.737992   7.642762   0.4692688  111.008    324.6664   225.7162   261.0521  
124.2059999999999 7.085376   7.56539    0.4690552  108.4894   323.7679   226.0388   262.2694  
124.3583999999999 8.269037   8.006693   0.4753418  104.8914   323.742    227.0518   263.3111  
124.5107999999999 8.372606   8.006693   0.4741211  101.2834   323.0958   227.5231   264.4265  
124.6631999999999 9.215266   8.109741   0.4741821  96.60604   321.7775   230.8945   269.1168  
124.8155999999999 9.389749   8.11235    0.4734802  92.10855   321.6181   231.4743   269.8556  
124.9679999999999 8.550155   8.84021    0.4727783  94.62714   321.4638   232.0359   270.571   
125.1203999999999 7.114337   7.36608    0.4735718  93.18795   321.0942   234.3391   273.2459  
125.2727999999999 6.832198   7.127938   0.4704285  91.45152   320.7991   237.2298   276.4295  
125.4251999999999 7.250104   7.677981   0.4724731  89.76986   320.8403   241.6994   280.8605  
125.5775999999999 7.531932   7.454927   0.4689636  83.83318   321.2236   241.8988   280.675   
125.7299999999999 6.986738   7.087083   0.4673226  85.19359   320.5286   242.2438   281.7137  
125.8823999999999 7.048964   7.184915   0.4656677  84.58576   320.4424   243.1428   282.6993  
126.0347999999999 6.962888   7.05788    0.458313   75.79768   319.8582   248.1961   288.3395  
126.1871999999999 6.44456    6.580044   0.446991   74.46841   319.5747   248.1114   288.5335  
126.3395999999999 7.345364   7.541939   0.4541016  68.71163   320.0655   249.4541   289.3912  
126.4919999999999 6.449121   6.738806   0.4524841  69.61112   319.9034   250.5518   290.6464  
126.6443999999999 6.389695   6.592194   0.4440918  72.13971   320.774    251.6913   290.9146  
126.7967999999999 6.427693   6.571882   0.4402771  76.2774    320.6271   253.4449   292.8173  
126.9491999999999 6.461455   6.593407   0.4345093  72.49951   320.4829   253.7645   293.2828  
127.1015999999999 6.382447   6.515752   0.4327393  71.60001   320.578    254.2643   293.6842  
127.2539999999999 6.382447   6.527492   0.4274902  67.46233   320.2355   254.4823   294.2502  
127.4063999999999 6.382447   6.539232   0.4280701  72.85931   319.9393   253.3484   293.4085  
127.5587999999999 6.389789   6.586191   0.4239502  71.06033   320.2334   252.0151   291.783   
127.7111999999999 6.463954   6.60967    0.4213257  73.57892   320.5217   251.4397   290.9191  
127.8635999999999 6.641503   6.680108   0.4188843  68.13197   320.6463   254.0329   293.3879  
128.0159999999999 6.449121   6.59793    0.4148865  61.47568   320.6304   254.3131   293.6868  
128.1683999999999 6.426872   6.580465   0.4156176  57.02049   320.8475   253.7521   292.9053  
128.3207999999999 6.39728    6.545303   0.4163818  52.36378   321.0744   253.1656   292.0885  
128.4731999999999 6.382447   6.515752   0.4151001  52.17389   321.1815   254.6254   293.4456  
128.6255999999999 6.419567   6.557014   0.4148865  56.11368   321.6082   255.1358   293.5303  
128.7779999999999 6.360123   6.550972   0.418457   67.20448   321.3652   255.2132   293.8455  
128.9303999999999 6.412076   6.539232   0.4164429  74.82022   320.692    255.2566   294.563   
129.0827999999999 6.412076   6.515752   0.4143372  80.23519   320.503    255.6283   295.1269  
129.2351999999999 6.412076   6.539232   0.4088745  82.93369   322.3066   255.7996   293.4935  
129.3875999999999 6.426872   6.58619    0.4122925  79.33569   321.0715   255.7114   294.6398  
129.5399999999999 6.412076   6.58619    0.4115906  82.03419   320.8683   255.419    294.548   
129.6923999999999 6.419455   6.680108   0.4152222  81.78433   320.272    255.237    294.9647  
129.8447999999999 6.404771   6.627366   0.4151611  85.74212   320.0897   254.5927   294.504   
129.9971999999999 6.530591   6.744676   0.419342   85.56222   319.8184   253.7729   293.9514  
130.1495999999999 6.523137   6.727067   0.4179688  79.87539   319.8208   257.8968   298.0795  
130.3019999999999 7.049113   7.290572   0.4181824  78.25629   319.5513   263.3256   303.7756  
130.4543999999999 9.311895   8.675855   0.4240723  75.0181    319.2782   265.0121   305.7348  
130.6067999999999 8.63893    8.922388   0.4276428  81.67439   318.6127   269.3348   310.7254  
