~Version
 VERS              .         2.0                           : CWLS LOG ASCII STANDARD - VERSION 2.0
 WRAP              .         NO                            : ONE LINE PER DEPTH STEP
 DLM               .         SPACE                         : DELIMITING CHARACTER(SPACE TAB OR COMMA)
~Well Information
#_______________________________________________________________________________
#
#PARAMETER_NAME    .UNIT     VALUE                         : DESCRIPTION
#_______________________________________________________________________________
STRT               .M        -26.9748                      : First reference value
STOP               .M        363.474                       : Last reference value
STEP               .M        0.1524                        : Step increment
NULL               .         -9999                         : Missing value
COMP               .                                       : Company
WELL               .         G                             : Well name
FLD                .                                       : Field
LOC                .                                       : Location
CNTY               .                                       : County
STAT               .                                       : State
CTRY               .                                       : Country
SRVC               .                                       : Service Company
DATE               .                                       : Date
API                .                                       : API number
~Parameter Information Block
#_______________________________________________________________________________
#
#PARAMETER_NAME    .UNIT     VALUE                         : DESCRIPTION
#_______________________________________________________________________________
SET                .         Logs                          : 
TLFamily_DEPT      .         Measured Depth                : 
TLFamily_DT        .         Compressional Slowness        : 
TLFamily_GR        .         Gamma Ray                     : 
TLFamily_ILD       .         Resistivity - Deep            : 
TLFamily_NPOR_LIM  .         Thermal Neutron Porosity Limestone: 
TLFamily_PEF       .         Photoelectric Factor          : 
TLFamily_RHO       .         Bulk Density                  : 
~Curve Information
#_______________________________________________________________________________
#
#LOGNAME           .UNIT     LOG_ID                        : DESCRIPTION
#_______________________________________________________________________________
DEPT               .M                                      : Depth Index 
DT                 .US/M                                   : DELTA-T 
GR                 .GAPI                                   : GAMMA-RAY 
ILD                .OHMM                                   : ARRAY INDUCTION ONE FOOT RESISTIVITY A90 
NPOR_LIM           .V/V                                    : ENHANCED THERMAL NEUTRON POROSITY (MATRIX LIMESTONE) 
PEF                .B/E                                    : HRDD HIGH RESOLUTION FORMATION PHOTOELECTRIC FACTOR 
RHO                .K/M3                                   : HRDD STANDARD RESOLUTION FORMATION DENSITY 
~Ascii
# ...
298.704    428.92276  38.81263   21.03283   0.30672    1.61024    2059.94   
298.8564   422.05835  48.07295   15.68434   0.2949     1.68856    2110.6    
299.0088   418.08591  59.49401   16.49471   0.31267    1.77141    2151.33   
299.1612   418.14334  60.09724   20.3368    0.3386     1.74285    2148.43   
299.3136   424.54483  53.20345   32.52149   0.40784    1.59771    2102.43   
299.466    430.38596  43.84024   88.70583999999999 0.3562     1.5831     2053.67   
299.6184   432.55063  38.07016   219.01468  0.31794    1.62976    2030.6    
299.7708   430.27347  36.53189   103.71102  0.33429    1.56156    2032.51   
299.9232   428.67676  34.57693   63.89594   0.32512    1.59971    2043.55   
300.0756   427.28433  31.32451   28.26193   0.31867    1.62459    2057.18   
300.228    420.03311  32.86278   15.85287   0.314      1.65232    2078.68   
300.3804   416.53674  40.37393   13.89095   0.28934    1.60693    2102.21   
300.5328   418.13696  48.36705   17.84877   0.28993    1.81406    2121.38   
300.6852   420.70914  49.80754   22.2051    0.33422    1.72197    2102.99   
300.8376   429.37512  45.34679   17.39523   0.36889    1.66561    2066.36   
300.99     434.47394  44.07919   19.06081   0.35796    1.66303    2016.97   
301.1424   432.81296  45.21361   24.19976   0.39168    1.58462    1999.48   
301.2948   425.86984  47.32915   31.2923    0.44996    1.43754    2016.12   
301.4472   421.51382  49.30934   30.90611   0.3966     1.60483    2052.03   
301.5996   416.68307  46.13844   33.58813   0.35679    1.75146    2078.2    
301.752    413.14304  48.07209   35.18761   0.35307    1.63106    2088.02   
301.9044   415.57999  46.11714   24.71316   0.29944    1.61737    2090.77   
302.0568   419.55002  50.42468   12.9611    0.30055    1.68371    2093.42   
302.2092   420.85571  47.4408    17.08602   0.40413    1.60925    2089.46   
302.3616   417.80838  50.2189    14.47981   0.32085    1.61842    2102.79   
302.514    413.62598  54.87733   12.57481   0.29437    1.69761    2139.37   
302.6664   411.6192   62.1827    16.29      0.31341    1.78623    2176.94   
302.8188   415.16718  64.45567   19.67688   0.34793    1.82264    2175.79   
302.9712   420.44028  60.20137   23.40817   0.3731     1.76029    2144.84   
303.1236   419.63312  56.39435   27.8188    0.33384    1.65704    2121.12   
303.276    413.02563  59.79095   15.14481   0.30119    1.64122    2140.71   
303.4284   409.61414  68.84549   15.47332   0.28357    1.86791    2177.49   
303.5808   415.35504  76.66531000000001 16.06414   0.33968    1.92755    2187.24   
303.7332   419.91861  79.85672   17.11105   0.36743    1.94144    2188.74   
303.8856   422.03723  74.30052999999999 11.14645   0.39904    2.08543    2160.8    
304.038    424.77328  63.59972   18.12482   0.47097    1.77443    2132.09   
304.1904   417.30762  49.38833   36.11729   0.37823    1.59629    2084.47   
304.3428   411.56329  44.76529   64.75817000000001 0.29478    1.58694    2062.35   
304.4952   412.44141  49.86178   53.20444   0.34015    1.59485    2064.44   
304.6476   409.61954  50.89071   65.54626   0.34793    1.70966    2070.44   
304.8      408.55417  46.25344   99.86726   0.36063    1.59932    2070.94   
304.9524   413.7663   37.45282   74.32816   0.31786    1.51679    2067.04   
305.1048   410.3121   37.97394   38.17075   0.28942    1.59647    2088.32   
305.2572   405.50241  50.7326    20.90952   0.28214    1.57102    2142.58   
305.4096   411.84012  65.44622   9.76735    0.29892    2.12866    2191.61   
305.562    405.68433  69.45236   11.6686    0.37525    2.1582     2187.32   
305.7144   408.61346  58.44872   18.99737   0.38111    1.68399    2132.73   
305.8668   413.62238  43.63221   41.80186   0.31825    1.62132    2080.55   
306.0192   407.08322  37.87024   63.53526   0.29942    1.61791    2053.08   
306.1716   406.54294  37.05617   92.04956   0.33991    1.62697    2051.63   
306.324    407.53552  37.46774   116.26648  0.34289    1.647      2057.79   
306.4764   406.04553  34.68965   125.92956  0.35614    1.65579    2064.48   
306.6288   405.32574  32.82733   198.85941  0.35749    1.60752    2058.8    
306.7812   407.02032  33.44469   133.33734  0.32286    1.54464    2041.68   
306.9336   410.74231  38.28063   65.6551    0.31396    1.58163    2031.57   
307.086    414.33997  45.68422   32.65981   0.31183    1.52628    2041.65   
307.2384   418.24933  54.1305    16.48077   0.2903     1.78522    2076.49   
307.3908   420.37964  62.31435   20.3835    0.33157    1.88483    2112.51   
307.5432   421.8848   60.46228   26.56162   0.38009    2.17859    2112.84   
307.6956   425.35898  54.17674   41.99475   0.41272    1.80114    2091.78   
307.848    430.44308  44.86108   54.59871   0.34646    1.60649    2071.09   
308.0004   425.69702  46.5152    33.2746    0.29108    1.70109    2081.44   
308.1528   418.87433  54.95189   27.25728   0.30748    1.91051    2113.25   
308.3052   412.31271  61.13446   28.62459   0.35666    1.90869    2145.94   
308.4576   407.21524  64.83074000000001 27.74033   0.34067    1.84331    2161.16   
308.61     412.21384  59.27504   29.85155   0.34504    1.86444    2151.76   
308.7624   415.40833  57.51685   39.32798   0.36559    1.72738    2131.88   
308.9148   418.51746  52.48236   60.49662   0.38141    1.71889    2117.84   
309.0672   418.82211  48.57245   73.66271999999999 0.37936    1.68174    2104.3    
309.2196   413.44449  44.27908   91.1596    0.35969    1.68999    2087.69   
309.372    412.33932  40.73158   96.19653   0.33547    1.58164    2076.37   
309.5244   413.38071  42.66333   118.57537  0.35406    1.68589    2071.33   
309.6768   412.95215  42.12077   105.98803  0.35415    1.6284     2076.19   
309.8292   418.45572  46.59471   97.24448   0.33345    1.63262    2090.61   
309.9816   419.66125  53.26453   69.46315   0.32781    1.83028    2107.08   
310.134    416.5004   55.73394   72.33686   0.34258    2.09563    2118.13   
310.2864   419.23077  58.40149   67.80683999999999 0.33849    1.7048     2117.68   
310.4388   415.7536   55.66478   53.69896   0.33204    1.76483    2122.65   
310.5912   414.03238  61.74531   38.42967   0.32177    1.91724    2129.04   
310.7436   415.88791  60.15132   36.14173   0.38165    1.88425    2148.52   
310.896    416.52936  62.52736   44.11245   0.3781     1.73355    2154.52   
311.0484   417.87134  61.17988   41.65599   0.32552    2.06773    2170.03   
311.2008   420.49283  64.31726   39.23367   0.37038    2.68216    2169.79   
311.3532   425.25043  68.83289000000001 28.29575   0.34814    1.8829     2170.56   
311.5056   427.0159   80.15106   21.85489   0.33562    1.91903    2182.74   
311.658    431.51724  81.60169999999999 11.20749   0.38082    2.45955    2195.43   
311.8104   433.39688  72.65218   16.10878   0.51536    2.22222    2173.49   
311.9628   432.61005  50.19112   34.83609   0.42698    1.60739    2106.32   
312.1152   430.38351  38.14256   124.36269  0.32178    1.54037    2039.5    
312.2676   427.84982  30.94009   195.86963  0.33301    1.61684    2017.3    
312.42     427.58237  33.85159   205.1855   0.35372    1.6104     2019.34   
312.5724   427.00229  33.03293   226.60135  0.33623    1.57985    2021.64   
312.7248   429.23746  35.50235   225.95081  0.37398    1.6249     2021.43   
312.8772   428.81677  32.72425   342.22708  0.37209    1.66647    2028.53   
313.0296   427.80603  34.77762   394.55814  0.36905    1.56006    2030.47   
313.182    428.0929   33.58978   326.64349  0.38264    1.51837    2035.71   
313.3344   428.77042  37.50586   240.36972  0.36616    1.56775    2038.48   
313.4868   430.2153   39.15213   127.51549  0.35517    1.6435     2054.73   
313.6392   431.39417  45.79327   75.37791   0.35443    1.64937    2057.23   
313.7916   435.41589  45.60458   51.61786   0.37598    1.6938     2067.75   
313.944    434.59244  46.99811   102.30076  0.41932    1.71234    2066.09   
314.0964   436.14221  45.29955   133.41112  0.35561    1.54636    2080.49   
314.2488   432.45755  47.23307   80.91587   0.3068     1.65052    2082.24   
314.4012   423.65558  46.65918   79.08592   0.37106    1.74297    2085.08   
