~Version
 VERS              .         2.0                           : CWLS LOG ASCII STANDARD - VERSION 2.0
 WRAP              .         NO                            : ONE LINE PER DEPTH STEP
 DLM               .         SPACE                         : DELIMITING CHARACTER(SPACE TAB OR COMMA)
~Well Information
#_______________________________________________________________________________
#
#PARAMETER_NAME    .UNIT     VALUE                         : DESCRIPTION
#_______________________________________________________________________________
STRT               .M        -26.9748                      : First reference value
STOP               .M        363.474                       : Last reference value
STEP               .M        0.1524                        : Step increment
NULL               .         -9999                         : Missing value
COMP               .                                       : Company
WELL               .         G                             : Well name
FLD                .                                       : Field
LOC                .                                       : Location
CNTY               .                                       : County
STAT               .                                       : State
CTRY               .                                       : Country
SRVC               .                                       : Service Company
DATE               .                                       : Date
API                .                                       : API number
~Parameter Information Block
#_______________________________________________________________________________
#
#PARAMETER_NAME    .UNIT     VALUE                         : DESCRIPTION
#_______________________________________________________________________________
SET                .         Logs                          : 
TLFamily_DEPT      .         Measured Depth                : 
TLFamily_DT        .         Compressional Slowness        : 
TLFamily_GR        .         Gamma Ray                     : 
TLFamily_ILD       .         Resistivity - Deep            : 
TLFamily_NPOR_LIM  .         Thermal Neutron Porosity Limestone: 
TLFamily_PEF       .         Photoelectric Factor          : 
TLFamily_RHO       .         Bulk Density                  : 
~Curve Information
#_______________________________________________________________________________
#
#LOGNAME           .UNIT     LOG_ID                        : DESCRIPTION
#_______________________________________________________________________________
DEPT               .M                                      : Depth Index 
DT                 .US/M                                   : DELTA-T 
GR                 .GAPI                                   : GAMMA-RAY 
ILD                .OHMM                                   : ARRAY INDUCTION ONE FOOT RESISTIVITY A90 
NPOR_LIM           .V/V                                    : ENHANCED THERMAL NEUTRON POROSITY (MATRIX LIMESTONE) 
PEF                .B/E                                    : HRDD HIGH RESOLUTION FORMATION PHOTOELECTRIC FACTOR 
RHO                .K/M3                                   : HRDD STANDARD RESOLUTION FORMATION DENSITY 
~Ascii
# ...
252.222    487.67465  95.90827   4.20806    0.41889    2.47795    1943.35   
252.3744   473.14841  95.90827   5.89062    0.49938    2.61024    1863.91   
252.5268   474.12518  86.44217   7.43301    0.50385    1.14922    1831.21   
252.6792   457.31085  87.87006   9.77037    0.38495    2.14961    1928.11   
252.8316   434.18094  83.76618999999999 11.35421   0.34548    2.42042    2039.41   
252.984    445.86411  85.20668999999999 8.19186    0.37096    2.4283     2105.43   
253.1364   443.20566  81.39967   10.29824   0.39335    2.45891    2111.96   
253.2888   454.32132  78.50686   13.34106   0.37923    2.54174    2118.65   
253.4412   459.63321  77.48994   12.08966   0.37123    2.55809    2124.7    
253.5936   471.68921  81.29696   10.90637   0.36009    2.55783    2125.75   
253.746    477.91693  84.7953    11.39291   0.369      2.719      2119.91   
253.8984   481.72342  83.75436000000001 13.18134   0.37838    2.6822     2099.84   
254.0508   472.98758  82.22353   17.06095   0.34806    2.49618    2078.28   
254.2032   465.67206  79.13676   16.89422   0.351      2.56322    2094.17   
254.3556   452.30426  77.69627   17.00476   0.36459    2.34812    2190.7    
254.508    449.77768  73.15646   20.23315   0.35218    3.45455    2312.78   
254.6604   465.59335  76.56413999999999 23.33579   0.38314    4.14477    2318.36   
254.8128   478.75708  73.78604   17.69835   0.35741    2.44652    2217.91   
254.9652   481.23093  74.91785   18.39204   0.38414    2.41734    2095.99   
255.1176   480.64911  70.19567000000001 17.77994   0.35568    2.48044    2060.51   
255.27     460.2334   74.51716   17.05012   0.36736    2.53164    2065.94   
255.4224   461.18582  75.44319   15.46774   0.34589    2.48059    2071.86   
255.5748   481.65543  76.96438000000001 14.58978   0.35599    2.54484    2077.28   
255.7272   480.4136   76.31910999999999 13.79233   0.37889    2.48849    2077.28   
255.8796   467.5267   73.33523   13.85342   0.40082    2.50393    2077.98   
256.032    468.28284  71.68804   15.11231   0.38094    2.50244    2077.47   
256.1844   413.47028  70.49203   10.00196   0.38747    2.39417    2080.96   
256.3368   423.78192  72.65277   10.72104   0.40566    2.39495    2083.25   
256.4892   459.76093  73.99038   6.55801    0.40736    2.46437    2081.31   
256.6416   464.92538  73.8767    10.21385   0.3947     2.62294    2083.75   
256.794    446.87662  72.75548999999999 5.47207    0.36489    2.39796    2086.9    
256.9464   444.21173  71.41788   13.7467    0.36366    2.53697    2097.21   
257.0988   447.06985  71.52077   10.56594   0.44105    2.448      2098.93   
257.2512   351.22974  70.58414   11.59881   0.44406    2.30891    2144.78   
257.4036   322.20941  72.03537   14.29573   0.40635    2.45545    2278.8    
257.556    290.14273  68.12546   26.00367   0.2268     4.09025    2478.14   
257.7084   281.6058   64.52422   47.11845   0.15432    4.6209     2596.32   
257.8608   320.87433  63.07299   25.42482   0.20954    3.66572    2532.31   
258.0132   373.17041  73.5817    12.72357   0.32573    2.86126    2361.68   
258.1656   429.89026  86.13457   9.16717    0.37907    2.68251    2222.26   
258.318    452.81479  97.55562999999999 6.94654    0.42697    2.76879    2183.93   
258.4704   456.68195  100.62872  6.2468     0.4603     2.81886    2191.43   
258.6228   457.14722  100.56327  6.18298    0.41811    2.68546    2199.65   
258.7752   450.8353   99.96078   6.09451    0.40493    2.62577    2196.2    
258.9276   457.98929  99.44632   6.07319    0.40996    2.76047    2178.71   
259.08     461.4819   95.70475   6.17341    0.44667    2.71939    2152.3    
259.2324   464.81049  91.5742    6.29294    0.42656    2.48691    2095.55   
259.3848   454.65744  85.09198000000001 6.15414    0.4876     2.33227    2066.6    
259.5372   429.33472  85.825     6.63604    0.4777     2.29771    2064.05   
259.6896   396.67722  85.20765   7.79868    0.34639    2.43152    2106.77   
259.842    420.97433  86.23658   10.32511   0.37122    2.38129    2045.74   
259.9944   474.73953  78.91845000000001 11.83426   0.50319    2.86552    1830.67   
260.1468   527.43237  72.85789   9.63496    0.75922    0.81502    1539.08   
260.2992   513.39001  69.25666   7.64063    0.85288    0.62285    1411.17   
260.4516   462.255    77.39651000000001 6.5325     0.71685    0.5767     1547.47   
260.604    420.92291  80.38364   13.92031   0.51076    2.07538    1838.32   
260.7564   396.46365  90.5853    12.6711    0.38629    2.60438    2069.63   
260.9088   410.35083  93.35203   8.68516    0.37766    2.16294    2179.38   
261.0612   444.0589   93.95605   7.46151    0.41954    2.39912    2155.58   
261.2136   453.64465  89.20768   6.95015    0.48911    2.72607    2081.1    
261.366    464.24506  84.48690999999999 5.99692    0.58369    1.86391    1984.46   
261.5184   496.05884  85.31005   4.47867    0.55119    2.31238    1931.01   
261.6708   486.51126  79.34229000000001 4.03379    0.59339    2.40536    1901.17   
261.8232   498.69998  77.99241000000001 2.43989    0.59754    1.77201    1896.72   
261.9756   511.27573  72.44582   2.27992    0.64198    1.59868    1899.73   
262.128    509.93069  70.45592000000001 2.32754    0.64454    1.62919    1905      
262.2804   511.81778  68.50097   2.26992    0.58161    1.87067    1877.29   
262.4328   517.1061999999999 69.31451   2.22544    0.6286     2.25577    1813.35   
262.5852   516.73718  70.26452999999999 2.24601    0.60861    2.06389    1800.54   
262.7376   524.52936  69.07227   2.63038    0.52583    1.38805    1846.92   
262.89     510.17996  70.40987   2.8419     0.53837    2.11197    1945.71   
263.0424   484.17249  75.05098   3.17156    0.4964     2.02074    2000.31   
263.1948   474.88675  80.32664   3.72892    0.3954     2.16299    2024.02   
263.3472   465.84277  81.56135   4.77487    0.41673    2.93528    1996.21   
263.4996   461.71259  76.07957   4.37036    0.49051    1.64287    1959.47   
263.652    478.25146  70.96725000000001 3.68598    0.53752    1.45092    1902.97   
263.8044   492.24353  67.16022   4.51315    0.5039400000000001 2.25094    1867.52   
263.9568   480.72864  67.09557   5.11706    0.56009    1.37039    1878.25   
264.1092   460.55902  69.25631   5.48981    0.5292     1.60461    1961.24   
264.2616   440.78696  75.35151   5.54854    0.49019    2.28674    2065.02   
264.414    422.06616  81.21896   6.39644    0.41257    2.2699     2135.26   
264.5664   429.83237  83.58548999999999 6.84405    0.37288    2.4884     2119.21   
264.7188   441.39771  83.04649000000001 6.31563    0.41404    2.66508    2062.31   
264.8712   442.09799  81.72668   6.03368    0.46444    1.38801    2024.92   
265.0236   445.35345  82.31174   6.13581    0.40076    2.09178    2064.33   
265.176    428.85046  79.01918000000001 6.61472    0.3678     2.25639    2135.85   
265.3284   419.84872  81.35558   7.89146    0.3664     2.51718    2177.15   
265.4808   433.84256  86.02997999999999 7.63445    0.34855    2.48075    2167.24   
265.6332   442.54202  90.86593000000001 5.29935    0.42065    2.56577    2141.8    
265.7856   475.43402  95.30502   3.96417    0.47009    2.40074    2111.6    
265.938    483.72137  89.22243   3.50676    0.49786    2.40613    2094.8    
266.0904   475.51962  94.16128   4.37767    0.51046    2.33691    2097.1    
266.2428   476.89514  92.08871000000001 3.82982    0.4475     2.44422    2110.37   
266.3952   468.67441  97.85068   3.59342    0.47371    2.52291    2105.89   
266.5476   471.34866  92.51263   3.50528    0.52236    2.70258    2090.32   
266.7      482.64685  90.14610999999999 3.43296    0.55326    2.1093     2083.68   
266.8524   480.63489  86.47274   3.3396     0.52478    2.15324    2093.73   
267.0048   486.35959  88.86269   3.27879    0.5032799999999999 2.51114    2115.38   
267.1572   480.8125   92.58123000000001 3.43598    0.46426    2.2357     2123.37   
267.3096   482.47086  90.49261   3.40184    0.45352    2.67475    2132.37   
267.462    484.28061  89.325     3.38557    0.5334     2.23208    2131.86   
267.6144   481.90063  87.14985   3.43026    0.50983    2.28651    2134.45   
