~Version
 VERS              .         2.0                           : CWLS LOG ASCII STANDARD - VERSION 2.0
 WRAP              .         NO                            : ONE LINE PER DEPTH STEP
 DLM               .         SPACE                         : DELIMITING CHARACTER(SPACE TAB OR COMMA)
~Well Information
#_______________________________________________________________________________
#
#PARAMETER_NAME    .UNIT     VALUE                         : DESCRIPTION
#_______________________________________________________________________________
STRT               .M        -26.9748                      : First reference value
STOP               .M        363.474                       : Last reference value
STEP               .M        0.1524                        : Step increment
NULL               .         -9999                         : Missing value
COMP               .                                       : Company
WELL               .         G                             : Well name
FLD                .                                       : Field
LOC                .                                       : Location
CNTY               .                                       : County
STAT               .                                       : State
CTRY               .                                       : Country
SRVC               .                                       : Service Company
DATE               .                                       : Date
API                .                                       : API number
~Parameter Information Block
#_______________________________________________________________________________
#
#PARAMETER_NAME    .UNIT     VALUE                         : DESCRIPTION
#_______________________________________________________________________________
SET                .         Logs                          : 
TLFamily_DEPT      .         Measured Depth                : 
TLFamily_DT        .         Compressional Slowness        : 
TLFamily_GR        .         Gamma Ray                     : 
TLFamily_ILD       .         Resistivity - Deep            : 
TLFamily_NPOR_LIM  .         Thermal Neutron Porosity Limestone: 
TLFamily_PEF       .         Photoelectric Factor          : 
TLFamily_RHO       .         Bulk Density                  : 
~Curve Information
#_______________________________________________________________________________
#
#LOGNAME           .UNIT     LOG_ID                        : DESCRIPTION
#_______________________________________________________________________________
DEPT               .M                                      : Depth Index 
DT                 .US/M                                   : DELTA-T 
GR                 .GAPI                                   : GAMMA-RAY 
ILD                .OHMM                                   : ARRAY INDUCTION ONE FOOT RESISTIVITY A90 
NPOR_LIM           .V/V                                    : ENHANCED THERMAL NEUTRON POROSITY (MATRIX LIMESTONE) 
PEF                .B/E                                    : HRDD HIGH RESOLUTION FORMATION PHOTOELECTRIC FACTOR 
RHO                .K/M3                                   : HRDD STANDARD RESOLUTION FORMATION DENSITY 
~Ascii
# ...
20.1168    -9999      59.17354   2.97516    0.74673    7.758      2060.19   
20.2692    -9999      61.01202   2.97516    0.7735     7.86051    2065      
20.4216    -9999      60.45153   2.97516    0.77769    7.95868    2070.1    
20.574     -9999      62.38636   2.97516    0.68284    7.98317    2071.57   
20.7264    -9999      62.14083   2.97516    0.6900500000000001 8.11143    2066.97   
20.8788    -9999      62.42395   2.97516    0.66071    7.94625    2069.74   
21.0312    -9999      59.41989   2.97516    0.62451    8.15279    2073.62   
21.1836    -9999      61.90944   2.97516    0.72494    8.22369    2077.11   
21.336     -9999      61.22931   2.97516    0.80159    8.19577    2075.83   
21.4884    -9999      60.25728   2.97516    0.91205    8.22523    2077.08   
21.6408    -9999      59.19948   2.97516    0.71622    8.289910000000001 2073.92   
21.7932    -9999      57.70592   2.97516    0.7150300000000001 8.311809999999999 2074.07   
21.9456    -9999      60.41625   2.97516    0.78066    8.47597    2070.63   
22.098     -9999      58.82099   2.97516    0.72292    8.354660000000001 2072.13   
22.2504    -9999      59.73709   2.97516    0.70172    8.39045    2067.71   
22.4028    -9999      58.63768   2.97516    0.65395    8.35416    2066.87   
22.5552    -9999      61.67955   2.97516    0.80683    8.488479999999999 2068.67   
22.7076    -9999      63.62608   2.97516    0.80291    8.62506    2073.95   
22.86      -9999      63.17351   2.97516    0.81996    8.65077    2077.53   
23.0124    -9999      60.84065   2.97516    0.77618    8.70811    2079.41   
23.1648    -9999      60.32619   2.97516    0.84416    8.50074    2077.14   
23.3172    -9999      61.79231   2.97516    0.81147    8.59502    2068.12   
23.4696    -9999      60.22923   2.97516    0.8181     8.59238    2061.64   
23.622     -9999      58.21639   2.97516    0.78057    8.58478    2063.65   
23.7744    -9999      56.27234   2.97516    0.76719    8.803050000000001 2073.56   
23.9268    -9999      55.8837    2.97516    0.7472800000000001 8.783939999999999 2087.26   
24.0792    -9999      59.28578   2.97516    0.76072    8.773949999999999 2094.85   
24.2316    -9999      61.99847   2.97516    0.67362    8.826029999999999 2098.57   
24.384     -9999      60.72831   2.97516    0.65046    8.863490000000001 2096.66   
24.5364    -9999      57.91162   2.97516    0.6624100000000001 8.744120000000001 2092.49   
24.6888    -9999      55.48257   2.97516    0.6976     8.73123    2087.58   
24.8412    -9999      56.40104   2.97516    0.66149    8.862410000000001 2082.23   
24.9936    -9999      56.49606   2.97516    0.64059    8.7408     2079.94   
25.146     -9999      57.57324   2.97516    0.65318    8.77436    2080.13   
25.2984    -9999      60.8398    2.97516    0.78852    8.842689999999999 2081.08   
25.4508    -9999      60.7426    2.97516    0.64362    8.943      2079.69   
25.6032    -9999      59.67337   2.97516    0.85437    8.969060000000001 2076.73   
25.7556    -9999      58.50743   2.97516    0.7846     8.80104    2073.88   
25.908     -9999      56.75779   2.97516    0.82874    8.797499999999999 2072.33   
26.0604    -9999      58.60463   2.97516    0.76186    8.82432    2071.19   
26.2128    -9999      58.70179   2.97516    0.69437    8.961349999999999 2069.42   
26.3652    -9999      61.42346   2.97516    0.6817     8.934329999999999 2074.92   
26.5176    -9999      58.98568   2.97516    0.59798    8.89057    2086.86   
26.67      -9999      57.8277    2.97516    0.62649    9.01807    2098.28   
26.8224    -9999      54.81442   2.97516    0.57969    8.942769999999999 2105.8    
26.9748    -9999      51.8024    2.97516    0.64076    8.879049999999999 2104.72   
27.1272    -9999      52.96883   2.97516    0.6508     8.91755    2103.46   
27.2796    -9999      54.51631   2.97516    0.70779    9.09469    2101.28   
27.432     -9999      58.89688   2.97516    0.64763    9.11097    2104.34   
27.5844    -9999      54.91158   2.97516    0.63144    9.127660000000001 2110.15   
27.7368    -9999      55.98036   2.97516    0.61429    9.25665    2117.94   
27.8892    -9999      54.89149   2.97516    0.62736    9.260680000000001 2120.59   
28.0416    -9999      55.96317   2.97516    0.54005    9.23864    2118.53   
28.194     -9999      57.9064    2.97516    0.52442    9.319900000000001 2110.08   
28.3464    -9999      58.41206   2.97516    0.6372     9.36872    2101.12   
28.4988    -9999      62.19169   2.97516    0.59482    9.493080000000001 2084.26   
28.6512    -9999      60.35386   2.97516    0.6077     9.22156    2062.9    
28.8036    -9999      60.66304   2.97516    0.62454    9.14809    2050.07   
28.956     -9999      60.76905   2.97516    0.60984    9.331480000000001 2050.19   
29.1084    -9999      61.65605   2.97516    0.76832    9.241770000000001 2061.39   
29.2608    -9999      63.91968   2.97516    0.74614    9.32944    2079.87   
29.4132    -9999      63.90107   2.97516    0.64353    9.50529    2099.12   
29.5656    -9999      61.80833   2.97516    0.63526    9.4642     2113.82   
29.718     -9999      60.79074   2.97516    0.63501    9.428280000000001 2111.57   
29.8704    -9999      60.79074   2.97516    0.57637    9.426830000000001 2102.9    
30.0228    -9999      58.78881   2.97516    0.6511400000000001 9.53642    2095.69   
30.1752    -9999      58.48864   2.97516    0.72301    9.55785    2100.16   
30.3276    -9999      54.23034   2.97516    0.79351    9.61026    2147.69   
30.48      -9999      52.57168   2.97516    0.63406    9.59783    2193.11   
30.6324    -9999      49.85858   2.97516    0.6923     10         2256.19   
30.7848    -9999      50.85435   2.97516    0.72276    9.96776    2239.51   
30.9372    -9999      57.08152   2.97516    0.78533    9.302379999999999 2204.49   
31.0896    -9999      59.11449   2.97516    0.73451    9.320819999999999 2141.66   
31.242     -9999      58.31312   2.97516    0.73812    9.34778    2117.16   
31.3944    -9999      55.00824   2.97516    0.74317    9.235569999999999 2116.25   
31.5468    -9999      52.77352   2.97516    0.6547500000000001 9.376860000000001 2119      
31.6992    -9999      49.85745   2.97516    0.54514    9.348240000000001 2125.01   
31.8516    -9999      49.85745   2.97516    0.60982    9.3817     2125.38   
32.004     -9999      53.64676   2.97516    0.59706    9.451499999999999 2124.36   
32.1564    -9999      58.40968   2.97516    0.60938    9.213469999999999 2120.9    
32.3088    -9999      60.24832   2.97516    0.70405    9.25362    2116.13   
32.4612    -9999      60.64606   2.97516    0.76823    9.35515    2107.27   
32.6136    -9999      62.1041    2.97516    0.64841    9.318020000000001 2096.25   
32.766     -9999      63.3672    2.97516    0.62       9.08624    2088.97   
32.9184    -9999      61.81196   2.97516    0.64048    9.01357    2091.72   
33.0708    -9999      61.99776   2.97516    0.68226    9.05287    2102.94   
33.2232    -9999      61.81208   2.97516    0.75749    9.046419999999999 2110.27   
33.3756    -9999      62.67343   2.97516    0.76508    9.08878    2107.39   
33.528     -9999      62.35064   2.97516    0.69211    9.066990000000001 2095.59   
33.6804    -9999      63.00219   2.97516    0.74341    9.024470000000001 2086.22   
33.8328    -9999      64.6681    2.97516    0.7116     9.104139999999999 2093.64   
33.9852    -9999      66.52016   2.97516    0.69299    9.20772    2105.16   
34.1376    -9999      67.80916999999999 2.97516    0.65428    9.20247    2110.39   
34.29      -9999      68.39239000000001 2.97516    0.70131    9.013579999999999 2104.53   
34.4424    -9999      70.14156   2.97516    0.65121    8.913399999999999 2098.34   
34.5948    -9999      70.63105   2.97516    0.65174    8.792070000000001 2095.69   
34.7472    -9999      72.56455   2.97516    0.56632    8.889480000000001 2091.89   
34.8996    -9999      71.53036   2.97516    0.65217    8.83318    2089.55   
35.052     -9999      72.88097999999999 2.97516    0.6829499999999999 8.784179999999999 2087.36   
