~Version
 VERS              .         2.0                           : CWLS LOG ASCII STANDARD - VERSION 2.0
 WRAP              .         NO                            : ONE LINE PER DEPTH STEP
 DLM               .         SPACE                         : DELIMITING CHARACTER(SPACE TAB OR COMMA)
~Well Information
#_______________________________________________________________________________
#
#PARAMETER_NAME    .UNIT     VALUE                         : DESCRIPTION
#_______________________________________________________________________________
STRT               .M        -26.9748                      : First reference value
STOP               .M        363.474                       : Last reference value
STEP               .M        0.1524                        : Step increment
NULL               .         -9999                         : Missing value
COMP               .                                       : Company
WELL               .         G                             : Well name
FLD                .                                       : Field
LOC                .                                       : Location
CNTY               .                                       : County
STAT               .                                       : State
CTRY               .                                       : Country
SRVC               .                                       : Service Company
DATE               .                                       : Date
API                .                                       : API number
~Parameter Information Block
#_______________________________________________________________________________
#
#PARAMETER_NAME    .UNIT     VALUE                         : DESCRIPTION
#_______________________________________________________________________________
SET                .         Logs                          : 
TLFamily_DEPT      .         Measured Depth                : 
TLFamily_DT        .         Compressional Slowness        : 
TLFamily_GR        .         Gamma Ray                     : 
TLFamily_ILD       .         Resistivity - Deep            : 
TLFamily_NPOR_LIM  .         Thermal Neutron Porosity Limestone: 
TLFamily_PEF       .         Photoelectric Factor          : 
TLFamily_RHO       .         Bulk Density                  : 
~Curve Information
#_______________________________________________________________________________
#
#LOGNAME           .UNIT     LOG_ID                        : DESCRIPTION
#_______________________________________________________________________________
DEPT               .M                                      : Depth Index 
DT                 .US/M                                   : DELTA-T 
GR                 .GAPI                                   : GAMMA-RAY 
ILD                .OHMM                                   : ARRAY INDUCTION ONE FOOT RESISTIVITY A90 
NPOR_LIM           .V/V                                    : ENHANCED THERMAL NEUTRON POROSITY (MATRIX LIMESTONE) 
PEF                .B/E                                    : HRDD HIGH RESOLUTION FORMATION PHOTOELECTRIC FACTOR 
RHO                .K/M3                                   : HRDD STANDARD RESOLUTION FORMATION DENSITY 
~Ascii
# ...
4.572      -9999      65.88955   2.97516    -0.02515   9.488530000000001 1326.71   
4.7244     -9999      81.14095   2.97516    -0.05404   10         1460.39   
4.8768     -9999      98.6301    2.97516    -0.03385   9.748089999999999 1474.96   
5.0292     -9999      107.02271  2.97516    -0.02143   9.97453    1440.29   
5.1816     -9999      115.07644  2.97516    -0.02282   9.82058    1493      
5.334      -9999      114.77063  2.97516    -0.02852   9.660450000000001 1611.05   
5.4864     -9999      128.77193  2.97516    -0.02488   9.44741    1653.11   
5.6388     -9999      123.96848  2.97516    -0.02175   9.38144    1604      
5.7912     -9999      119.02755  2.97516    -0.02636   9.75014    1522.82   
5.9436     -9999      102.74426  2.97516    -0.02618   9.755739999999999 1556.18   
6.096      -9999      103.74435  2.97516    -0.02026   9.677160000000001 1560.91   
6.2484     -9999      97.55934999999999 2.97516    -0.02396   9.698399999999999 1490.42   
6.4008     -9999      111.29593  2.97516    -0.02471   9.868080000000001 1381.87   
6.5532     -9999      119.55908  2.97516    -0.02248   10         1365.68   
6.7056     -9999      116.9349   2.97516    -0.02217   10         1433.84   
6.858      -9999      96.42666   2.97516    -0.02208   9.730460000000001 1489.72   
7.0104     -9999      75.33154   2.97516    -0.02645   9.45379    1431.92   
7.1628     -9999      67.9875    2.97516    -0.02364   9.368589999999999 1480.86   
7.3152     -9999      64.45451   2.97516    -0.0222    10         1471.24   
7.4676     -9999      58.04302   2.97516    -0.02561   9.779870000000001 1542.34   
7.62       -9999      58.99736   2.97516    -0.02015   9.861470000000001 1526.76   
7.7724     -9999      64.34054999999999 2.97516    -0.02301   9.86567    1511.21   
7.9248     -9999      74.73918999999999 2.97516    -0.02346   9.810890000000001 1456.91   
8.077199999999999 -9999      83.529     2.97516    -0.02275   9.71847    1385.98   
8.2296     -9999      80.02146999999999 2.97516    -0.01845   9.774179999999999 1373.88   
8.382      -9999      67.26062   2.97516    -0.02704   9.57508    1380.64   
8.5344     -9999      57.11565   2.97516    -0.0547    9.61439    1376.5    
8.6868     -9999      53.54158   2.97516    0.01106    9.624359999999999 1374.65   
8.8392     -9999      52.69046   2.97516    1.85714    9.711360000000001 1374.51   
8.9916     -9999      53.69861   2.97516    3.0214     9.61834    1376.91   
9.144      -9999      57.11363   2.97516    0.53348    9.864560000000001 1337.87   
9.2964     -9999      67.14951000000001 2.97516    0.48841    10         1370      
9.4488     -9999      71.82342   2.97516    0.47041    10         1539.37   
9.6012     -9999      71.426     2.97516    0.46478    5.15565    1703.13   
9.7536     -9999      61.81212   2.97516    0.505      3.3492     1792.71   
9.906000000000001 -9999      52.12796   2.97516    0.52439    3.40058    1754.36   
10.0584    -9999      47.76246   2.97516    0.58956    3.78156    1766.03   
10.2108    -9999      48.84405   2.97516    0.6349399999999999 4.14547    1767.44   
10.3632    -9999      52.95975   2.97516    0.67581    4.31694    1751.17   
10.5156    -9999      57.62546   2.97516    0.59357    4.05077    1728.79   
10.668     -9999      56.93268   2.97516    0.51385    3.65177    1718.03   
10.8204    -9999      54.15458   2.97516    0.49395    3.59695    1714.58   
10.9728    -9999      48.4133    2.97516    0.45316    3.60002    1707.72   
11.1252    -9999      47.05516   2.97516    0.50208    3.64447    1699.27   
11.2776    -9999      44.50946   2.97516    0.54889    3.49969    1688.23   
11.43      -9999      42.63105   2.97516    0.6096     3.69236    1681.04   
11.5824    -9999      38.74026   2.97516    0.6216     3.51012    1675.29   
11.7348    -9999      37.89052   2.97516    0.73038    3.62065    1678.2    
11.8872    -9999      37.17585   2.97516    0.66873    3.56887    1690.6    
12.0396    -9999      38.43402   2.97516    0.64866    3.55317    1705.13   
12.192     -9999      36.78774   2.97516    0.64869    3.66452    1718.82   
12.3444    -9999      36.99362   2.97516    0.66065    3.61931    1725.38   
12.4968    -9999      35.82767   2.97516    0.70002    3.61691    1733.3    
12.6492    -9999      36.65602   2.97516    0.7037099999999999 3.77815    1741.81   
12.8016    -9999      37.16482   2.97516    0.65202    3.74112    1756.37   
12.954     -9999      38.58992   2.97516    0.59234    3.94076    1779.11   
13.1064    -9999      41.04082   2.97516    0.58591    4.03009    1801.69   
13.2588    -9999      42.20719   2.97516    0.58236    4.21739    1820.12   
13.4112    -9999      46.01421   2.97516    0.61526    4.30985    1832.83   
13.5636    -9999      49.62875   2.97516    0.654      4.4602     1845.38   
13.716     -9999      51.61076   2.97516    0.63714    4.68922    1860.39   
13.8684    -9999      52.22812   2.97516    0.56425    4.79567    1869.19   
14.0208    -9999      53.57089   2.97516    0.63601    5.01358    1877.34   
14.1732    -9999      54.53564   2.97516    0.86066    5.08531    1895.53   
14.3256    -9999      56.46732   2.97516    0.66878    5.48005    1931.07   
14.478     -9999      55.97351   2.97516    0.66676    6.12636    1974.17   
14.6304    -9999      57.05001   2.97516    0.75076    6.44113    2003.81   
14.7828    -9999      52.96751   2.97516    0.81835    6.62933    2012.64   
14.9352    -9999      50.4413    2.97516    0.71162    6.6586     2006.85   
15.0876    -9999      50.63571   2.97516    0.79695    6.81277    1998.7    
15.24      -9999      49.26894   2.97516    0.70403    6.71024    1994.79   
15.3924    -9999      48.88688   2.97516    0.54659    6.6349     1997.94   
15.5448    -9999      44.22117   2.97516    0.5172099999999999 6.63768    2001.26   
15.6972    -9999      45.77576   2.97516    0.51905    6.67406    2001.02   
15.8496    -9999      45.78419   2.97516    0.58547    6.62891    1998.3    
16.002     -9999      48.20739   2.97516    0.64229    6.62031    1993.11   
16.1544    -9999      47.24195   2.97516    0.70729    6.712      1989.62   
16.3068    -9999      44.60356   2.97516    0.68698    6.64622    1983.73   
16.4592    -9999      42.86078   2.97516    0.62804    6.55772    1975.56   
16.6116    -9999      42.37477   2.97516    0.59733    6.65934    1968.09   
16.764     -9999      44.22084   2.97516    0.5767600000000001 6.58036    1967.22   
16.9164    -9999      46.2621    2.97516    0.55309    6.63105    2004.78   
17.0688    -9999      42.36964   2.97516    0.60889    6.50874    2055.17   
17.2212    -9999      38.97382   2.97516    0.6088     6.78301    2109.76   
17.3736    -9999      37.02977   2.97516    0.71434    6.56253    2110.6    
17.526     -9999      41.2499    2.97516    0.6811199999999999 6.48666    2081.91   
17.6784    -9999      43.67996   2.97516    0.55706    6.46006    2056.35   
17.8308    -9999      43.8681    2.97516    0.5394099999999999 6.67434    2059.08   
17.9832    -9999      45.48448   2.97516    0.4812     7.16312    2069.98   
18.1356    -9999      47.90767   2.97516    0.57695    6.78503    2058.33   
18.288     -9999      51.0244    2.97516    0.57168    7.00092    2038.08   
18.4404    -9999      58.12017   2.97516    0.57629    7.17508    2024.49   
18.5928    -9999      61.52084   2.97516    0.73438    6.93744    2016.8    
18.7452    -9999      65.70054   2.97516    0.7375699999999999 6.99953    2020.73   
18.8976    -9999      62.77595   2.97516    0.74466    7.19599    2028.81   
19.05      -9999      60.35717   2.97516    0.62802    7.41643    2042.79   
19.2024    -9999      56.07275   2.97516    0.55923    7.44738    2046.23   
19.3548    -9999      56.66449   2.97516    0.60226    7.50513    2045.02   
19.5072    -9999      57.0503    2.97516    0.75466    7.55386    2047.14   
19.6596    -9999      56.07868   2.97516    0.65812    7.62714    2054.62   
19.812     -9999      53.25981   2.97516    0.67638    7.78727    2062.07   
19.9644    -9999      56.05596   2.97516    0.67142    7.77657    2062.2    
