~Version
 VERS              .         2.0                           : CWLS LOG ASCII STANDARD - VERSION 2.0
 WRAP              .         NO                            : ONE LINE PER DEPTH STEP
 DLM               .         SPACE                         : DELIMITING CHARACTER(SPACE TAB OR COMMA)
~Well Information
#_______________________________________________________________________________
#
#PARAMETER_NAME    .UNIT     VALUE                         : DESCRIPTION
#_______________________________________________________________________________
STRT               .M        -26.9748                      : First reference value
STOP               .M        363.474                       : Last reference value
STEP               .M        0.1524                        : Step increment
NULL               .         -9999                         : Missing value
COMP               .                                       : Company
WELL               .         G                             : Well name
FLD                .                                       : Field
LOC                .                                       : Location
CNTY               .                                       : County
STAT               .                                       : State
CTRY               .                                       : Country
SRVC               .                                       : Service Company
DATE               .                                       : Date
API                .                                       : API number
~Parameter Information Block
#_______________________________________________________________________________
#
#PARAMETER_NAME    .UNIT     VALUE                         : DESCRIPTION
#_______________________________________________________________________________
SET                .         Logs                          : 
TLFamily_DEPT      .         Measured Depth                : 
TLFamily_DT        .         Compressional Slowness        : 
TLFamily_GR        .         Gamma Ray                     : 
TLFamily_ILD       .         Resistivity - Deep            : 
TLFamily_NPOR_LIM  .         Thermal Neutron Porosity Limestone: 
TLFamily_PEF       .         Photoelectric Factor          : 
TLFamily_RHO       .         Bulk Density                  : 
~Curve Information
#_______________________________________________________________________________
#
#LOGNAME           .UNIT     LOG_ID                        : DESCRIPTION
#_______________________________________________________________________________
DEPT               .M                                      : Depth Index 
DT                 .US/M                                   : DELTA-T 
GR                 .GAPI                                   : GAMMA-RAY 
ILD                .OHMM                                   : ARRAY INDUCTION ONE FOOT RESISTIVITY A90 
NPOR_LIM           .V/V                                    : ENHANCED THERMAL NEUTRON POROSITY (MATRIX LIMESTONE) 
PEF                .B/E                                    : HRDD HIGH RESOLUTION FORMATION PHOTOELECTRIC FACTOR 
RHO                .K/M3                                   : HRDD STANDARD RESOLUTION FORMATION DENSITY 
~Ascii
# ...
96.4692    534.18042  118.27927  2.94018    0.5675     2.58795    2111.82   
96.6216    532.46588  114.19677  3.05247    0.5073800000000001 2.62438    2116.85   
96.774     530.39563  115.74584  3.19702    0.51115    2.62344    2117.95   
96.9264    529.97644  118.85502  3.16667    0.5048899999999999 2.72606    2121.33   
97.0788    532.7330899999999 123.22913  3.12979    0.48706    2.58217    2125.17   
97.2312    534.05499  121.58286  3.11085    0.45619    2.56467    2114.02   
97.3836    536.78571  119.25098  3.13566    0.4904     2.58567    2105.05   
97.536     537.73187  115.5873   3.05115    0.49454    2.57454    2094.67   
97.6884    536.54791  116.75372  3.01367    0.55143    2.56802    2091.35   
97.8408    534.55304  111.7013   3.08823    0.54073    2.49094    2094.05   
97.9932    530.86169  113.51814  3.16281    0.51902    2.69138    2096.6    
98.1456    530.77118  110.60207  3.16525    0.5102     2.6148     2105.33   
98.298     533.63867  115.84882  3.12038    0.60482    2.52102    2100.67   
98.4504    536.04004  111.08591  3.11074    0.55613    2.65172    2092.4    
98.6028    536.89124  109.23907  3.07607    0.52342    2.60919    2092.61   
98.7552    535.76636  107.00434  3.11813    0.54098    2.60126    2085.41   
98.9076    531.71393  109.3372   3.25297    0.53286    2.70388    2097.8    
99.06      526.25739  111.75171  3.34791    0.5474     2.66265    2099.99   
99.2124    524.42841  110.01749  3.37948    0.50523    2.63618    2114.65   
99.3648    523.73132  109.53149  3.35094    0.48929    2.59692    2114.52   
99.5172    524.90436  109.04568  3.31669    0.50413    2.60986    2105.58   
99.6696    522.31458  110.1149   3.2147     0.51388    2.67162    2107.71   
99.822     520.06897  112.33435  3.75033    0.47489    2.52771    2113.16   
99.9744    519.3692600000001 111.76648  3.6958     0.44313    2.53983    2114.83   
100.1268   519.39636  113.61332  3.44204    0.52137    2.70419    2120.71   
100.2792   525.32935  111.8644   3.3167     0.55492    2.71084    2102.36   
100.4316   533.29437  110.89237  3.2611     0.55244    2.352      2097.31   
100.584    533.00067  106.47726  3.19288    0.49376    2.80369    2093.2    
100.7364   533.29755  101.82703  3.20686    0.48487    2.40696    2096.95   
100.8888   534.55609  100.54922  3.30795    0.48845    2.55567    2095.58   
101.0412   530.89404  101.95105  3.28324    0.48855    2.76998    2086.74   
101.1936   532.78723  103.73124  3.22468    0.47734    2.55169    2073.98   
101.346    533.2411499999999 105.77164  3.17376    0.46533    2.49834    2072.14   
101.4984   531.35376  106.45206  3.10383    0.50421    2.4872     2063.83   
101.6508   534.63068  104.96347  3.0305     0.52633    2.47018    2067.35   
101.8032   536.3371   103.6032   2.90805    0.51409    2.45547    2058.83   
101.9556   537.14117  101.75636  2.80795    0.5515600000000001 2.34944    2053.1    
102.108    537.13782  101.54838  2.84934    0.52357    2.38174    2053.98   
102.2604   538.5296   100.78522  2.90146    0.50712    2.46494    2052.62   
102.4128   537.94659  96.70273   2.89148    0.54766    2.51145    2052.96   
102.5652   536.7196   96.31408   2.77073    0.58746    2.55509    2044.19   
102.7176   535.61011  97.38330000000001 2.75128    0.48076    2.39924    2040      
102.87     536.22266  99.13294   2.76274    0.49869    2.38202    2017.34   
103.0224   534.91309  101.85348  2.58706    0.56717    2.56457    2009.2    
103.1748   535.75317  98.35419   2.5664     0.56618    2.30995    1985.06   
103.3272   536.45691  99.89558   2.50408    0.53808    2.64871    1992.32   
103.4796   534.50543  97.09126000000001 2.45213    0.54328    2.13559    1995.43   
103.632    535.7373700000001 100.00732  2.40107    0.55037    2.30557    2020.47   
103.7844   536.73865  102.33921  2.33461    0.60219    2.3388     2022.07   
103.9368   539.7063000000001 106.90771  2.35898    0.5755     2.29602    2022.33   
104.0892   539.79596  105.82458  2.54362    0.55847    2.56973    2016.83   
104.2416   540.8876299999999 100.39609  2.53344    0.52379    2.40044    2014.64   
104.394    540.94598  98.35484   2.4425     0.59229    2.42177    2016.08   
104.5464   538.32721  101.36686  2.30046    0.53467    2.4912     2027.4    
104.6988   531.68781  105.15775  2.3938     0.54942    2.36501    2046.38   
104.8512   509.75848  101.46407  2.43334    0.56625    2.54161    2112.71   
105.0036   510.73541  91.99491   2.66671    0.52532    3.22402    2192.35   
105.156    512.49023  87.92898   3.31276    0.5237000000000001 4.69603    2231.2    
105.3084   517.59753  85.97284999999999 2.73739    0.58985    2.62053    2173.68   
105.4608   535.0368   91.95788   2.78737    0.5691000000000001 2.77483    2098.38   
105.6132   535.85132  95.44059   2.76386    0.59283    2.3549     2057.26   
105.7656   534.12976  101.36747  2.66758    0.54996    2.71795    2063.77   
105.918    533.47675  101.75629  2.65974    0.59653    2.68518    2059.04   
106.0704   532.83838  100.09064  2.63104    0.55359    2.52334    2047.69   
106.2228   533.33533  98.16113   2.57872    0.54016    2.50687    2039.18   
106.3752   534.6011999999999 100.00797  2.49184    0.56298    2.51597    2033.71   
106.5276   536.9342   99.81365   2.41909    0.56374    2.46318    2048.13   
106.68     537.97711  99.61924   2.38427    0.52244    2.41107    2054.36   
106.8324   537.23785  94.74652   2.3389     0.52337    2.45048    2067.72   
106.9848   537.73877  97.77293   2.34352    0.55588    2.59254    2076.39   
107.1372   534.65948  99.13376   2.47066    0.51537    2.50822    2080.64   
107.2896   535.55328  102.43726  2.4204     0.51241    2.44358    2073.89   
107.442    537.66986  98.54917   2.42319    0.57777    2.59316    2062.81   
107.5944   536.30188  95.63311   2.46107    0.56401    2.7743     2069.62   
107.7468   533.97699  94.66149   2.3392     0.5071600000000001 2.61727    2077.56   
107.8992   535.22217  97.28595   2.3701     0.51284    2.56942    2088.5    
108.0516   534.49994  97.07861   2.61472    0.52776    2.71421    2086.77   
108.204    533.6629   98.16142000000001 2.57443    0.54076    2.63731    2092.69   
108.3564   535.19507  98.06422000000001 2.49929    0.5611     2.51369    2091.03   
108.5088   530.90491  97.28693   2.52137    0.5843699999999999 2.57068    2095.37   
108.6612   529.33978  96.70374   2.55628    0.61595    2.73564    2093.46   
108.8136   524.94287  95.63451999999999 2.64845    0.49825    2.71734    2098.37   
108.966    521.25476  101.22946  2.92701    0.56119    2.59824    2103.99   
109.1184   518.92621  103.95109  3.09805    0.49943    2.5482     2110.02   
109.2708   516.28424  102.28596  3.00224    0.54049    2.63029    2113.99   
109.4232   516.15607  99.81408999999999 2.91111    0.53343    2.72941    2103.84   
109.5756   516.6925   95.7316    2.81629    0.55219    2.56468    2097.85   
109.728    514.5824   103.01874  2.81021    0.5128200000000001 2.87114    2102.84   
109.8804   511.14166  102.53272  2.86113    0.51878    2.35038    2111.48   
110.0328   508.04013  103.05579  2.89914    0.5223100000000001 2.69084    2125.12   
110.1852   503.12473  98.95826   2.88966    0.52885    2.83091    2123.45   
110.3376   496.82275  101.71035  3.47344    0.50813    2.80039    2141.23   
110.49     492.47803  103.81174  4.24123    0.47031    2.85115    2156.71   
110.6424   500.06915  102.24652  3.71731    0.43862    2.46157    2162.48   
110.7948   500.8999   102.76099  3.43968    0.51418    2.60656    2134.76   
110.9472   501.43274  101.59457  3.32589    0.50806    2.89921    2105.28   
111.0996   502.93924  101.52476  3.41318    0.50078    2.31279    2089.42   
111.252    488.52625  100.59106  3.29929    0.54166    2.38276    2097.45   
111.4044   516.5589   99.42464   3.40131    0.48775    2.48536    2033.06   
111.5568   513.95313  98.84166999999999 3.68498    0.51627    2.71982    1954.61   
111.7092   510.1626   95.82839   4.04809    0.52119    1.88717    1919.1    
111.8616   516.50122  100.38168  3.84577    0.46035    2.44248    2001.13   
