~Version
 VERS              .         2.0                           : CWLS LOG ASCII STANDARD - VERSION 2.0
 WRAP              .         NO                            : ONE LINE PER DEPTH STEP
 DLM               .         SPACE                         : DELIMITING CHARACTER(SPACE TAB OR COMMA)
~Well Information
#_______________________________________________________________________________
#
#PARAMETER_NAME    .UNIT     VALUE                         : DESCRIPTION
#_______________________________________________________________________________
STRT               .M        -26.9748                      : First reference value
STOP               .M        363.474                       : Last reference value
STEP               .M        0.1524                        : Step increment
NULL               .         -9999                         : Missing value
COMP               .                                       : Company
WELL               .         G                             : Well name
FLD                .                                       : Field
LOC                .                                       : Location
CNTY               .                                       : County
STAT               .                                       : State
CTRY               .                                       : Country
SRVC               .                                       : Service Company
DATE               .                                       : Date
API                .                                       : API number
~Parameter Information Block
#_______________________________________________________________________________
#
#PARAMETER_NAME    .UNIT     VALUE                         : DESCRIPTION
#_______________________________________________________________________________
SET                .         Logs                          : 
TLFamily_DEPT      .         Measured Depth                : 
TLFamily_DT        .         Compressional Slowness        : 
TLFamily_GR        .         Gamma Ray                     : 
TLFamily_ILD       .         Resistivity - Deep            : 
TLFamily_NPOR_LIM  .         Thermal Neutron Porosity Limestone: 
TLFamily_PEF       .         Photoelectric Factor          : 
TLFamily_RHO       .         Bulk Density                  : 
~Curve Information
#_______________________________________________________________________________
#
#LOGNAME           .UNIT     LOG_ID                        : DESCRIPTION
#_______________________________________________________________________________
DEPT               .M                                      : Depth Index 
DT                 .US/M                                   : DELTA-T 
GR                 .GAPI                                   : GAMMA-RAY 
ILD                .OHMM                                   : ARRAY INDUCTION ONE FOOT RESISTIVITY A90 
NPOR_LIM           .V/V                                    : ENHANCED THERMAL NEUTRON POROSITY (MATRIX LIMESTONE) 
PEF                .B/E                                    : HRDD HIGH RESOLUTION FORMATION PHOTOELECTRIC FACTOR 
RHO                .K/M3                                   : HRDD STANDARD RESOLUTION FORMATION DENSITY 
~Ascii
# ...
345.948    402.55899  111.45133  7.85518    0.3229     2.34308    2312.79   
346.1004   402.46884  109.92056  7.95314    0.36244    2.3962     2326.03   
346.2528   403.4881   110.65334  8.119809999999999 0.36149    2.48779    2327.43   
346.4052   403.95602  110.43465  7.91331    0.34965    2.40297    2325.75   
346.5576   404.3837   108.94428  7.45243    0.375      2.35648    2316.65   
346.71     407.84985  107.52285  6.98708    0.37868    2.23315    2321.18   
346.8624   411.49966  105.99207  7.07372    0.36312    2.38504    2326.31   
347.0148   414.31488  109.39199  8.09699    0.42539    2.3571     2304.14   
347.1672   415.76965  106.91679  8.637309999999999 0.37738    2.40644    2273.63   
347.3196   413.87433  100.15737  7.8957     0.32296    2.18815    2243.35   
347.472    413.76733  91.90604   10.56505   0.31079    1.98901    2242.65   
347.6244   410.8848   99.73895   11.40132   0.31473    2.16769    2254.3    
347.7768   407.53452  106.49837  6.50857    0.33466    2.34946    2287.2    
347.9292   405.51785  117.97919  3.00552    0.39493    2.38341    2327.72   
348.0816   403.15067  116.225    5.61714    0.35411    2.39187    2360.84   
348.234    403.08188  111.30463  5.91583    0.3432     2.61979    2361.8    
348.3864   407.5163   100.49273  6.04194    0.36678    2.55266    2323.53   
348.5388   417.45172  83.98694999999999 7.28688    0.36417    2.08101    2257      
348.6912   420.81311  76.00503999999999 10.29577   0.34774    1.87039    2179.12   
348.8436   424.83636  67.89073999999999 15.62061   0.37089    1.88518    2139.5    
348.996    427.03342  64.0638    13.82242   0.39291    2.31828    2158.53   
349.1484   412.04587  62.28935   12.66695   0.33309    2.9168     2198.84   
349.3008   397.5188   64.15833000000001 7.58566    0.34637    2.08345    2286.65   
349.4532   373.00137  66.45449000000001 4.71204    0.3518     2.40915    2427.87   
349.6056   346.72729  68.43626999999999 3.92923    0.30219    5.47828    2607.37   
349.758    328.32715  65.81207999999999 8.130330000000001 0.33998    5.83821    2708.8    
349.9104   318.82098  69.16969   19.44226   0.2983     5.08523    2708.43   
350.0628   309.28787  68.30629999999999 19.4236    0.22943    4.98833    2658.13   
350.2152   306.89679  70.38379   25.64753   0.20836    4.7425     2624.69   
350.3676   310.45581  71.30462   27.73603   0.18655    4.43672    2591.57   
350.52     315.86771  73.32001   27.23233   0.18512    4.27476    2579.35   
350.6724   322.05438  80.26459   24.74926   0.21377    4.29149    2565.67   
350.8248   325.87616  79.39292   21.70627   0.21816    4.23798    2578.7    
350.9772   326.17477  79.50677   20.85546   0.21414    4.32192    2579.06   
351.1296   325.34271  76.58215   19.95174   0.23856    4.10007    2573.78   
351.282    324.74432  80.75179   21.75639   0.22338    4.02463    2554.52   
351.4344   322.02115  82.90949000000001 21.68299   0.21612    4.0941     2545.96   
351.5868   321.50769  82.32974   23.0613    0.22961    4.07164    2554.19   
351.7392   323.40091  81.59529999999999 21.12195   0.21953    4.13435    2570.65   
351.8916   323.65585  79.85404   28.02468   0.20299    4.22754    2571.04   
352.044    328.30072  79.74509   24.28456   0.21453    4.04478    2565.93   
352.1964   332.14807  78.79868   17.41256   0.24275    4.07258    2551.89   
352.3488   332.97275  79.14664   21.48293   0.2262     4.00695    2548.26   
352.5012   333.53491  79.06425   20.78422   0.22597    4.02482    2541.18   
352.6536   334.38168  77.6065    20.09721   0.22415    3.92575    2540.48   
352.806    334.06036  78.88701   19.87324   0.21797    4.09578    2537.31   
352.9584   334.00577  78.80575   20.66275   0.22736    4.13731    2541.25   
353.1108   334.01273  81.61839999999999 20.55512   0.22649    4.12282    2547.63   
353.2632   333.99722  80.85800999999999 22.0464    0.2092     4.09744    2551.47   
353.4156   333.99026  96.48895   21.54238   0.2139     4.15163    2556.5    
353.568    334.02454  110.55188  21.26972   0.21435    4.11921    2551.83   
353.7204   334.01385  125.60861  21.46942   0.212      4.18838    2554.68   
353.8728   334.05222  125.60861  21.53952   0.20991    4.11818    2549.67   
354.0252   334.07352  125.60861  21.97413   0.21826    4.11163    2556.22   
354.1776   334.11478  125.60861  22.82886   0.21798    4.05476    2554.15   
354.33     334.14758  125.60861  21.97553   0.21567    4.06604    2544.04   
354.4824   334.17725  125.60861  21.10139   0.21127    4.05655    2531.06   
354.6348   334.20004  125.60861  21.03842   0.21172    4.10386    2531.39   
354.7872   334.27893  125.60861  23.14118   0.21451    4.17871    2544.89   
354.9396   334.29852  125.60861  21.58964   0.21893    4.08973    2553.63   
355.092    334.37399  125.60861  20.28518   0.20768    4.00887    2556.57   
355.2444   334.44626  125.60861  20.52824   0.20637    4.10044    2551.59   
355.3968   334.50046  125.60861  20.28038   0.20193    4.13342    2545.52   
355.5492   334.55847  125.60861  18.83867   0.18514    4.14614    2531.3    
355.7016   334.5864   125.60861  17.8165    0.18933    4.1346     2521.77   
355.854    334.63113  125.60861  18.11555   0.19313    3.95272    2521.49   
356.0064   334.63113  125.60861  18.0335    0.19278    4.00207    2526.75   
356.1588   334.63113  125.60861  17.93579   0.19278    4.01976    2531.02   
356.3112   334.63113  125.60861  18.92621   0.19278    4.07047    2520.32   
356.4636   334.63113  125.60861  17.85466   0.19266    4.03103    2508.08   
356.616    334.63113  125.60861  17.26944   0.19291    3.96796    2510.63   
356.7684   334.63113  125.60861  17.92511   0.19287    4.05098    2527.56   
356.9208   334.63113  125.60861  24.48462   0.19295    4.45984    2558.55   
357.0732   334.63113  125.60861  27.45138   0.19386    4.68197    2585.55   
357.2256   334.63113  125.60861  24.44958   0.19402    4.99144    2614.78   
357.378    334.63113  125.60861  38.98741   0.19402    5.02312    2632.94   
357.5304   334.63113  125.60861  67.12526   0.19402    5.00012    2645.35   
357.6828   334.63113  125.60861  78.5873    0.19402    4.96444    2649.09   
357.8352   334.63113  125.60861  70.71839   0.19402    4.94742    2651.15   
357.9876   334.63113  125.60861  63.50198   0.19402    4.93526    2648.81   
358.14     334.63113  125.60861  56.27127   0.19402    4.86347    2647.27   
358.2924   334.63113  125.60861  55.13654   0.19402    4.86626    2638.86   
358.4448   334.63113  125.60861  53.98466   0.19402    4.77657    2623.43   
358.5972   334.63113  125.60861  57.25811   0.19402    4.67561    2434.54   
358.7496   334.63113  125.60861  54.64945   0.19402    4.51745    2224.89   
358.902    334.63113  125.60861  54.21917   0.19402    2.95129    2071.99   
359.0544   334.63113  125.60861  49.83614   0.19402    3.67188    2119.78   
359.2068   334.63113  125.60861  42.83947   0.19402    3.18027    2203.13   
359.3592   334.63113  125.60861  42.8271    0.19402    3.0742     2239.93   
359.5116   334.63113  125.60861  43.47011   0.19402    3.02938    2248.44   
359.664    334.63113  125.60861  43.89709   0.19402    3.01791    2249.85   
359.8164   334.63113  125.60861  45.27791   0.19402    3.01698    2249.87   
359.9688   334.63113  125.60861  47.15686   0.19402    3.01668    2249.87   
360.1212   334.63113  125.60861  41.80473   0.19402    3.01642    2249.87   
360.2736   334.63113  125.60861  36.66227   0.19402    3.01617    2249.87   
360.426    334.63113  125.60861  32.52216   0.19402    3.01592    2249.87   
360.5784   334.63113  125.60861  39.29254   0.19402    3.01566    2249.87   
360.7308   334.63113  125.60861  39.08279   0.19402    3.01542    2249.87   
360.8832   334.63113  125.60861  35.78564   0.19402    3.01519    2249.87   
361.0356   334.63113  125.60861  35.06164   0.19402    3.01498    2249.87   
361.188    334.63113  125.60861  35.8741    0.19402    3.01476    2249.92   
361.3404   334.63113  125.60861  37.06176   0.19402    3.01439    2250.02   
361.4928   334.63113  125.60861  36.94257   0.19402    3.01279    2250.17   
