~Version
 VERS              .         2.0                           : CWLS LOG ASCII STANDARD - VERSION 2.0
 WRAP              .         NO                            : ONE LINE PER DEPTH STEP
 DLM               .         SPACE                         : DELIMITING CHARACTER(SPACE TAB OR COMMA)
~Well Information
#_______________________________________________________________________________
#
#PARAMETER_NAME    .UNIT     VALUE                         : DESCRIPTION
#_______________________________________________________________________________
STRT               .M        -26.9748                      : First reference value
STOP               .M        363.474                       : Last reference value
STEP               .M        0.1524                        : Step increment
NULL               .         -9999                         : Missing value
COMP               .                                       : Company
WELL               .         G                             : Well name
FLD                .                                       : Field
LOC                .                                       : Location
CNTY               .                                       : County
STAT               .                                       : State
CTRY               .                                       : Country
SRVC               .                                       : Service Company
DATE               .                                       : Date
API                .                                       : API number
~Parameter Information Block
#_______________________________________________________________________________
#
#PARAMETER_NAME    .UNIT     VALUE                         : DESCRIPTION
#_______________________________________________________________________________
SET                .         Logs                          : 
TLFamily_DEPT      .         Measured Depth                : 
TLFamily_DT        .         Compressional Slowness        : 
TLFamily_GR        .         Gamma Ray                     : 
TLFamily_ILD       .         Resistivity - Deep            : 
TLFamily_NPOR_LIM  .         Thermal Neutron Porosity Limestone: 
TLFamily_PEF       .         Photoelectric Factor          : 
TLFamily_RHO       .         Bulk Density                  : 
~Curve Information
#_______________________________________________________________________________
#
#LOGNAME           .UNIT     LOG_ID                        : DESCRIPTION
#_______________________________________________________________________________
DEPT               .M                                      : Depth Index 
DT                 .US/M                                   : DELTA-T 
GR                 .GAPI                                   : GAMMA-RAY 
ILD                .OHMM                                   : ARRAY INDUCTION ONE FOOT RESISTIVITY A90 
NPOR_LIM           .V/V                                    : ENHANCED THERMAL NEUTRON POROSITY (MATRIX LIMESTONE) 
PEF                .B/E                                    : HRDD HIGH RESOLUTION FORMATION PHOTOELECTRIC FACTOR 
RHO                .K/M3                                   : HRDD STANDARD RESOLUTION FORMATION DENSITY 
~Ascii
# ...
283.1592   486.72842  56.08502   33.98643   0.1132     1.70413    2045.86   
283.3116   492.49908  60.71518   22.75505   0.15266    1.75802    2061.92   
283.464    487.66943  63.80196   17.54018   0.22544    1.87136    2076.58   
283.6164   475.80032  64.41061000000001 22.27339   0.18848    1.87413    2070.01   
283.7688   491.31122  64.83219   26.06522   0.15491    1.80965    2049.4    
283.9212   490.95749  59.37889   24.2997    0.14802    1.94384    2037.19   
284.0736   475.62152  55.05741   30.56397   0.13201    1.68916    2038.59   
284.226    464.80869  53.6069    19.05583   0.15797    1.7781     2070.67   
284.3784   443.05511  57.35935   13.24083   0.26944    1.79901    2118.07   
284.5308   432.24289  59.77657   10.06623   0.32893    1.91677    2143.95   
284.6832   417.94284  53.80881   9.427619999999999 0.34351    1.74048    2140.51   
284.8356   419.56271  52.82474   9.549530000000001 0.30701    1.69308    2137.74   
284.988    413.97263  54.86599   10.34843   0.29359    1.80168    2147.4    
285.1404   409.17886  59.08458   10.20152   0.2788     1.78835    2157.43   
285.2928   408.20142  59.40297   10.27518   0.29389    1.76389    2168.79   
285.4452   408.82141  54.85711   10.21593   0.30772    1.83933    2170.44   
285.5976   413.12482  48.58067   10.03527   0.31338    1.83311    2156.74   
285.75     412.42276  42.81869   9.377509999999999 0.2931     1.63844    2140.39   
285.9024   414.61874  43.63372   9.17516    0.2872     1.64261    2129.54   
286.0548   400.09515  45.27999   9.47181    0.28849    1.71124    2142.1    
286.2072   392.08633  43.32504   9.21063    0.28409    1.63023    2154.8    
286.3596   400.0513   37.14411   10.16314   0.25741    2.23211    2159.05   
286.512    409.53439  32.51848   9.323600000000001 0.29237    2.27893    2144.07   
286.6644   426.64694  33.75319   8.84155    0.31629    1.61441    2116.76   
286.8168   436.75952  39.30938   9.118      0.30646    1.63128    2112.36   
286.9692   434.08191  47.74202   9.57502    0.30028    1.63076    2127.62   
287.1216   432.58066  52.27695   10.01783   0.34159    1.88613    2140.68   
287.274    435.3652   54.2319    9.919779999999999 0.34161    1.69806    2127.24   
287.4264   444.27277  51.76249   10.2173    0.33437    1.68942    2100.53   
287.5788   447.88925  52.47508   11.50079   0.3356     1.67419    2085.32   
287.7312   446.32675  54.33593   10.8153    0.33131    1.6893     2094.17   
287.8836   435.43188  63.39046   10.4149    0.29457    1.74618    2135.87   
288.036    427.82471  71.21029   9.834099999999999 0.30199    1.93265    2179.99   
288.1884   423.14771  75.52298   10.12065   0.36526    1.94566    2203.33   
288.3408   421.75534  70.87694999999999 11.46793   0.34207    1.73182    2195.11   
288.4932   428.64642  66.72136999999999 11.41258   0.31025    1.79423    2176.48   
288.6456   428.1908   61.78254   10.31647   0.32746    1.7904     2154.24   
288.798    425.9888   63.23891   10.03114   0.34033    1.70612    2144.49   
288.9504   425.92328  62.87664   9.63039    0.3146     1.74835    2144.69   
289.1028   425.29019  62.46507   9.83841    0.30079    1.7881     2150.94   
289.2552   428.7872   60.30433   9.369109999999999 0.32921    1.71993    2143.78   
289.4076   432.45587  59.34009   8.714919999999999 0.31795    1.87637    2135.58   
289.56     430.76459  59.34009   9.20185    0.33182    1.77384    2135.38   
289.7124   426.46582  55.63597   10.10561   0.30707    1.69744    2141.2    
289.8648   419.78125  54.43851   10.39325   0.29302    1.74896    2148.2    
290.0172   411.69885  56.59925   10.63431   0.29851    1.70365    2158.96   
290.1696   412.38574  60.61206   11.18666   0.286      1.81013    2166.57   
290.322    413.56393  57.40108   10.88243   0.29873    1.77298    2151.08   
290.4744   419.18988  49.64777   10.30138   0.32551    1.64285    2132.34   
290.6268   426.22849  42.3424    9.92146    0.30118    1.61977    2114.78   
290.7792   425.15771  41.01764   9.648529999999999 0.31445    1.72475    2125.1    
290.9316   421.03461  43.52344   9.27951    0.29813    1.63499    2141.53   
291.084    422.22595  48.67603   10.02704   0.27367    1.79018    2158.84   
291.2364   423.33722  49.29338   10.05197   0.33293    1.81742    2159.58   
291.3888   423.60165  51.7628    9.3225     0.33407    1.67975    2151.79   
291.5412   426.49698  54.73871   8.648540000000001 0.297      1.83632    2152.8    
291.6936   422.73444  61.84816   9.31495    0.33385    1.73709    2159.64   
291.846    420.39279  67.19857   9.69233    0.31819    1.82986    2161.94   
291.9984   423.36856  68.22750000000001 9.54594    0.35186    1.88681    2157.24   
292.1508   429.00516  67.65533000000001 9.48185    0.32772    1.77023    2151.17   
292.3032   434.53857  64.79137   8.32554    0.37728    2.05126    2133.75   
292.4556   434.89771  59.33807   8.45701    0.41054    1.67696    2118.73   
292.608    430.36017  51.2574    9.01948    0.29802    1.63412    2125.19   
292.7604   424.87939  52.06352   9.796799999999999 0.2615     1.72264    2145.8    
292.9128   421.70703  59.99672   10.13509   0.28133    1.88498    2158.56   
293.0652   419.93295  68.56567   9.79692    0.30672    1.82349    2156.5    
293.2176   417.5455   69.70124   9.51397    0.323      1.8481     2165.73   
293.37     410.48441  68.55894000000001 9.53079    0.31601    1.83609    2183.83   
293.5224   407.67389  68.46174000000001 9.655150000000001 0.30287    1.93321    2191.7    
293.6748   410.10577  62.38733   10.56763   0.30015    1.89427    2177.48   
293.8272   418.24677  51.68652   9.699909999999999 0.3373     1.83596    2142.95   
293.9796   426.96811  41.56407   9.00023    0.31644    1.62179    2106.22   
294.132    429.35538  36.07376   9.0039     0.28401    1.60122    2083.09   
294.2844   430.76273  34.63327   8.710839999999999 0.30487    1.63818    2072.67   
294.4368   426.11945  34.22612   8.52548    0.29899    1.59905    2074.1    
294.5892   418.86899  38.6875    8.74892    0.30073    1.58864    2091.9    
294.7416   414.05225  47.13338   9.14992    0.30916    1.63836    2131.38   
294.894    412.81839  54.21034   9.986829999999999 0.30468    1.85646    2150.87   
295.0464   411.70511  55.75373   9.959300000000001 0.3382     1.70992    2140.07   
295.1988   417.81277  52.55536   9.41948    0.34365    1.68036    2108.78   
295.3512   421.43417  48.46228   9.377090000000001 0.30721    1.72892    2098.92   
295.5036   418.74612  47.54341   9.10295    0.28117    1.69935    2100.73   
295.656    419.68207  46.10292   8.80315    0.29634    1.67108    2103.38   
295.8084   420.21985  43.73639   8.512029999999999 0.29885    1.67971    2101.75   
295.9608   421.10803  35.29205   8.364229999999999 0.27717    1.63128    2102.12   
296.1132   423.82297  31.69589   8.455270000000001 0.29581    1.5512     2103.1    
296.2656   425.77744  30.76986   8.569660000000001 0.27724    1.64314    2103.63   
296.418    427.02612  33.85663   8.25135    0.30291    1.47359    2097.72   
296.5704   428.69833  31.29359   7.9132     0.3112     1.55171    2086.47   
296.7228   429.07123  29.8531    8.26948    0.27978    1.61261    2073.75   
296.8752   430.02573  29.54442   8.443250000000001 0.29919    1.59859    2070.1    
297.0276   431.05923  30.46046   8.629799999999999 0.32332    1.62409    2069.28   
297.18     431.57938  30.46046   8.64189    0.29363    1.53407    2064.59   
297.3324   435.22403  27.57947   8.59844    0.29423    1.47293    2050.96   
297.4848   437.34503  29.11851   8.17083    0.30258    1.48781    2040.62   
297.6372   431.78629  32.00516   9.186349999999999 0.3186     1.58917    2041.89   
297.7896   424.88568  41.16259   11.41546   0.30669    1.57109    2065.67   
297.942    423.86893  47.23324   18.2569    0.31671    1.70153    2093.27   
298.0944   422.34     48.2565    25.58173   0.35792    1.75587    2099.8    
298.2468   428.6297   45.69049   36.84433   0.34987    1.71235    2075.42   
298.3992   437.25864  39.00248   31.19583   0.3367     1.6816     2044.04   
298.5516   436.97937  35.29836   26.12198   0.33186    1.65181    2034.95   
