~Version
 VERS              .         2.0                           : CWLS LOG ASCII STANDARD - VERSION 2.0
 WRAP              .         NO                            : ONE LINE PER DEPTH STEP
 DLM               .         SPACE                         : DELIMITING CHARACTER(SPACE TAB OR COMMA)
~Well Information
#_______________________________________________________________________________
#
#PARAMETER_NAME    .UNIT     VALUE                         : DESCRIPTION
#_______________________________________________________________________________
STRT               .M        -26.9748                      : First reference value
STOP               .M        363.474                       : Last reference value
STEP               .M        0.1524                        : Step increment
NULL               .         -9999                         : Missing value
COMP               .                                       : Company
WELL               .         G                             : Well name
FLD                .                                       : Field
LOC                .                                       : Location
CNTY               .                                       : County
STAT               .                                       : State
CTRY               .                                       : Country
SRVC               .                                       : Service Company
DATE               .                                       : Date
API                .                                       : API number
~Parameter Information Block
#_______________________________________________________________________________
#
#PARAMETER_NAME    .UNIT     VALUE                         : DESCRIPTION
#_______________________________________________________________________________
SET                .         Logs                          : 
TLFamily_DEPT      .         Measured Depth                : 
TLFamily_DT        .         Compressional Slowness        : 
TLFamily_GR        .         Gamma Ray                     : 
TLFamily_ILD       .         Resistivity - Deep            : 
TLFamily_NPOR_LIM  .         Thermal Neutron Porosity Limestone: 
TLFamily_PEF       .         Photoelectric Factor          : 
TLFamily_RHO       .         Bulk Density                  : 
~Curve Information
#_______________________________________________________________________________
#
#LOGNAME           .UNIT     LOG_ID                        : DESCRIPTION
#_______________________________________________________________________________
DEPT               .M                                      : Depth Index 
DT                 .US/M                                   : DELTA-T 
GR                 .GAPI                                   : GAMMA-RAY 
ILD                .OHMM                                   : ARRAY INDUCTION ONE FOOT RESISTIVITY A90 
NPOR_LIM           .V/V                                    : ENHANCED THERMAL NEUTRON POROSITY (MATRIX LIMESTONE) 
PEF                .B/E                                    : HRDD HIGH RESOLUTION FORMATION PHOTOELECTRIC FACTOR 
RHO                .K/M3                                   : HRDD STANDARD RESOLUTION FORMATION DENSITY 
~Ascii
# ...
205.5876   461.6958   52.68843   16.78541   0.38283    2.38178    2023.56   
205.74     459.1709   54.64338   16.67727   0.37916    2.25999    2027.53   
205.8924   444.50446  56.18677   17.31654   0.38159    2.3042     2043.28   
206.0448   435.40088  55.66478   19.20666   0.36963    2.44487    2077.45   
206.1972   434.33987  56.29097   25.0607    0.34316    3.171      2103.07   
206.3496   437.93607  54.74759   22.62751   0.40027    2.90513    2091.12   
206.502    451.75702  59.37775   19.16534   0.39004    2.3477     2053.61   
206.6544   460.27042  57.23686   17.56045   0.3861     2.2745     2024.18   
206.8068   461.14413  59.50049   16.7925    0.41348    2.29813    2017.64   
206.9592   460.76245  58.26578   16.39338   0.40881    2.18167    2019.32   
207.1116   459.59814  59.17142   16.46989   0.41207    2.2464     2017.77   
207.264    457.24484  56.18754   16.93043   0.41413    2.20819    2020.12   
207.4164   456.09991  55.4673    17.11804   0.42792    2.23477    2025.1    
207.5688   455.84262  56.07636   16.96906   0.39994    2.30535    2027.59   
207.7212   456.51913  56.18214   16.73908   0.42203    2.28077    2029.22   
207.8736   458.67664  55.3125    16.35118   0.41222    2.23086    2026.99   
208.026    459.27805  55.54725   16.1901    0.40968    2.27897    2027.16   
208.1784   459.72238  55.85304   15.77474   0.41089    2.24256    2025.3    
208.3308   460.0943   56.92847   15.67008   0.40403    2.25676    2023.31   
208.4832   459.20355  55.6729    15.29461   0.39137    2.23985    2021.07   
208.6356   456.41531  56.59893   14.81168   0.40836    2.27683    2019.79   
208.788    451.6658   58.14232   15.52935   0.4098     2.25789    2025.67   
208.9404   445.50482  58.95735   16.2227    0.40696    2.32871    2038.27   
209.0928   440.06314  58.86266   16.9173    0.42172    2.3586     2055.07   
209.2452   435.09146  58.45108   17.52452   0.42564    2.65653    2071.15   
209.3976   430.09875  59.78868   17.80384   0.38814    2.64621    2075.11   
209.55     426.01016  61.32387   18.33294   0.39734    2.55255    2077.91   
209.7024   423.65872  61.02412   18.82119   0.39031    2.72936    2083.71   
209.8548   423.02856  58.34892   19.88146   0.40498    2.72312    2090.43   
210.0072   428.30539  58.76048   19.34538   0.38756    2.81963    2086.91   
210.1596   436.89758  59.0379    18.21014   0.39349    2.79055    2070.17   
210.312    443.94272  61.09575   16.65333   0.41464    2.36188    2058.67   
210.4644   449.9967   62.84492   16.09635   0.36318    2.17098    2052.23   
210.6168   452.21149  62.95426   15.76096   0.39742    2.19051    2047.55   
210.7692   452.15402  61.52192   15.64354   0.41407    2.18892    2040.74   
210.9216   450.89056  59.56697   15.62383   0.39119    2.2313     2036.76   
211.074    448.99814  55.98161   16.3694    0.3947     2.28659    2034.35   
211.2264   448.20877  58.75155   16.28852   0.38665    2.24858    2037.61   
211.3788   447.07101  52.89307   16.68902   0.36086    2.28944    2038.05   
211.5312   447.06174  57.72902   16.73671   0.40261    2.36743    2037.76   
211.6836   448.71399  58.55215   16.6902    0.42043    2.38258    2031.73   
211.836    449.38406  61.94121   16.58726   0.43289    2.31958    2028.57   
211.9884   448.73642  60.03458   15.39752   0.42912    2.32309    2030.15   
212.1408   441.67145  57.64478   15.33021   0.42517    2.38783    2047.57   
212.2932   430.59598  59.75095   16.88876   0.39539    2.47591    2069.34   
212.4456   422.06097  57.02742   19.37525   0.3821     3.15024    2100.65   
212.598    414.24573  56.84491   20.38877   0.37106    3.13334    2114.31   
212.7504   414.36377  55.25321   20.22628   0.35197    3.02508    2117.13   
212.9028   418.17947  55.05495   19.86767   0.33962    3.16252    2103.99   
213.0552   424.505    54.3347    19.36163   0.39659    2.96732    2087.6    
213.2076   432.09225  55.36363   18.04216   0.38543    2.75183    2070.91   
213.36     438.95096  55.87057   16.91599   0.36411    2.55067    2054.84   
213.5124   442.99469  55.57005   16.40135   0.4016     2.37532    2041.94   
213.6648   444.62015  54.95269   16.01299   0.43133    2.40338    2032.44   
213.8172   443.95142  58.65682   16.08829   0.40134    2.40411    2031.83   
213.9696   442.12943  59.98626   16.17123   0.41113    2.41092    2037.52   
214.122    442.46909  63.24388   15.97442   0.37948    2.34554    2043.72   
214.2744   441.57104  64.78725   15.75628   0.39136    2.32659    2044.06   
214.4268   440.49905  64.07544   15.9301    0.38712    2.34421    2040.2    
214.5792   439.78183  64.83062   16.45816   0.37692    2.28143    2043.8    
214.7316   438.20108  60.40625   16.82999   0.37164    2.32919    2064.94   
214.884    438.30997  61.0506    17.32995   0.38843    2.35404    2088.83   
215.0364   436.35852  59.6902    16.08732   0.39943    2.86865    2097.9    
215.1888   433.29468  61.85094   15.92547   0.37072    2.48866    2089.09   
215.3412   433.96698  63.05369   16.23492   0.368      2.73891    2081.08   
215.4936   434.67813  61.43021   15.86153   0.40124    2.82882    2073.77   
215.646    436.80838  63.17938   15.72565   0.4243     2.39898    2065.93   
215.7984   439.70703  63.2881    15.6492    0.40841    2.36861    2054.73   
215.9508   440.59189  65.03727000000001 15.57044   0.37508    2.34717    2054.03   
216.1032   439.65381  66.27198   15.5393    0.38598    2.30877    2060.26   
216.2556   438.46115  65.23377000000001 15.41584   0.40302    2.31751    2064.57   
216.408    436.91461  66.27267000000001 15.17694   0.39075    2.28829    2067.51   
216.5604   437.06815  62.05408   14.94398   0.37984    2.38969    2062.99   
216.7128   438.3074   64.72928   15.21517   0.42699    2.36754    2059.28   
216.8652   439.7117   63.58749   15.00621   0.4048     2.37384    2053.47   
217.0176   439.40552  66.00261999999999 15.12534   0.38084    2.42061    2051.4    
217.17     438.92303  64.56213   15.35926   0.4013     2.33969    2053.23   
217.3224   437.43423  66.01273   15.44953   0.39626    2.30043    2057.6    
217.4748   436.17911  66.06702   15.71432   0.36573    2.3377     2058.75   
217.6272   437.05536  66.2728    15.54703   0.38202    2.36827    2060.54   
217.7796   437.78101  65.74823000000001 16.42835   0.39257    2.38696    2055.69   
217.932    438.8288   68.64009   15.94893   0.4163     2.30643    2056.75   
218.0844   437.67883  69.33185   15.70945   0.40724    2.30645    2065.49   
218.2368   436.84076  70.56656   15.83472   0.41174    2.35222    2072.46   
218.3892   435.55453  69.0123    16.13616   0.40885    2.52497    2080.26   
218.5416   435.16235  68.52633   16.25264   0.43913    2.52064    2072.25   
218.694    436.90472  66.37506   15.68773   0.39719    2.49726    2067.77   
218.8464   437.94852  64.83167   15.24477   0.40467    2.42177    2056.51   
218.9988   437.58408  62.77382   14.92824   0.4063     2.38548    2055.34   
219.1512   437.04126  65.86162   14.95424   0.37687    2.38734    2057.53   
219.3036   436.68436  65.65582999999999 14.98983   0.38584    2.31146    2063.76   
219.456    436.46704  67.09632000000001 15.13688   0.36971    2.38499    2064.21   
219.6084   437.5676   67.09666   15.43471   0.38833    2.29501    2061.24   
219.7608   438.11719  68.0227    15.68237   0.37344    2.38464    2051.77   
219.9132   437.33807  66.89088   15.87408   0.35936    2.45806    2050      
220.0656   436.95944  62.45568   15.93349   0.39149    2.34317    2050.27   
220.218    435.81503  57.21569   16.09262   0.43038    2.3481     2055.56   
220.3704   434.61478  59.37643   15.98022   0.39693    2.43265    2055.31   
220.5228   435.34872  59.58221   15.81316   0.38712    2.52279    2056.36   
220.6752   436.37173  64.61642000000001 15.34357   0.38877    2.44414    2061.28   
220.8276   436.99609  69.15542000000001 14.94186   0.4251     2.39664    2062      
220.98     439.10449  69.55756   14.61253   0.39986    2.37404    2063.73   
221.1324   440.88608  68.73441   14.04958   0.4023     2.31672    2054.27   
221.2848   439.39026  63.47517   13.4218    0.40833    2.31731    2051.4    
