~Version
 VERS              .         2.0                           : CWLS LOG ASCII STANDARD - VERSION 2.0
 WRAP              .         NO                            : ONE LINE PER DEPTH STEP
 DLM               .         SPACE                         : DELIMITING CHARACTER(SPACE TAB OR COMMA)
~Well Information
#_______________________________________________________________________________
#
#PARAMETER_NAME    .UNIT     VALUE                         : DESCRIPTION
#_______________________________________________________________________________
STRT               .M        -26.9748                      : First reference value
STOP               .M        363.474                       : Last reference value
STEP               .M        0.1524                        : Step increment
NULL               .         -9999                         : Missing value
COMP               .                                       : Company
WELL               .         G                             : Well name
FLD                .                                       : Field
LOC                .                                       : Location
CNTY               .                                       : County
STAT               .                                       : State
CTRY               .                                       : Country
SRVC               .                                       : Service Company
DATE               .                                       : Date
API                .                                       : API number
~Parameter Information Block
#_______________________________________________________________________________
#
#PARAMETER_NAME    .UNIT     VALUE                         : DESCRIPTION
#_______________________________________________________________________________
SET                .         Logs                          : 
TLFamily_DEPT      .         Measured Depth                : 
TLFamily_DT        .         Compressional Slowness        : 
TLFamily_GR        .         Gamma Ray                     : 
TLFamily_ILD       .         Resistivity - Deep            : 
TLFamily_NPOR_LIM  .         Thermal Neutron Porosity Limestone: 
TLFamily_PEF       .         Photoelectric Factor          : 
TLFamily_RHO       .         Bulk Density                  : 
~Curve Information
#_______________________________________________________________________________
#
#LOGNAME           .UNIT     LOG_ID                        : DESCRIPTION
#_______________________________________________________________________________
DEPT               .M                                      : Depth Index 
DT                 .US/M                                   : DELTA-T 
GR                 .GAPI                                   : GAMMA-RAY 
ILD                .OHMM                                   : ARRAY INDUCTION ONE FOOT RESISTIVITY A90 
NPOR_LIM           .V/V                                    : ENHANCED THERMAL NEUTRON POROSITY (MATRIX LIMESTONE) 
PEF                .B/E                                    : HRDD HIGH RESOLUTION FORMATION PHOTOELECTRIC FACTOR 
RHO                .K/M3                                   : HRDD STANDARD RESOLUTION FORMATION DENSITY 
~Ascii
# ...
112.014    481.43863  106.1297   3.96804    0.44223    2.53233    2103.4    
112.1664   487.56607  111.28143  4.0978     0.47387    2.76266    2151.13   
112.3188   492.01614  108.07507  4.05848    0.47093    2.48572    2155.08   
112.4712   497.66446  105.54781  3.61291    0.48905    2.61532    2147.85   
112.6236   499.9249   102.81173  3.45202    0.50806    2.63075    2144.7    
112.776    502.08945  104.18646  3.47936    0.54365    2.55324    2137.91   
112.9284   498.63071  105.7417   3.06553    0.51654    2.48728    2134.08   
113.0808   493.42267  103.7013   3.16164    0.49334    2.53369    2135.89   
113.2332   487.68738  105.23989  3.5308     0.4698     2.51048    2135.75   
113.3856   499.21661  101.82416  3.75525    0.44994    2.45533    2105.71   
113.538    497.7485   98.82446   3.93679    0.47891    2.45719    2061.07   
113.6904   487.24286  93.19061000000001 4.86492    0.50707    2.24762    2015.14   
113.8428   487.77484  96.70355000000001 4.19947    0.44425    2.28061    1984.72   
113.9952   482.30124  95.34272   3.6841     0.45108    2.64987    1922.83   
114.1476   486.3764   91.0676    4.54785    0.51707    1.63163    1809.9    
114.3      489.48163  79.52191999999999 5.4314     0.55726    1.68463    1709.77   
114.4524   490.02194  74.74923   5.92224    0.54436    1.31769    1651.91   
114.6048   484.11407  72.16792   9.345969999999999 0.51817    2.0879     1672.5    
114.7572   488.19946  76.89005   6.49836    0.5331399999999999 1.4222     1714.5    
114.9096   497.58795  82.63476   4.79153    0.538      1.95683    1735.05   
115.062    494.15973  86.19909   4.65976    0.56214    1.50836    1776.48   
115.2144   504.84296  86.49767   4.80782    0.54789    1.51799    1851.64   
115.3668   502.23999  89.51094999999999 3.67604    0.4914     2.43841    1974.53   
115.5192   495.715    97.27249999999999 3.01033    0.48833    2.42454    2052.13   
115.6716   506.65942  98.64573   2.97738    0.50802    2.48363    2081.41   
115.824    511.84897  93.008     3.86952    0.46765    2.24714    2065.77   
115.9764   509.4693   90.48179   4.33474    0.44245    2.46245    2084.93   
116.1288   490.59814  90.09298   3.40528    0.49407    2.4871     2101.84   
116.2812   479.86087  90.7734    4.96842    0.43062    2.46048    2133.2    
116.4336   468.92368  85.23515999999999 9.31241    0.35779    2.37081    2124.77   
116.586    461.39703  82.99951   11.02545   0.36531    2.19866    2117.23   
116.7384   466.47934  83.66829   11.1064    0.33887    2.15069    2120.36   
116.8908   467.42831  87.85926000000001 11.95518   0.35148    2.44022    2136.87   
117.0432   465.75443  89.01769   12.7414    0.42581    2.27757    2152      
117.1956   471.67139  91.16777999999999 13.2457    0.43685    2.19198    2139.26   
117.348    474.25339  86.58816   14.8401    0.39718    2.30979    2089.17   
117.5004   463.71475  86.20734   12.90909   0.42309    1.93465    2045.26   
117.6528   455.72607  82.90246999999999 12.97745   0.39341    1.97471    2056.99   
117.8052   450.89938  88.05204000000001 12.99946   0.32327    2.60464    2118.91   
117.9576   436.73627  85.03876   11.69908   0.31202    2.27699    2158.59   
118.11     444.03506  87.95483   10.38483   0.36296    2.64446    2149.07   
118.2624   438.55853  84.65133   9.416980000000001 0.42711    2.55496    2151.38   
118.4148   454.53839  86.40097   9.541650000000001 0.33347    2.03273    2152.65   
118.5672   458.0274   85.67273   10.76541   0.32773    2.39866    2172.59   
118.7196   464.08417  82.08813000000001 12.50374   0.37726    2.37203    2134.55   
118.872    447.33432  79.74457   14.47785   0.33655    2.27281    2146.96   
119.0244   436.0231   76.29311   15.15204   0.35432    1.94214    2152.9    
119.1768   439.55225  70.64734   15.54543   0.37138    3.1061     2181.06   
119.3292   427.27307  67.15876   15.7892    0.35       1.9885     2177.91   
119.4816   460.43152  65.40912   14.94268   0.27678    1.80635    2192.93   
119.634    459.63318  70.94735   13.57029   0.30526    3.2455     2219.04   
119.7864   459.51266  74.34943   11.68597   0.35839    2.15394    2225.71   
119.9388   466.58728  80.86198   11.95932   0.34336    2.28027    2214.45   
120.0912   465.46982  79.40455   12.73801   0.35823    2.18022    2187.72   
120.2436   467.79874  80.66818000000001 14.91014   0.33311    2.17281    2172.97   
120.396    456.36786  71.61951000000001 16.22079   0.31971    2.17993    2144.26   
120.5484   456.22327  69.30573   19.89884   0.34022    1.99115    2132.11   
120.7008   463.54968  67.35129999999999 16.84569   0.35607    1.88683    2127.05   
120.8532   459.54752  70.95663   14.1412    0.34171    2.02194    2142.81   
121.0056   469.79105  77.25406   13.25955   0.34485    2.12601    2151.01   
121.158    473.08102  78.53257000000001 13.07136   0.38123    2.23743    2157.99   
121.3104   471.24692  83.57465000000001 13.31483   0.37536    2.21579    2151.58   
121.4628   469.9241   83.29443000000001 13.67158   0.34808    2.29774    2139.14   
121.6152   469.73438  87.17803000000001 13.37395   0.35839    2.37346    2138.31   
121.7676   471.0676   85.13763   13.18936   0.35125    2.45988    2137.91   
121.92     467.34857  87.85928   12.7409    0.38991    2.46509    2149.85   
122.0724   471.62598  87.36095   12.43336   0.361      2.42492    2141.3    
122.2248   477.52301  88.09217   13.4803    0.39407    2.2542     2126.95   
122.3772   483.24896  89.63436   13.17501   0.38883    2.13013    2118.79   
122.5296   492.12509  87.31382000000001 13.57491   0.36295    1.90404    2111.92   
122.682    488.62387  91.44070000000001 12.96932   0.43225    2.11257    2103.09   
122.8344   487.9537   94.95303   11.92723   0.48111    1.92182    2079.18   
122.9868   487.60217  100.46185  14.36177   0.43553    2.22131    2066.37   
123.1392   482.59256  104.65517  13.66354   0.46       1.98502    2069.82   
123.2916   477.47284  106.21041  12.13155   0.46816    2.22246    2099.12   
123.444    469.19281  111.18372  11.86175   0.43542    2.18639    2133.27   
123.5964   459.86697  113.61378  11.94287   0.398      2.07044    2172.46   
123.7488   449.35608  113.50146  11.90413   0.36189    2.35613    2189.1    
123.9012   462.33374  111.67034  10.69649   0.36569    2.18787    2188.68   
124.0536   471.21634  110.60111  9.142810000000001 0.41134    2.19127    2179.32   
124.206    482.50613  114.77908  7.34745    0.41942    2.39565    2176.3    
124.3584   492.14941  116.79825  8.507860000000001 0.41432    2.3259     2178.45   
124.5108   494.35077  114.74194  9.68474    0.4254     2.36312    2145.04   
124.6632   485.28735  104.94135  11.07421   0.47671    2.45212    2091.53   
124.8156   468.63202  96.10590000000001 11.96893   0.43566    1.8249     2064.69   
124.968    457.25299  91.67225999999999 13.82677   0.34904    2.19161    2111.16   
125.1204   445.33075  90.97936   15.22379   0.33486    2.8462     2183.06   
125.2728   444.78339  94.97678000000001 12.3945    0.3818     2.36978    2213.41   
125.4252   443.61911  93.77502   11.4072    0.37051    2.17257    2216.89   
125.5776   443.61069  96.38326000000001 11.59504   0.35702    2.02999    2202.03   
125.73     444.06131  95.98083   12.01658   0.33842    2.13555    2188.15   
125.8824   458.95099  94.04952   10.82265   0.36843    2.35999    2080.5    
126.0348   467.13962  86.20484   11.18072   0.45946    2.24987    1943.3    
126.1872   464.11014  77.26595   14.17627   0.68751    1.3072     1875.51   
126.3396   465.45428  74.15548   17.19351   0.5333     1.743      1958.45   
126.492    463.59229  75.50355999999999 18.99172   0.36203    1.8785     2067.28   
126.6444   460.47021  76.77709   19.96532   0.34714    2.06234    2112.97   
126.7968   474.96591  75.11472000000001 20.11287   0.38731    1.92322    2088.2    
126.9492   491.02048  73.66943000000001 18.48365   0.40876    2.05461    2070.48   
127.1016   491.43939  72.29874   16.78366   0.38082    1.82087    2058.92   
127.254    496.61816  72.58727   15.43438   0.36621    1.84387    2055.4    
