~Version
 VERS              .         2.0                           : CWLS LOG ASCII STANDARD - VERSION 2.0
 WRAP              .         NO                            : ONE LINE PER DEPTH STEP
 DLM               .         SPACE                         : DELIMITING CHARACTER(SPACE TAB OR COMMA)
~Well Information
#_______________________________________________________________________________
#
#PARAMETER_NAME    .UNIT     VALUE                         : DESCRIPTION
#_______________________________________________________________________________
STRT               .M        -26.9748                      : First reference value
STOP               .M        363.474                       : Last reference value
STEP               .M        0.1524                        : Step increment
NULL               .         -9999                         : Missing value
COMP               .                                       : Company
WELL               .         G                             : Well name
FLD                .                                       : Field
LOC                .                                       : Location
CNTY               .                                       : County
STAT               .                                       : State
CTRY               .                                       : Country
SRVC               .                                       : Service Company
DATE               .                                       : Date
API                .                                       : API number
~Parameter Information Block
#_______________________________________________________________________________
#
#PARAMETER_NAME    .UNIT     VALUE                         : DESCRIPTION
#_______________________________________________________________________________
SET                .         Logs                          : 
TLFamily_DEPT      .         Measured Depth                : 
TLFamily_DT        .         Compressional Slowness        : 
TLFamily_GR        .         Gamma Ray                     : 
TLFamily_ILD       .         Resistivity - Deep            : 
TLFamily_NPOR_LIM  .         Thermal Neutron Porosity Limestone: 
TLFamily_PEF       .         Photoelectric Factor          : 
TLFamily_RHO       .         Bulk Density                  : 
~Curve Information
#_______________________________________________________________________________
#
#LOGNAME           .UNIT     LOG_ID                        : DESCRIPTION
#_______________________________________________________________________________
DEPT               .M                                      : Depth Index 
DT                 .US/M                                   : DELTA-T 
GR                 .GAPI                                   : GAMMA-RAY 
ILD                .OHMM                                   : ARRAY INDUCTION ONE FOOT RESISTIVITY A90 
NPOR_LIM           .V/V                                    : ENHANCED THERMAL NEUTRON POROSITY (MATRIX LIMESTONE) 
PEF                .B/E                                    : HRDD HIGH RESOLUTION FORMATION PHOTOELECTRIC FACTOR 
RHO                .K/M3                                   : HRDD STANDARD RESOLUTION FORMATION DENSITY 
~Ascii
# ...
330.2508   404.53574  88.93429   19.28569   0.28524    1.96253    2172.58   
330.4032   401.02124  94.72937   18.19104   0.32311    2.00318    2192.78   
330.5556   400.24896  94.94804999999999 18.07604   0.36877    2.13589    2202.75   
330.708    401.14917  86.81693   18.04341   0.3241     1.88978    2196.37   
330.8604   402.07599  83.86472000000001 17.53246   0.32652    1.98761    2188.33   
331.0128   402.328    83.64604   17.14078   0.31596    2.01198    2187.96   
331.1652   402.5755   84.95814   17.11567   0.31272    2.10843    2197.83   
331.3176   402.32446  82.79268999999999 15.44536   0.34888    2.08724    2198.6    
331.47     407.84006  76.01353   17.83127   0.3275     2.12443    2182.39   
331.6224   409.03656  69.78107   21.57383   0.37028    1.93841    2150.67   
331.7748   412.14328  71.18113   35.28803   0.40669    1.76328    2126.4    
331.9272   414.61398  80.22488   29.23626   0.33841    1.72964    2127.78   
332.0796   416.73776  85.80128999999999 23.73473   0.32029    1.9373     2123.13   
332.232    420.53748  79.35015   34.47717   0.40337    1.86489    2095.42   
332.3844   423.6774   70.08772   63.60192   0.39656    1.71111    2051.62   
332.5368   419.38187  70.21735   64.64758   0.37932    1.57753    2045.02   
332.6892   411.43082  82.7916    48.3135    0.36034    1.72203    2086.08   
332.8416   410.29907  93.50704   23.00229   0.33266    1.92368    2146.6    
332.994    408.19174  94.90819999999999 20.55237   0.34557    2.05183    2182.27   
333.1464   410.26126  86.59826   17.66713   0.36886    1.98948    2184.67   
333.2988   408.36475  80.58449   18.55066   0.34801    1.90798    2174.83   
333.4512   403.94724  83.73051   20.61478   0.3505     1.84932    2173.14   
333.6036   400.73608  88.43219000000001 19.35431   0.30775    1.97753    2187.69   
333.756    396.13583  87.88549   15.98176   0.27916    1.94221    2207.79   
333.9084   398.03812  78.83504000000001 15.37208   0.28984    2.0068     2216.84   
334.0608   401.38284  75.03672   15.54426   0.32806    2.00071    2210.79   
334.2132   401.74414  74.38068   18.40294   0.35446    2.0012     2198.14   
334.3656   404.25555  78.20762000000001 18.37073   0.32102    1.87969    2192.89   
334.518    407.02911  74.68008   16.55354   0.31661    1.95134    2190.4    
334.6704   411.7417   67.24487000000001 17.67108   0.35708    1.85292    2167.08   
334.8228   419.04047  52.15578   27.57344   0.38612    1.91099    2126.41   
334.9752   425.56863  43.7365    64.27977   0.37389    1.65348    2076.28   
335.1276   427.46835  36.41462   107.49421  0.35695    1.58352    2047.76   
335.28     425.98465  35.53989   98.29268   0.36291    1.5642     2038.3    
335.4324   425.13028  33.02504   113.45752  0.35703    1.60431    2041.11   
335.5848   425.27115  33.14699   160.12778  0.35747    1.53098    2039.04   
335.7372   426.36935  32.15786   185.45918  0.34162    1.50751    2028.51   
335.8896   430.14746  30.84576   219.29021  0.3344     1.57365    2023      
336.042    431.53583  31.48522   225.44846  0.32788    1.66314    2020.54   
336.1944   420.72101  37.46346   74.49379999999999 0.36202    1.43731    2055.19   
336.3468   403.62967  54.63003   42.20808   0.30307    1.53773    2126.67   
336.4992   390.08768  75.827     16.08614   0.2827     1.97491    2217.72   
336.6516   388.66174  87.45775999999999 14.10738   0.3245     2.15898    2253.57   
336.804    397.13611  79.69454   18.22528   0.36951    2.10433    2210.47   
336.9564   410.52271  61.66847   35.35545   0.40096    1.77873    2116.84   
337.1088   423.10403  46.77143   47.0704    0.34917    1.58954    2046.7    
337.2612   426.49893  42.1725    49.05669   0.33209    1.73396    2017.18   
337.4136   425.55975  39.76699   67.32977   0.34154    1.64549    2019.96   
337.566    422.20465  39.35626   76.96087   0.37458    1.58428    2032.43   
337.7184   417.85864  38.48812   85.39062   0.35593    1.62178    2056.05   
337.8708   418.01709  37.08327   76.96541000000001 0.33755    1.60042    2079.15   
338.0232   417.03607  31.72192   110.47417  0.32476    1.66015    2090.47   
338.1756   418.55096  27.02025   137.62271  0.33692    1.63708    2082.82   
338.328    415.91461  23.83276   148.88957  0.31788    1.48738    2084.47   
338.4804   401.78821  27.00729   139.29449  0.28345    1.62707    2097.1    
338.6328   384.71417  34.77052   69.16242   0.23364    1.56761    2134.46   
338.7852   371.43729  51.39038   33.95936   0.23073    1.91401    2192.48   
338.9376   371.60098  62.0262    19.29974   0.29452    2.39004    2248.55   
339.09     384.25916  63.01027   26.80242   0.31134    2.17297    2259.74   
339.2424   400.95941  54.70034   48.06557   0.2844     1.85221    2199.27   
339.3948   417.78925  48.32883   40.7406    0.36424    1.71274    2118.82   
339.5472   431.85336  45.51782   40.0899    0.39889    1.6171     2064.03   
339.6996   432.23163  44.30822   42.42421   0.37505    1.75914    2043.99   
339.852    431.94562  41.79337   46.71726   0.36714    1.62762    2038.2    
340.0044   431.20105  41.98019   39.16837   0.33356    1.58841    2042.82   
340.1568   428.33072  44.36658   26.2069    0.35505    1.68069    2055.28   
340.3092   426.18127  50.05232   23.89713   0.38731    1.67614    2069.14   
340.4616   426.14639  54.85424   25.19411   0.3735     1.64855    2072.19   
340.614    426.10678  57.39506   22.95667   0.36784    1.70414    2069.95   
340.7664   427.25452  56.08296   22.50484   0.35336    1.65286    2055.79   
340.9188   450.44415  51.9108    30.94683   0.34394    1.73065    2039.39   
341.0712   462.55338  48.52122   22.88486   0.35809    1.54642    2026.53   
341.2236   455.88715  49.82473   25.08903   0.31702    1.58353    2027.41   
341.376    455.88977  52.25653   27.12988   0.30113    1.75249    2048.09   
341.5284   422.19919  59.25438   21.39734   0.31436    1.62501    2080.07   
341.6808   412.69547  71.92319000000001 16.31316   0.29229    1.61967    2128.02   
341.8332   420.63281  87.55898999999999 9.280530000000001 0.33314    1.9594     2187.31   
341.9856   426.6044   101.33599  5.80443    0.43479    2.11841    2243.89   
342.138    428.11673  109.65088  6.52357    0.51554    2.64203    2294.94   
342.2904   429.74628  113.51394  6.55895    0.47331    2.2254     2304.03   
342.4428   428.53036  113.0834   6.48059    0.41974    2.22805    2301.89   
342.5952   427.54831  114.21737  6.53739    0.38921    2.052      2281.94   
342.7476   427.48395  111.33837  6.52292    0.41142    2.2264     2283.8    
342.9      424.58377  107.38001  6.43863    0.43043    2.07986    2291.07   
343.0524   421.15491  97.46456000000001 6.6126     0.37997    2.11676    2304.95   
343.2048   415.94937  96.69918   6.81224    0.39283    2.15288    2317.65   
343.3572   410.4028   93.65285   7.10742    0.36687    2.12247    2336.95   
343.5096   407.61227  95.50311000000001 7.20654    0.3611     2.3626     2353.35   
343.662    405.72223  95.83114   7.26069    0.35984    2.37305    2350.81   
343.8144   406.10867  100.7515   7.26538    0.35369    2.43992    2333.7    
343.9668   406.37619  101.46868  6.86673    0.37621    2.28499    2302.81   
344.1192   406.69858  98.82017   7.03982    0.37697    3.30127    2295.18   
344.2716   405.78934  103.08447  7.27738    0.36731    3.20551    2305.22   
344.424    404.40826  104.06854  7.19548    0.35054    2.41798    2337.79   
344.5764   403.62881  108.79453  7.13825    0.36728    2.18494    2350.37   
344.7288   403.58002  108.79453  7.05395    0.36281    2.27568    2347.44   
344.8812   405.15359  111.52386  7.39517    0.3715     2.32178    2327.76   
345.0336   407.21454  108.02496  7.28963    0.39785    2.43972    2305.53   
345.186    407.2233   96.43478   7.35501    0.3529     2.22072    2277.88   
345.3384   406.04425  89.76917   7.80945    0.273      2.15125    2274.88   
345.4908   403.22577  92.72136999999999 7.77904    0.31221    2.25251    2286.7    
345.6432   399.49417  102.67142  7.47619    0.37424    2.30707    2305.58   
345.7956   401.36102  108.1711   7.6622     0.3721     2.369      2310.02   
