~Version
 VERS              .         2.0                           : CWLS LOG ASCII STANDARD - VERSION 2.0
 WRAP              .         NO                            : ONE LINE PER DEPTH STEP
 DLM               .         SPACE                         : DELIMITING CHARACTER(SPACE TAB OR COMMA)
~Well Information
#_______________________________________________________________________________
#
#PARAMETER_NAME    .UNIT     VALUE                         : DESCRIPTION
#_______________________________________________________________________________
STRT               .M        -26.9748                      : First reference value
STOP               .M        363.474                       : Last reference value
STEP               .M        0.1524                        : Step increment
NULL               .         -9999                         : Missing value
COMP               .                                       : Company
WELL               .         G                             : Well name
FLD                .                                       : Field
LOC                .                                       : Location
CNTY               .                                       : County
STAT               .                                       : State
CTRY               .                                       : Country
SRVC               .                                       : Service Company
DATE               .                                       : Date
API                .                                       : API number
~Parameter Information Block
#_______________________________________________________________________________
#
#PARAMETER_NAME    .UNIT     VALUE                         : DESCRIPTION
#_______________________________________________________________________________
SET                .         Logs                          : 
TLFamily_DEPT      .         Measured Depth                : 
TLFamily_DT        .         Compressional Slowness        : 
TLFamily_GR        .         Gamma Ray                     : 
TLFamily_ILD       .         Resistivity - Deep            : 
TLFamily_NPOR_LIM  .         Thermal Neutron Porosity Limestone: 
TLFamily_PEF       .         Photoelectric Factor          : 
TLFamily_RHO       .         Bulk Density                  : 
~Curve Information
#_______________________________________________________________________________
#
#LOGNAME           .UNIT     LOG_ID                        : DESCRIPTION
#_______________________________________________________________________________
DEPT               .M                                      : Depth Index 
DT                 .US/M                                   : DELTA-T 
GR                 .GAPI                                   : GAMMA-RAY 
ILD                .OHMM                                   : ARRAY INDUCTION ONE FOOT RESISTIVITY A90 
NPOR_LIM           .V/V                                    : ENHANCED THERMAL NEUTRON POROSITY (MATRIX LIMESTONE) 
PEF                .B/E                                    : HRDD HIGH RESOLUTION FORMATION PHOTOELECTRIC FACTOR 
RHO                .K/M3                                   : HRDD STANDARD RESOLUTION FORMATION DENSITY 
~Ascii
# ...
50.4444    -9999      59.57741   2.97516    0.61907    9.06874    2156.5    
50.5968    -9999      56.27253   2.97516    0.68726    9.04027    2166.24   
50.7492    -9999      55.39771   2.97516    0.60594    9.056699999999999 2250.42   
50.9016    -9999      56.75798   2.97516    0.59624    9.321020000000001 2347.85   
51.054     -9999      57.73      2.97516    0.61976    9.31972    2454.17   
51.2064    -9999      56.26485   2.97516    0.61293    8.429959999999999 2521.61   
51.3588    -9999      54.81502   2.97516    0.58592    8.556419999999999 2587.28   
51.5112    -9999      54.1346    2.97516    0.59966    8.514670000000001 2627.19   
51.6636    -9999      55.59203   2.97516    0.70739    8.737819999999999 2613.28   
51.816     -9999      54.16722   2.97516    0.75091    9.351229999999999 2560.1    
51.9684    -9999      52.6931    2.97516    0.66051    10         2470.25   
52.1208    -9999      53.10207   2.97516    0.7924     10         2468.32   
52.2732    -9999      55.11009   2.97516    0.67814    10         2595.88   
52.4256    -9999      56.77861   2.97516    0.77269    10         2791.23   
52.578     -9999      57.43843   2.97516    0.64195    10         2911.03   
52.7304    -9999      57.24402   2.97516    0.58185    10         2925.47   
52.8828    -9999      59.57688   2.97516    0.57801    10         2913.11   
53.0352    -9999      59.09107   2.97516    0.5988     9.95576    2907.3    
53.1876    -9999      60.38935   2.97516    0.58853    10         2907.74   
53.34      -9999      59.91039   2.97516    0.60756    10         2913.75   
53.4924    -9999      58.47478   2.97516    0.69321    9.977040000000001 2924.14   
53.6448    -9999      58.82049   2.97516    0.61868    9.976649999999999 2931.96   
53.7972    -9999      58.26805   2.97516    0.55008    10         2935.63   
53.9496    -9999      59.80365   2.97516    0.61143    10         2941.91   
54.102     -9999      57.77084   2.97516    0.71517    10         2953.08   
54.2544    -9999      57.53862   2.97516    0.58702    9.95595    2961.59   
54.4068    -9999      57.73012   2.97516    0.6405     10         2958.07   
54.5592    -9999      58.99375   2.97516    0.67111    10         2949.26   
54.7116    -9999      58.21613   2.97516    0.71628    9.992699999999999 2946.31   
54.864     -9999      55.20411   2.97516    0.6604     9.98776    2949.76   
55.0164    -9999      52.57965   2.97516    0.60285    10         2953.59   
55.1688    -9999      53.44611   2.97516    0.6591     9.95844    2946.83   
55.3212    -9999      55.9802    2.97516    0.66843    9.97472    2945.17   
55.4736    -9999      57.14663   2.97516    0.6818     10         2943.6    
55.626     -9999      56.17501   2.97516    0.67949    9.97068    2948.99   
55.7784    -9999      54.91138   2.97516    0.7394500000000001 10         2947.16   
55.9308    -9999      55.48683   2.97516    0.7450599999999999 9.974159999999999 2937.7    
56.0832    -9999      54.52277   2.97516    0.66822    9.965350000000001 2916.68   
56.2356    -9999      56.56401   2.97516    0.61646    9.963469999999999 2896.71   
56.388     -9999      57.43848   2.97516    0.57792    10         2895.5    
56.5404    -9999      57.12367   2.97516    0.63112    10         2915      
56.6928    -9999      56.92926   2.97516    0.6652     9.98893    2937.27   
56.8452    -9999      57.05217   2.97516    0.67187    9.97439    2950.68   
56.9976    -9999      57.17257   2.97516    0.6412     10         2994.72   
57.15      -9999      55.70702   2.97516    0.62208    10         3167.51   
57.3024    -9999      55.39783   2.97516    0.6389899999999999 10         3623.93   
57.4548    -9999      53.16217   2.97516    0.597      9.947979999999999 4141.14   
57.6072    -9999      47.33245   2.97516    0.68349    10         4527.599999999999
57.7596    -9999      45.38841   2.97516    0.81249    10         4486.83   
57.912     -9999      45.77051   2.97516    0.82008    10         4070.62   
58.0644    -9999      52.19096   2.97516    0.79626    9.669119999999999 3535.64   
58.2168    -9999      51.60774   2.97516    0.72251    9.961690000000001 3118.17   
58.3692    -9999      53.84247   2.97516    0.67624    10         2980.02   
58.5216    -9999      54.42569   2.97516    0.64246    9.996869999999999 2961.64   
58.674     -9999      56.46693   2.97516    0.71676    9.98366    2969.42   
58.8264    -9999      58.31301   2.97516    0.65287    10         2973.84   
58.9788    -9999      59.09063   2.97516    0.70931    10         2977.56   
59.1312    -9999      56.84806   2.97516    0.6001300000000001 9.976179999999999 2979.25   
59.2836    -9999      56.37046   2.97516    0.58248    9.96453    2977.72   
59.436     -9999      51.60754   2.97516    0.52723    10         2966.86   
59.5884    -9999      51.31606   2.97516    0.52433    9.991070000000001 2959.03   
59.7408    -9999      48.9832    2.97515    0.61615    10         2949      
59.8932    -9999      47.6166    2.97515    0.71186    9.99682    2953.49   
60.0456    275.51767  48.88701   2.97515    0.68076    9.982239999999999 2957.97   
60.198     275.51767  49.47023   2.97515    0.54399    9.97142    2966.85   
60.3504    275.51767  51.3163    2.97515    0.56326    10         2970.83   
60.5028    275.51767  56.07922   2.97515    0.59746    10         2973.33   
60.6552    275.51767  55.98201   2.97515    0.7208     9.94891    2970.1    
60.8076    275.51767  58.65953   2.97515    0.63181    9.984069999999999 2963.56   
60.96      275.51767  53.70465   2.97515    0.5890300000000001 10         2959      
61.1124    275.51767  54.86316   2.97515    0.64275    10         2951.88   
61.2648    275.51767  57.14952   2.97516    0.6601     10         2955.38   
61.4172    275.51767  58.78295   2.97516    0.66729    9.991020000000001 2958.57   
61.5696    275.51767  61.65242   2.97517    0.73942    9.96374    2967.1    
61.722     275.51767  59.22236   2.97517    0.76561    9.94116    2962.23   
61.8744    275.51767  57.9679    2.97518    0.72466    9.97559    2958.12   
62.0268    275.51767  54.42592   2.9752     0.6440399999999999 10         2956.08   
62.1792    275.51767  57.24479   2.97521    0.63756    9.97092    2954.54   
62.3316    275.51767  59.67384   2.97522    0.56778    10         2939.19   
62.484     275.51767  59.47943   2.97524    0.61595    10         2920.27   
62.6364    275.51767  57.43818   2.97525    0.63609    9.99296    2911.22   
62.7888    275.51767  59.6729    2.97527    0.6682     9.976089999999999 2925.77   
62.9412    275.51767  62.49177   2.97528    0.66299    9.951790000000001 2949      
63.0936    275.51767  63.45547   2.9753     0.64821    10         2963.16   
63.246     275.51767  62.00677   2.97532    0.64978    9.977600000000001 2960.51   
63.3984    275.51767  60.74314   2.97536    0.57299    9.98578    2951.27   
63.5508    275.51767  59.67436   2.9754     0.57308    9.9415     2943.91   
63.7032    275.51767  58.70233   2.97545    0.63824    10         2934.26   
63.8556    275.51767  60.24872   2.97552    0.60517    10         2929.04   
64.008     275.51767  61.83427   2.97562    0.65483    10         2927.12   
64.1604    275.51767  61.05995   2.97573    0.67093    9.98179    2940.26   
64.3128    275.51767  60.58983   2.97585    0.62631    10         2956.3    
64.4652    275.51767  58.32414   2.97599    0.56023    9.98943    2972.81   
64.6176    275.51767  61.30934   2.97613    0.62739    9.94726    2977.96   
64.77      275.51767  61.77945   2.97628    0.6928800000000001 9.95992    2974.67   
64.9224    275.51767  60.71782   2.97644    0.62942    10         2969.15   
65.0748    275.51767  57.81845   2.97661    0.72401    10         2965.91   
65.2272    275.51767  52.28023   2.97679    0.66429    9.9276     2952.86   
65.3796    275.51767  51.211     2.97697    0.55369    10         2932.26   
65.532     275.51767  50.24706   2.97716    0.50097    9.982340000000001 2928.95   
65.6844    275.51767  51.99598   2.97736    0.50107    10         2939.08   
