~Version
 VERS              .         2.0                           : CWLS LOG ASCII STANDARD - VERSION 2.0
 WRAP              .         NO                            : ONE LINE PER DEPTH STEP
 DLM               .         SPACE                         : DELIMITING CHARACTER(SPACE TAB OR COMMA)
~Well Information
#_______________________________________________________________________________
#
#PARAMETER_NAME    .UNIT     VALUE                         : DESCRIPTION
#_______________________________________________________________________________
STRT               .M        -26.9748                      : First reference value
STOP               .M        363.474                       : Last reference value
STEP               .M        0.1524                        : Step increment
NULL               .         -9999                         : Missing value
COMP               .                                       : Company
WELL               .         G                             : Well name
FLD                .                                       : Field
LOC                .                                       : Location
CNTY               .                                       : County
STAT               .                                       : State
CTRY               .                                       : Country
SRVC               .                                       : Service Company
DATE               .                                       : Date
API                .                                       : API number
~Parameter Information Block
#_______________________________________________________________________________
#
#PARAMETER_NAME    .UNIT     VALUE                         : DESCRIPTION
#_______________________________________________________________________________
SET                .         Logs                          : 
TLFamily_DEPT      .         Measured Depth                : 
TLFamily_DT        .         Compressional Slowness        : 
TLFamily_GR        .         Gamma Ray                     : 
TLFamily_ILD       .         Resistivity - Deep            : 
TLFamily_NPOR_LIM  .         Thermal Neutron Porosity Limestone: 
TLFamily_PEF       .         Photoelectric Factor          : 
TLFamily_RHO       .         Bulk Density                  : 
~Curve Information
#_______________________________________________________________________________
#
#LOGNAME           .UNIT     LOG_ID                        : DESCRIPTION
#_______________________________________________________________________________
DEPT               .M                                      : Depth Index 
DT                 .US/M                                   : DELTA-T 
GR                 .GAPI                                   : GAMMA-RAY 
ILD                .OHMM                                   : ARRAY INDUCTION ONE FOOT RESISTIVITY A90 
NPOR_LIM           .V/V                                    : ENHANCED THERMAL NEUTRON POROSITY (MATRIX LIMESTONE) 
PEF                .B/E                                    : HRDD HIGH RESOLUTION FORMATION PHOTOELECTRIC FACTOR 
RHO                .K/M3                                   : HRDD STANDARD RESOLUTION FORMATION DENSITY 
~Ascii
# ...
236.8296   518.2771   89.63261   2.18535    0.51536    2.63685    1948.61   
236.982    514.78027  88.19212   2.51601    0.56284    2.68031    1979.27   
237.1344   502.50082  89.20766999999999 2.65333    0.61028    1.82032    1947.04   
237.2868   497.18076  90.33949   3.15496    0.5912500000000001 1.99389    1924.14   
237.4392   495.37814  90.45480000000001 3.90914    0.50026    1.93795    1929.08   
237.5916   499.19763  87.57380000000001 3.71587    0.48947    2.32069    1945.1    
237.744    489.91064  86.44199   3.63193    0.53733    2.3605     1949.45   
237.8964   478.31818  88.28164   3.60243    0.52754    1.94141    1971.4    
238.0488   466.46805  89.83826000000001 4.84669    0.45769    2.23081    2027.63   
238.2012   450.5961   90.5585    4.99853    0.39198    2.83283    2106.56   
238.3536   448.79712  93.43949000000001 5.10395    0.42252    2.77878    2163.51   
238.506    447.43857  92.9118    4.93423    0.42861    2.47246    2188.16   
238.6584   445.49551  94.36633   6.67008    0.39684    2.79089    2174.2    
238.8108   442.61563  92.1027    7.99259    0.41728    2.7353     2156.22   
238.9632   444.17398  96.52708   8.18835    0.39307    2.65813    2155.05   
239.1156   444.93021  96.82172   8.347659999999999 0.40558    2.74108    2163.56   
239.268    446.26752  99.5116    8.63658    0.40856    2.80602    2174.27   
239.4204   446.7352   95.3959    8.51066    0.38738    2.79336    2180.41   
239.5728   449.8208   95.91036   8.1973     0.38639    2.80881    2179.72   
239.7252   450.96664  94.55807   8.230420000000001 0.39635    2.78184    2175.33   
239.8776   448.8143   94.88003   8.04588    0.37437    2.95264    2173.48   
240.03     450.91458  92.41061000000001 8.99391    0.3766     2.89003    2172.63   
240.1824   452.38739  89.7354    8.702120000000001 0.40574    2.83635    2176.68   
240.3348   452.84225  94.04361   7.88878    0.41198    2.85372    2179.89   
240.4872   452.13541  95.60099   7.58789    0.45882    2.83484    2179.79   
240.6396   451.09637  96.42413000000001 8.74347    0.40809    2.80968    2167.61   
240.792    451.18307  93.02867999999999 9.79589    0.38503    2.70121    2154.35   
240.9444   452.54941  90.44235999999999 9.105259999999999 0.404      2.76185    2142.9    
241.0968   453.25983  90.24975999999999 9.928039999999999 0.42919    2.73508    2126.33   
241.2492   451.01813  88.80927   11.90928   0.39314    2.80589    2105.09   
241.4016   450.07611  87.57456000000001 16.38733   0.33269    2.73748    2086.55   
241.554    447.87057  84.68040000000001 15.74594   0.32847    2.85373    2085.73   
241.7064   450.34457  84.28169   8.43501    0.41179    2.96317    2094.34   
241.8588   455.08246  86.854     9.21724    0.43069    2.7694     2123.56   
242.0112   446.30209  91.68995   8.57803    0.42751    2.74435    2162.75   
242.1636   441.14575  95.17542   8.53675    0.43347    2.72009    2197.61   
242.316    429.1203   96.83588   9.471959999999999 0.40341    2.69818    2214.15   
242.4684   421.93329  94.98383   9.92343    0.4259     2.7041     2212.48   
242.6208   418.11179  94.43801000000001 10.64944   0.40372    2.56961    2202.24   
242.7732   414.51996  92.98333   11.20418   0.35927    2.34731    2195.7    
242.9256   414.18005  92.88043   11.72055   0.34156    2.56507    2190.45   
243.078    412.36969  92.50022   12.0762    0.38182    2.5504     2191.92   
243.2304   400.10236  94.14651000000001 12.99952   0.38003    2.38116    2210.09   
243.3828   385.19656  96.67916   13.8392    0.36517    2.51999    2263.32   
243.5352   387.69528  96.86497   18.15579   0.34329    3.62862    2313.8    
243.6876   394.01959  94.96006   17.81624   0.36082    3.90669    2303.09   
243.84     417.13916  94.79392   9.66832    0.38266    2.59075    2240.48   
243.9924   435.68695  96.87174   8.61575    0.44108    2.77259    2178.87   
244.1448   442.31564  99.60872999999999 9.33173    0.39924    2.69846    2161.21   
244.2972   444.99875  99.11881   8.826420000000001 0.37754    2.77121    2170.47   
244.4496   446.88187  98.19279   7.89799    0.39989    2.84818    2189.82   
244.602    448.70953  100.34458  7.3812     0.45476    2.86174    2207.28   
244.7544   448.72278  103.42217  6.8473     0.43044    2.83376    2213.7    
244.9068   448.20065  104.3482   6.47889    0.43266    2.8906     2212.37   
245.0592   450.97827  103.11349  7.23206    0.43303    2.91262    2208.22   
245.2116   455.22589  103.5097   7.10141    0.44952    2.81806    2207.43   
245.364    458.60312  103.42175  6.33006    0.42782    2.84368    2210.47   
245.5164   455.23901  103.01019  5.92719    0.43632    2.72488    2213.4    
245.6688   447.39456  104.55357  6.19204    0.41763    2.76898    2221.6    
245.8212   434.07712  104.43572  7.40508    0.36603    2.65899    2220.88   
245.9736   426.59915  101.7742   8.92151    0.32658    2.58719    2204.73   
246.126    427.48383  97.76139000000001 11.09845   0.36495    2.5752     2161.35   
246.2784   436.7952   97.45272   8.43784    0.38257    2.95782    2093.58   
246.4308   438.39032  95.79276   7.79168    0.49565    2.36853    2061.93   
246.5832   438.98691  91.6897    7.90057    0.42406    1.83422    2071.62   
246.7356   435.23297  87.574     8.60657    0.34926    2.60907    2134.41   
246.888    424.47833  88.50003   8.713469999999999 0.39151    2.63805    2163.56   
247.0404   426.23526  92.19152   9.43469    0.38463    2.43132    2177.12   
247.1928   423.24957  93.33678999999999 10.05733   0.38244    2.58703    2176.04   
247.3452   429.57605  94.98307   9.68332    0.35958    2.61744    2171.78   
247.4976   433.83542  96.79577999999999 7.92917    0.36742    2.79868    2132.17   
247.65     463.38373  98.94306   5.55597    0.44742    3.16518    2049.25   
247.8024   472.47504  95.95919000000001 5.59407    0.5513     2.2827     1961.48   
247.9548   470.87152  87.35559000000001 4.88782    0.52663    1.52945    1908.45   
248.1072   472.24146  88.81113000000001 4.53957    0.46919    2.53417    1908.05   
248.2596   463.51447  92.82393999999999 4.01576    0.47086    1.88452    1928.04   
248.412    489.55902  99.92352   3.93222    0.55887    2.20745    1924.31   
248.5644   509.89096  93.83781999999999 4.2199     0.65791    2.27672    1876.61   
248.7168   500.61319  87.47022   4.44165    0.67972    2.29884    1871.08   
248.8692   491.56766  87.67601999999999 5.22858    0.5361     2.03391    1954.64   
249.0216   462.11252  93.12931   5.77072    0.38355    2.7447     2079.32   
249.174    442.60245  98.39608   5.11651    0.43587    2.71148    2140.84   
249.3264   456.78061  97.06126   4.04458    0.5192600000000001 2.95117    2115.44   
249.4788   487.44287  97.67861000000001 3.59959    0.53348    2.43983    2035.97   
249.6312   478.07742  96.20713000000001 3.75597    0.62233    2.35422    1964.55   
249.7836   471.72638  93.01469   4.7621     0.60017    1.54737    1942.34   
249.936    444.8266   86.23585   8.51266    0.46888    2.11581    1982.53   
250.0884   429.6795   84.75512000000001 11.80347   0.41696    2.3603     2051.65   
250.2408   428.68042  81.77124000000001 11.14387   0.41411    2.38591    2098.22   
250.3932   429.45972  85.25753   11.05098   0.43909    2.73129    2129.05   
250.5456   425.7099   85.29776   11.82577   0.43217    2.55945    2144.47   
250.698    417.82404  86.75008   13.42905   0.3456     2.5689     2152.73   
250.8504   426.29913  82.84017   9.59877    0.38617    2.42984    2155.21   
251.0028   455.17493  81.09099999999999 10.45135   0.38107    2.45874    2126.82   
251.1552   469.26602  81.88758   5.57419    0.43817    2.5339     2057.8    
251.3076   478.29916  85.90039   2.78885    0.53612    2.6527     1981.36   
251.46     501.92929  88.57559000000001 2.0952     0.55699    2.42435    1952.41   
251.6124   510.47894  89.01425   2.30847    0.52658    2.1825     1947.13   
251.7648   502.52423  88.60268000000001 2.62003    0.53308    2.31865    1948.99   
251.9172   490.24472  89.63160999999999 2.64097    0.55742    2.01923    1958.38   
252.0696   500.51657  97.85064   3.22324    0.48381    1.95833    1985.7    
