~Version
 VERS              .         2.0                           : CWLS LOG ASCII STANDARD - VERSION 2.0
 WRAP              .         NO                            : ONE LINE PER DEPTH STEP
 DLM               .         SPACE                         : DELIMITING CHARACTER(SPACE TAB OR COMMA)
~Well Information
#_______________________________________________________________________________
#
#PARAMETER_NAME    .UNIT     VALUE                         : DESCRIPTION
#_______________________________________________________________________________
STRT               .M        -26.9748                      : First reference value
STOP               .M        363.474                       : Last reference value
STEP               .M        0.1524                        : Step increment
NULL               .         -9999                         : Missing value
COMP               .                                       : Company
WELL               .         G                             : Well name
FLD                .                                       : Field
LOC                .                                       : Location
CNTY               .                                       : County
STAT               .                                       : State
CTRY               .                                       : Country
SRVC               .                                       : Service Company
DATE               .                                       : Date
API                .                                       : API number
~Parameter Information Block
#_______________________________________________________________________________
#
#PARAMETER_NAME    .UNIT     VALUE                         : DESCRIPTION
#_______________________________________________________________________________
SET                .         Logs                          : 
TLFamily_DEPT      .         Measured Depth                : 
TLFamily_DT        .         Compressional Slowness        : 
TLFamily_GR        .         Gamma Ray                     : 
TLFamily_ILD       .         Resistivity - Deep            : 
TLFamily_NPOR_LIM  .         Thermal Neutron Porosity Limestone: 
TLFamily_PEF       .         Photoelectric Factor          : 
TLFamily_RHO       .         Bulk Density                  : 
~Curve Information
#_______________________________________________________________________________
#
#LOGNAME           .UNIT     LOG_ID                        : DESCRIPTION
#_______________________________________________________________________________
DEPT               .M                                      : Depth Index 
DT                 .US/M                                   : DELTA-T 
GR                 .GAPI                                   : GAMMA-RAY 
ILD                .OHMM                                   : ARRAY INDUCTION ONE FOOT RESISTIVITY A90 
NPOR_LIM           .V/V                                    : ENHANCED THERMAL NEUTRON POROSITY (MATRIX LIMESTONE) 
PEF                .B/E                                    : HRDD HIGH RESOLUTION FORMATION PHOTOELECTRIC FACTOR 
RHO                .K/M3                                   : HRDD STANDARD RESOLUTION FORMATION DENSITY 
~Ascii
# ...
65.8368    275.51767  54.42604   2.97756    0.48289    10         2958.43   
65.9892    275.51767  51.98935   2.97778    0.49336    9.99916    2960.81   
66.1416    275.51767  53.64907   2.97801    0.54262    9.977040000000001 2959.17   
66.294     275.51767  53.26026   2.97824    0.59583    9.98751    2959.81   
66.4464    275.51767  54.17494   2.97847    0.54097    9.997450000000001 2957.79   
66.5988    272.01846  53.584     2.97872    0.60378    10         2961.89   
66.7512    272.01846  53.2924    2.97896    0.6167899999999999 9.971489999999999 2962.46   
66.9036    264.39969  53.15502   2.97921    0.67931    9.96968    2964.38   
67.056     262.4248   51.31589   2.97945    0.60049    10         2960.32   
67.2084    264.75558  51.12149   2.97967    0.58475    9.984680000000001 2957.54   
67.3608    265.65448  52.91617   2.97988    0.68458    10         2953.7    
67.5132    261.03073  55.62975   2.98007    0.69056    9.971109999999999 2954.07   
67.6656    260.91705  54.94934   2.98022    0.71604    9.973940000000001 2949.4    
67.818     257.37411  53.64761   2.98035    0.57483    9.978059999999999 2947.24   
67.9704    257.09753  51.80153   2.98043    0.6198     10         2948.64   
68.1228    257.33731  54.42599   2.98046    0.63705    9.962759999999999 2950.55   
68.2752    256.15857  55.48763   2.98047    0.62097    10         2955.06   
68.4276    254.02762  58.28299   2.98044    0.56519    9.97303    2954.01   
68.58      254.59981  58.27483   2.98039    0.5853     10         2956.12   
68.7324    254.50308  57.50481   2.98034    0.61249    9.96095    2953.97   
68.8848    326.54562  55.0981    2.98026    0.67222    9.98513    2948.08   
69.0372    327.79623  54.13424   2.98023    0.69167    10         2948.32   
69.1896    328.25961  55.39787   2.98023    0.67128    9.994009999999999 2950.12   
69.342     321.62732  56.17516   2.98026    0.58795    9.97687    2955.34   
69.4944    366.77231  56.66117   2.98025    0.5708800000000001 10         2953.47   
69.6468    366.98148  56.36957   2.98015    0.6269400000000001 9.97908    2950.5    
69.7992    278.59515  58.21564   2.97987    0.55157    10         2953.32   
69.9516    252.00233  59.67368   2.97929    0.51886    9.96185    2959.76   
70.104     274.89844  58.79154   2.9783     0.54919    10         2968.3    
70.2564    331.789    59.96653   2.97681    0.5370200000000001 9.99522    2961.98   
70.4088    367.33795  61.52177   2.97478    0.55816    9.97095    2957.32   
70.5612    367.98236  65.60257   2.97227    0.57668    9.96326    2946.25   
70.7136    256.98978  65.60257   2.9694     0.57888    10         2948.7    
70.866     258.14606  65.78767999999999 2.96634    0.5190399999999999 10         2959.56   
71.0184    255.56114  67.06032999999999 2.96322    0.5777     10         3042.8    
71.1708    247.94614  65.31068   2.96017    0.72021    9.628119999999999 3095.46   
71.3232    498.96332  60.25826   2.95731    0.71199    9.51803    3035.84   
71.4756    492.78351  60.84147   2.9547     0.70166    8.83065    2843.61   
71.628     625.42554  75.13021000000001 2.95238    0.78708    4.90397    2524.25   
71.7804    659.28632  94.36826000000001 2.95031    0.65033    2.36533    2270.48   
71.9328    545.88989  107.78219  2.94842    0.4609     2.2317     2088.87   
72.0852    623.92456  109.51685  2.94672    0.42477    2.60037    2059.13   
72.2376    548.18713  113.32294  2.94514    0.45874    2.5114     2036.25   
72.39      551.9829099999999 113.51734  2.94384    0.54452    2.63617    2005.97   
72.5424    562.12531  113.71167  2.94268    0.60952    2.35804    1985.22   
72.6948    564.79211  113.51727  2.94095    0.53056    2.38958    2008.69   
72.8472    558.70691  117.87411  2.93735    0.53227    2.33478    2011.61   
72.9996    553.68677  116.81995  2.93094    0.53146    2.4756     2020.41   
73.152     546.22699  115.55633  2.92277    0.53417    2.58122    2022.73   
73.3044    548.29431  109.88432  2.91529    0.49129    2.54063    2052.08   
73.4568    557.51843  111.32678  2.91215    0.47054    2.50019    2062.09   
73.6092    564.71204  108.50791  2.91417    0.49383    2.58818    2055.61   
73.7616    570.24847  106.11548  2.91957    0.55301    2.46306    2043.12   
73.914     573.18732  105.06183  2.92633    0.53521    2.56138    2036.62   
74.0664    570.93823  103.61896  2.92342    0.57831    2.56008    2036.5    
74.2188    572.0285   105.89893  2.83726    0.53689    2.62128    2027      
74.3712    570.75299  108.62058  2.85652    0.58043    2.61061    2026.41   
74.5236    567.2607400000001 109.2651   2.85896    0.54679    2.50707    2019.65   
74.676     568.30859  111.16309  2.82192    0.54053    2.4443     2021.37   
74.8284    573.11212  107.6638   2.79461    0.5722     2.53486    2006.06   
74.9808    572.5316800000001 104.46354  2.87099    0.65029    2.58159    2011.26   
75.1332    566.70953  105.06239  2.86509    0.57757    2.51947    2022.71   
75.2856    562.14612  107.68685  2.82923    0.63371    2.44568    2045.71   
75.438     551.49652  110.79603  2.87175    0.6563600000000001 2.46713    2053.48   
75.5904    553.23181  106.51913  2.91242    0.6169     2.45043    2052.45   
75.7428    559.92877  105.3527   2.90755    0.55023    2.5243     2029.33   
75.8952    558.56659  106.51865  2.74332    0.60431    2.67945    1999.25   
76.0476    560.8513799999999 112.83679  2.84975    0.51111    2.41493    1984.36   
76.2       561.84973  114.37631  3.03053    0.50019    2.62389    2010.62   
76.3524    554.2569   116.91868  2.97479    0.54493    2.72522    2048.32   
76.5048    554.9233400000001 113.4194   2.92604    0.50939    2.62319    2072.42   
76.6572    556.13501  111.86481  2.8788     0.54613    2.57821    2067.58   
76.8096    550.88446  112.85119  2.86201    0.52823    2.55904    2067.99   
76.962     551.13904  112.63552  2.90422    0.5465100000000001 2.66217    2069.68   
77.1144    549.4518399999999 115.06448  3.21344    0.48392    2.62147    2081.72   
77.2668    545.76886  115.14733  3.11025    0.47237    2.57681    2084.4    
77.4192    544.88257  119.34829  3.05385    0.49476    2.61548    2088.77   
77.5716    542.73846  120.70864  3.08722    0.48764    2.48638    2086.95   
77.724     539.9123499999999 119.1534   3.14011    0.43164    2.47521    2090.83   
77.8764    539.78772  117.2904   3.29016    0.46496    2.50728    2083.05   
78.0288    544.90723  119.34829  3.53763    0.45439    2.43338    2081.38   
78.1812    551.1723   118.70301  3.23177    0.50612    2.70234    2065.54   
78.3336    555.63544  120.08001  2.75501    0.60522    2.78541    2055.32   
78.486     558.86139  117.0505   2.6676     0.57028    2.52232    2039.7    
78.6384    560.09619  118.18179  2.65738    0.54045    2.67269    2029.79   
78.7908    556.67358  117.50137  2.68758    0.54918    2.586      2028.35   
78.9432    552.9974999999999 119.15311  2.61158    0.5444600000000001 2.48334    2035.49   
79.0956    543.87805  117.40347  2.49679    0.50905    2.51467    2047.11   
79.248     531.95575  103.62238  2.62913    0.48388    2.56113    2076.03   
79.4004    525.53571  81.85811   5.06611    0.41579    2.8797     2116.37   
79.5528    548.12701  59.20997   9.94036    0.31178    3.11285    2147.06   
79.7052    494.83987  48.88489   15.18655   0.32026    2.90585    2164.63   
79.85760000000001 497.75256  48.20476   14.5333    0.30925    3.07661    2163.32   
80.01000000000001 517.48029  56.56416   16.98384   0.36347    3.06982    2210.63   
80.16240000000001 492.86749  63.65055   14.27035   0.37842    3.3896     2260.97   
80.31480000000001 506.94562  69.87909999999999 19.4285    0.3401     4.19808    2296.05   
80.46720000000001 538.71295  71.23993   17.61551   0.29929    4.93348    2249.76   
80.61960000000001 383.10818  75.32073   11.04125   0.42861    3.05303    2196.73   
80.77200000000001 392.88159  72.79346   7.33226    0.45613    2.04418    2310.68   
80.92440000000001 396.28943  66.66972   9.38157    0.34058    4.12691    2487.28   
81.07680000000001 404.07275  62.97757   11.32733   0.32493    5.94795    2580.85   
