~Version
 VERS              .         2.0                           : CWLS LOG ASCII STANDARD - VERSION 2.0
 WRAP              .         NO                            : ONE LINE PER DEPTH STEP
 DLM               .         SPACE                         : DELIMITING CHARACTER(SPACE TAB OR COMMA)
~Well Information
#_______________________________________________________________________________
#
#PARAMETER_NAME    .UNIT     VALUE                         : DESCRIPTION
#_______________________________________________________________________________
STRT               .M        -26.9748                      : First reference value
STOP               .M        363.474                       : Last reference value
STEP               .M        0.1524                        : Step increment
NULL               .         -9999                         : Missing value
COMP               .                                       : Company
WELL               .         G                             : Well name
FLD                .                                       : Field
LOC                .                                       : Location
CNTY               .                                       : County
STAT               .                                       : State
CTRY               .                                       : Country
SRVC               .                                       : Service Company
DATE               .                                       : Date
API                .                                       : API number
~Parameter Information Block
#_______________________________________________________________________________
#
#PARAMETER_NAME    .UNIT     VALUE                         : DESCRIPTION
#_______________________________________________________________________________
SET                .         Logs                          : 
TLFamily_DEPT      .         Measured Depth                : 
TLFamily_DT        .         Compressional Slowness        : 
TLFamily_GR        .         Gamma Ray                     : 
TLFamily_ILD       .         Resistivity - Deep            : 
TLFamily_NPOR_LIM  .         Thermal Neutron Porosity Limestone: 
TLFamily_PEF       .         Photoelectric Factor          : 
TLFamily_RHO       .         Bulk Density                  : 
~Curve Information
#_______________________________________________________________________________
#
#LOGNAME           .UNIT     LOG_ID                        : DESCRIPTION
#_______________________________________________________________________________
DEPT               .M                                      : Depth Index 
DT                 .US/M                                   : DELTA-T 
GR                 .GAPI                                   : GAMMA-RAY 
ILD                .OHMM                                   : ARRAY INDUCTION ONE FOOT RESISTIVITY A90 
NPOR_LIM           .V/V                                    : ENHANCED THERMAL NEUTRON POROSITY (MATRIX LIMESTONE) 
PEF                .B/E                                    : HRDD HIGH RESOLUTION FORMATION PHOTOELECTRIC FACTOR 
RHO                .K/M3                                   : HRDD STANDARD RESOLUTION FORMATION DENSITY 
~Ascii
# ...
189.8904   478.0079   50.95397   19.33405   0.38169    2.11165    2030.08   
190.0428   477.73447  50.64529   19.77803   0.38226    2.11586    2037.88   
190.1952   477.733    49.00558   21.51071   0.37262    2.01735    2040.93   
190.3476   477.04953  48.66938   21.61502   0.35279    2.0365     2038      
190.5      475.78726  46.61778   23.23403   0.3503     2.08211    2028.59   
190.6524   476.29929  47.76497   26.38643   0.35565    2.11099    2020.9    
190.8048   476.89954  46.32977   26.75144   0.34337    2.13738    2016.89   
190.9572   475.57605  49.71898   23.78444   0.33321    2.05338    2016.86   
191.1096   475.15073  50.047     21.16066   0.33763    2.06538    2022.46   
191.262    473.96222  51.59038   21.09773   0.31836    2.06186    2032.37   
191.4144   472.17493  50.06894   22.20998   0.33982    2.02775    2035.6    
191.5668   471.48486  48.79294   21.84254   0.36017    2.04612    2032.49   
191.7192   471.52283  48.49187   21.24698   0.38608    2.06725    2025.99   
191.8716   472.15851  48.37507   20.91434   0.35513    1.99323    2024.63   
192.024    475.16766  49.61699   20.68692   0.33875    1.9762     2029.25   
192.1764   475.25186  50.02095   20.57305   0.35732    2.02115    2031.2    
192.3288   474.97241  50.52737   24.50507   0.37659    2.03577    2036.63   
192.4812   473.95825  50.72596   29.01073   0.34737    1.95357    2036.64   
192.6336   472.30344  51.72581   29.53845   0.34303    2.03303    2038.68   
192.786    471.11212  54.31468   29.35972   0.35825    2.0419     2035.82   
192.9384   471.62335  53.49337   29.07817   0.36495    2.14671    2030.71   
193.0908   470.86945  49.66797   28.10327   0.33637    2.12399    2028.99   
193.2432   472.767    46.77042   26.78867   0.36987    2.07933    2030.58   
193.3956   473.62006  47.42724   24.2863    0.35456    1.94553    2030      
193.548    474.96451  51.17881   22.41794   0.34667    2.01832    2024.95   
193.7004   478.02731  51.69328   21.32083   0.35656    2.01332    2018.01   
193.8528   481.19989  52.68091   20.86432   0.38642    2.03542    2017.37   
194.0052   483.02933  50.93917   20.12798   0.38783    2.05544    2016.89   
194.1576   489.78394  52.68834   19.78226   0.38772    2.10441    2018.58   
194.31     496.65427  51.04206   18.89648   0.38314    2.11826    2012.3    
194.4624   493.1611   48.46233   12.07833   0.40739    2.03765    2014.45   
194.6148   496.66852  42.19123   10.67188   0.41192    2.01071    2026.02   
194.7672   498.59515  37.56108   22.27033   0.40133    2.45351    2047.15   
194.9196   494.23016  31.49042   30.65968   0.38316    2.03858    2054.91   
195.072    495.7818   30.55905   26.46578   0.31968    1.7566     2057      
195.2244   490.35876  35.0932    24.73457   0.28038    2.27776    2056.19   
195.3768   481.45084  40.85518   22.19876   0.33344    1.84659    2052.54   
195.5292   475.6618   40.85518   21.21595   0.34706    1.89286    2041.95   
195.6816   471.59775  39.20201   19.34935   0.32936    1.96538    2032.6    
195.834    475.44644  37.25235   18.51966   0.34473    1.98292    2036.85   
195.9864   472.30563  36.32632   18.81028   0.34282    1.92151    2057.75   
196.1388   462.32559  33.75401   20.26445   0.30017    2.05543    2091.62   
196.2912   463.88666  32.41111   22.32678   0.29961    2.12928    2124.45   
196.4436   463.93637  32.51857   26.9927    0.31324    2.33433    2135.57   
196.596    473.66296  33.65039   30.60679   0.28267    1.79036    2111.27   
196.7484   485.14828  36.84006   24.80786   0.28093    1.71153    2073.56   
196.9008   487.37173  42.59745   20.98995   0.32431    1.88033    2039.69   
197.0532   481.90326  47.64693   20.24854   0.39346    1.89792    2022.69   
197.2056   478.50897  53.20313   20.5897    0.38193    1.96395    2018.59   
197.358    475.0166   56.59858   19.35745   0.37164    1.88305    2026.66   
197.5104   470.41293  53.40117   16.03964   0.41357    2.14708    2045.86   
197.6628   470.39664  45.27765   18.66665   0.38674    1.95544    2061.52   
197.8152   468.26505  40.85327   20.09112   0.31751    1.92638    2065.44   
197.9676   466.61856  42.80823   20.71643   0.29993    1.96035    2057.73   
198.12     468.76831  46.40448   20.83925   0.34196    2.10038    2049.1    
198.2724   481.11832  48.88164   23.88098   0.3387     2.06878    2030.52   
198.4248   496.94226  55.98122   9.629759999999999 0.3106     1.94301    2026.81   
198.5772   511.2977   71.41508   4.09103    0.40613    2.13819    2025.89   
198.7296   521.91174  87.04698999999999 2.65104    0.55902    2.71212    2053.53   
198.882    523.13312  95.39527   2.69198    0.54659    2.38603    2066.4    
199.0344   516.56915  99.24982   2.66306    0.51072    2.49531    2050.32   
199.1868   526.9315800000001 96.48513   2.76907    0.52666    2.54997    1990.16   
199.3392   519.79413  92.25252999999999 3.42032    0.59448    2.477      1947.38   
199.4916   500.1832   90.45583000000001 3.8434     0.54187    2.35314    1955.47   
199.644    512.8175   91.57424   3.131      0.47281    2.92393    2010.68   
199.7964   496.33466  95.60095   2.97422    0.60824    2.0891     2033.27   
199.9488   494.74896  97.55591   2.82344    0.61098    2.52459    2037.24   
200.1012   497.30185  98.07037   2.62957    0.5207000000000001 2.39027    2021.99   
200.2536   490.24222  99.18827   2.54094    0.56104    2.47628    2007.79   
200.406    526.53644  91.89483   2.77126    0.51789    2.28143    1890.64   
200.5584   542.17218  83.62878000000001 3.19789    0.578      2.52356    1721.89   
200.7108   538.03741  75.58812   3.41583    0.68484    1.02985    1635.64   
200.8632   527.12189  71.36781999999999 3.8803     0.6061800000000001 1.58202    1672.11   
201.0156   515.46289  75.10659   4.03475    0.50124    2.73198    1697.99   
201.168    488.26782  76.77952000000001 4.38796    0.52013    1.26965    1629.07   
201.3204   502.81055  79.75320000000001 4.13498    0.58863    1.09131    1617.35   
201.4728   499.63043  81.91394   4.08387    0.6264     1.99341    1744.13   
201.6252   481.9071   83.9602    3.20769    0.53128    1.99416    1927.06   
201.7776   473.0668   84.69213000000001 3.52881    0.45187    2.64373    2045.91   
201.93     461.58072  83.35453   5.12127    0.42868    2.57364    2086.11   
202.0824   445.3746   79.23882999999999 9.257199999999999 0.37289    2.50411    2099.71   
202.2348   436.76587  75.52301   10.97421   0.36195    2.593      2092.21   
202.3872   381.17783  69.34945999999999 13.62997   0.37897    2.6362     2077.77   
202.5396   383.92154  66.68378   24.24758   0.35679    2.5102     2051.77   
202.692    386.87738  62.32033   34.17068   0.39472    2.42369    2027.38   
202.8444   397.57846  60.77695   29.27858   0.38217    2.34828    2015.42   
202.9968   447.77777  59.01826   19.03938   0.40365    2.40414    2019.17   
203.1492   460.6257   59.67758   17.24323   0.44182    2.43192    2019.23   
203.3016   462.35907  59.22433   16.80114   0.40271    2.50605    2022.03   
203.454    462.36798  61.17929   16.97925   0.40413    2.45388    2019.28   
203.6064   463.57446  63.14354   15.61259   0.40858    2.49001    2020.52   
203.7588   462.56934  63.59679   16.54759   0.43321    2.57612    2021.64   
203.9112   461.01138  62.77365   18.09214   0.40573    2.52375    2025.25   
204.0636   460.58984  62.35279   19.25859   0.38722    2.49687    2026.98   
204.216    459.06418  61.84721   19.39953   0.39407    2.44675    2023.75   
204.3684   458.42493  58.76044   19.02308   0.40063    2.51169    2019.95   
204.5208   458.74954  57.73151   18.48319   0.39906    2.33118    2022.68   
204.6732   458.52069  54.84164   18.16628   0.37821    2.14721    2024.95   
204.8256   458.88058  56.29176   17.95205   0.4038     2.26385    2031.46   
204.978    459.54837  53.00641   17.75856   0.42415    2.25011    2028.25   
205.1304   459.86826  51.15435   17.34871   0.38663    2.24856    2025.62   
205.2828   460.28238  49.29266   16.66235   0.37549    2.25745    2020.47   
205.4352   461.25723  51.03463   16.98032   0.38485    2.28861    2022.59   
