~Version
 VERS              .         2.0                           : CWLS LOG ASCII STANDARD - VERSION 2.0
 WRAP              .         NO                            : ONE LINE PER DEPTH STEP
 DLM               .         SPACE                         : DELIMITING CHARACTER(SPACE TAB OR COMMA)
~Well Information
#_______________________________________________________________________________
#
#PARAMETER_NAME    .UNIT     VALUE                         : DESCRIPTION
#_______________________________________________________________________________
STRT               .M        -26.9748                      : First reference value
STOP               .M        363.474                       : Last reference value
STEP               .M        0.1524                        : Step increment
NULL               .         -9999                         : Missing value
COMP               .                                       : Company
WELL               .         G                             : Well name
FLD                .                                       : Field
LOC                .                                       : Location
CNTY               .                                       : County
STAT               .                                       : State
CTRY               .                                       : Country
SRVC               .                                       : Service Company
DATE               .                                       : Date
API                .                                       : API number
~Parameter Information Block
#_______________________________________________________________________________
#
#PARAMETER_NAME    .UNIT     VALUE                         : DESCRIPTION
#_______________________________________________________________________________
SET                .         Logs                          : 
TLFamily_DEPT      .         Measured Depth                : 
TLFamily_DT        .         Compressional Slowness        : 
TLFamily_GR        .         Gamma Ray                     : 
TLFamily_ILD       .         Resistivity - Deep            : 
TLFamily_NPOR_LIM  .         Thermal Neutron Porosity Limestone: 
TLFamily_PEF       .         Photoelectric Factor          : 
TLFamily_RHO       .         Bulk Density                  : 
~Curve Information
#_______________________________________________________________________________
#
#LOGNAME           .UNIT     LOG_ID                        : DESCRIPTION
#_______________________________________________________________________________
DEPT               .M                                      : Depth Index 
DT                 .US/M                                   : DELTA-T 
GR                 .GAPI                                   : GAMMA-RAY 
ILD                .OHMM                                   : ARRAY INDUCTION ONE FOOT RESISTIVITY A90 
NPOR_LIM           .V/V                                    : ENHANCED THERMAL NEUTRON POROSITY (MATRIX LIMESTONE) 
PEF                .B/E                                    : HRDD HIGH RESOLUTION FORMATION PHOTOELECTRIC FACTOR 
RHO                .K/M3                                   : HRDD STANDARD RESOLUTION FORMATION DENSITY 
~Ascii
# ...
158.3436   455.34204  99.1157    13.7907    0.41259    2.09562    2110.74   
158.496    452.99942  101.76637  13.82501   0.3913     2.1392     2117.54   
158.6484   446.42755  103.46328  14.13159   0.37775    2.12949    2133.46   
158.8008   441.05609  104.09054  14.99388   0.34942    2.13206    2143.31   
158.9532   438.64459  101.425    15.48704   0.32126    2.21496    2157.1    
159.1056   434.39709  102.10989  15.16425   0.3207     2.16411    2164.58   
159.258    424.76279  103.45078  13.73408   0.33617    2.15585    2158.12   
159.4104   466.63638  106.93945  13.10338   0.34881    2.32367    2088.27   
159.5628   479.31265  100.67816  13.10575   0.46142    2.31571    1992.74   
159.7152   478.28415  91.71218   12.93939   0.5707100000000001 1.87718    1945.81   
159.8676   477.09518  82.86342999999999 15.74182   0.44348    2.41338    1998.64   
160.02     455.49258  85.81565000000001 15.09664   0.44477    2.19649    2091.27   
160.1724   456.56628  89.82383   15.26874   0.49244    2.55701    2152.68   
160.3248   468.47906  89.62238000000001 13.98622   0.45769    2.30842    2151.5    
160.4772   496.48441  78.25088   19.00629   0.39644    2.42758    2117.13   
160.6296   492.49924  64.77197   31.31585   0.22436    2.72732    2063.99   
160.782    487.81717  61.3824    33.01239   0.17265    2.26591    2039.82   
160.9344   497.39728  62.15722   16.85958   0.28423    2.2273     2051.06   
161.0868   508.94388  69.56547   13.63755   0.42764    2.1981     2054.54   
161.2392   534.17889  66.06655000000001 17.72336   0.36165    2.27776    2017.03   
161.3916   565.71857  65.86076   36.46788   0.17735    2.37606    1942.23   
161.544    566.67981  58.3012    53.08785   0.1019     2.36065    1908.16   
161.6964   544.48785  56.11438   46.4896    0.16955    2.29153    1938.55   
161.8488   505.74405  52.30736   22.98757   0.34761    2.3831     1998.1    
162.0012   473.68643  52.52604   23.35244   0.38325    2.20013    2036.21   
162.1536   468.55942  55.15023   21.66642   0.37246    2.2529     2044.92   
162.306    457.35556  57.31097   21.47879   0.3675     2.13956    2049.49   
162.4584   460.97937  56.21756   21.63501   0.39089    2.53633    2050.11   
162.6108   465.50925  54.79612   22.15302   0.38793    2.07404    2046.25   
162.7632   470.87106  55.41348   22.5444    0.35425    2.101      2043.32   
162.9156   470.34711  56.06952   23.0514    0.3655     2.14756    2043.61   
163.068    465.1824   53.55261   22.38694   0.33176    2.03426    2046.05   
163.2204   459.55048  51.70805   21.41903   0.32744    2.09042    2046.45   
163.3728   454.95062  51.88032   20.22232   0.37004    2.08184    2051.21   
163.5252   457.17444  56.80275   19.38242   0.36513    2.08893    2059.63   
163.6776   458.79776  56.69345   19.30108   0.35713    2.15849    2068.53   
163.83     462.46347  54.32589   18.65921   0.3491     2.09303    2078.79   
163.9824   462.75626  51.48302   18.35143   0.33026    2.20477    2082.28   
164.1348   462.87692  50.06224   17.48188   0.33241    2.44369    2078.38   
164.2872   464.84735  49.03287   16.68367   0.3695     2.36835    2068.92   
164.4396   463.68762  49.51865   16.10273   0.38171    2.11584    2062.79   
164.592    468.0119   52.36909   15.23534   0.37946    2.11634    2061.24   
164.7444   461.46774  56.58111   15.0616    0.36472    2.09554    2056.84   
164.8968   453.97272  58.71952   14.80508   0.3449     2.05511    2057.14   
165.0492   451.12158  63.35941   12.35054   0.32853    2.23844    2071.96   
165.2016   437.35205  73.63421   10.87966   0.41148    2.25383    2099.27   
165.354    436.32556  81.50678000000001 10.54357   0.40413    2.30216    2138.11   
165.5064   400.17984  84.3021    10.70617   0.41931    2.33449    2214.46   
165.6588   341.1329   74.64465   11.5549    0.35152    2.67093    2336.04   
165.8112   304.83951  67.8655    25.43531   0.27271    4.96686    2451.73   
165.9636   312.02676  64.58526999999999 27.71354   0.23302    4.00989    2435.77   
166.116    350.64883  70.85314   21.41594   0.26208    2.79564    2315.88   
166.2684   404.54816  69.06180999999999 16.90882   0.36039    2.37682    2167.74   
166.4208   444.57623  67.53103   19.23154   0.33966    2.22654    2099.9    
166.5732   444.3504   59.61688   20.71778   0.31734    2.2085     2085.13   
166.7256   445.14874  57.69061   21.68181   0.30203    2.2128     2084.74   
166.878    444.5528   54.08235   23.2656    0.3234     2.17195    2081.68   
167.0304   448.9245   55.41995   22.68426   0.31211    2.18847    2072.24   
167.1828   451.87503  57.71611   21.87329   0.32419    2.30688    2064.81   
167.3352   446.89819  57.71611   22.08901   0.34117    2.29905    2058.86   
167.4876   446.60684  56.68719   22.19295   0.32825    2.32367    2058.5    
167.64     446.35828  54.50037   21.5013    0.3601     2.39962    2060.41   
167.7924   443.34772  54.82839   20.52388   0.39311    2.34918    2062.75   
167.9448   439.19501  55.75442   19.45741   0.35875    2.41742    2066.06   
168.0972   441.52847  57.50388   18.84726   0.33795    2.2867     2069.76   
168.2496   439.61377  56.83205   18.3714    0.31657    2.31418    2073.04   
168.402    438.42447  58.48179   18.40261   0.32466    2.3639     2073.69   
168.5544   439.00183  56.40431   18.46979   0.33336    2.3797     2075.3    
168.7068   438.51697  57.22745   19.13394   0.32311    2.39467    2076.22   
168.8592   439.13174  57.55547   18.54756   0.36152    2.49023    2073.83   
169.0116   440.22318  60.83571   18.40829   0.38533    2.42948    2068.34   
169.164    443.91983  66.18612   20.04337   0.39513    2.4298     2063.65   
169.3164   441.49689  66.51414   20.85487   0.37791    2.62938    2063.09   
169.4688   440.71777  66.51414   20.25153   0.38794    2.56124    2066.28   
169.6212   444.58234  60.35638   20.70144   0.36373    2.53001    2065.34   
169.7736   445.09927  58.56505   21.30143   0.32466    2.34535    2058.11   
169.926    450.74979  58.89307   20.61355   0.35755    2.32072    2047.21   
170.0784   452.60797  62.39199   19.04369   0.36472    2.31589    2043.35   
170.2308   452.36313  61.15728   18.90282   0.34131    2.24088    2049.92   
170.3832   453.62497  59.40782   19.13309   0.37363    2.23378    2058.6    
170.5356   452.18521  59.6265    19.45664   0.38857    2.19509    2059.23   
170.688    451.98035  59.42072   19.08899   0.34853    2.21054    2053.43   
170.8404   452.91129  62.37292   19.30367   0.34487    2.21306    2048.62   
170.9928   454.53265  65.43447999999999 19.41624   0.34678    2.22632    2052.13   
171.1452   452.38776  66.87497999999999 20.2667    0.36489    2.27979    2053.05   
171.2976   453.41806  62.28264   21.23975   0.40621    2.23099    2053.38   
171.45     454.43494  59.08893   20.40875   0.35769    2.18162    2054.53   
171.6024   451.75723  59.34949   19.58088   0.36812    2.27826    2059.56   
171.7548   456.20947  61.31763   19.12314   0.36383    2.22459    2057.24   
171.9072   460.96817  61.21473   18.83475   0.36525    2.21326    2051.57   
172.0596   462.40009  65.36969999999999 19.6784    0.35565    2.20079    2039.17   
172.212    468.02411  67.48857   19.24524   0.3885     2.24714    2035.09   
172.3644   466.67874  68.92637000000001 19.62974   0.40626    2.34684    2030.15   
172.5168   464.92413  62.58458   19.86865   0.38758    2.32018    2033.51   
172.6692   464.45432  61.24698   17.65203   0.40012    2.44437    2037.61   
172.8216   462.93164  57.20135   18.13567   0.39134    2.26407    2042.5    
172.974    460.96558  58.93049   17.50562   0.35863    2.38887    2051.06   
173.1264   459.65063  56.1727    18.28634   0.35861    2.29825    2064.98   
173.2788   459.25021  52.89246   23.08736   0.35714    2.23562    2082.16   
173.4312   456.94681  46.78966   23.63101   0.30415    2.10524    2096.87   
173.5836   455.14896  44.72056   20.40324   0.29766    1.98591    2101.77   
173.736    457.5506   46.49292   18.22357   0.3051     2.05683    2095.36   
173.8884   454.92102  48.57041   17.70886   0.30653    2.16064    2086.77   
