~Version
 VERS              .         2.0                           : CWLS LOG ASCII STANDARD - VERSION 2.0
 WRAP              .         NO                            : ONE LINE PER DEPTH STEP
 DLM               .         SPACE                         : DELIMITING CHARACTER(SPACE TAB OR COMMA)
~Well Information
#_______________________________________________________________________________
#
#PARAMETER_NAME    .UNIT     VALUE                         : DESCRIPTION
#_______________________________________________________________________________
STRT               .M        -26.9748                      : First reference value
STOP               .M        363.474                       : Last reference value
STEP               .M        0.1524                        : Step increment
NULL               .         -9999                         : Missing value
COMP               .                                       : Company
WELL               .         G                             : Well name
FLD                .                                       : Field
LOC                .                                       : Location
CNTY               .                                       : County
STAT               .                                       : State
CTRY               .                                       : Country
SRVC               .                                       : Service Company
DATE               .                                       : Date
API                .                                       : API number
~Parameter Information Block
#_______________________________________________________________________________
#
#PARAMETER_NAME    .UNIT     VALUE                         : DESCRIPTION
#_______________________________________________________________________________
SET                .         Logs                          : 
TLFamily_DEPT      .         Measured Depth                : 
TLFamily_DT        .         Compressional Slowness        : 
TLFamily_GR        .         Gamma Ray                     : 
TLFamily_ILD       .         Resistivity - Deep            : 
TLFamily_NPOR_LIM  .         Thermal Neutron Porosity Limestone: 
TLFamily_PEF       .         Photoelectric Factor          : 
TLFamily_RHO       .         Bulk Density                  : 
~Curve Information
#_______________________________________________________________________________
#
#LOGNAME           .UNIT     LOG_ID                        : DESCRIPTION
#_______________________________________________________________________________
DEPT               .M                                      : Depth Index 
DT                 .US/M                                   : DELTA-T 
GR                 .GAPI                                   : GAMMA-RAY 
ILD                .OHMM                                   : ARRAY INDUCTION ONE FOOT RESISTIVITY A90 
NPOR_LIM           .V/V                                    : ENHANCED THERMAL NEUTRON POROSITY (MATRIX LIMESTONE) 
PEF                .B/E                                    : HRDD HIGH RESOLUTION FORMATION PHOTOELECTRIC FACTOR 
RHO                .K/M3                                   : HRDD STANDARD RESOLUTION FORMATION DENSITY 
~Ascii
# ...
142.7988   500.46875  51.81199   21.57311   0.35386    1.82362    2047.43   
142.9512   492.20419  54.10815   19.34837   0.31903    1.79108    2048      
143.1036   494.3287   54.34262   20.00829   0.35298    1.79282    2050.89   
143.256    482.07745  58.06966   20.00555   0.3459     1.88895    2054.89   
143.4084   471.34421  59.70978   20.27659   0.34056    1.87563    2065.57   
143.5608   469.1926   61.3499    20.57138   0.33823    1.99433    2079.34   
143.7132   468.60095  64.6207    20.62479   0.36965    1.96707    2100.59   
143.8656   470.02878  70.58499999999999 20.48456   0.35929    2.07693    2109.96   
144.018    472.40561  80.86308   18.02666   0.36573    2.20603    2119.74   
144.1704   473.71176  85.20631   16.91471   0.39958    2.19801    2117.46   
144.3228   470.19989  87.11459000000001 16.24534   0.39586    2.15468    2115.38   
144.4752   467.29636  83.17829999999999 15.44905   0.37188    2.14352    2102.8    
144.6276   467.78958  82.14937999999999 15.19018   0.33879    2.29023    2095.86   
144.78     468.06662  84.44553000000001 14.61033   0.37513    2.25452    2096.25   
144.9324   468.57172  84.55488   14.34572   0.38992    2.26156    2099      
145.0848   467.91727  84.24621   14.1567    0.39462    2.2903     2096.62   
145.2372   465.88611  83.48081000000001 14.64935   0.39412    2.1872     2095.4    
145.3896   464.24579  85.77697999999999 15.42324   0.40584    2.28826    2103.3    
145.542    463.43021  89.99557   16.18693   0.4095     2.27614    2105.75   
145.6944   463.66983  88.02741   15.92966   0.39844    2.22937    2106.15   
145.8468   461.68475  91.74502   15.97797   0.35925    2.31246    2101.74   
145.9992   462.13135  92.87683   15.77391   0.39878    2.38488    2096.77   
146.1516   462.52139  97.79719   15.80923   0.40753    2.37885    2094.82   
146.304    461.24561  101.68548  15.93452   0.40131    2.63475    2088.62   
146.4564   462.5051   101.84283  16.63669   0.39349    2.19572    2103.49   
146.6088   460.46188  100.09562  17.3415    0.37026    2.04912    2105.84   
146.7612   459.22733  101.23704  19.00518   0.37686    1.80856    2104.08   
146.9136   453.36121  99.26981000000001 20.40091   0.37679    1.84222    2113.21   
147.066    456.52631  93.69114999999999 21.05175   0.3405     1.73176    2130.79   
147.2184   442.60495  81.94714999999999 20.56853   0.32265    2.05605    2157.47   
147.3708   439.20532  72.65749   21.46935   0.33212    2.03849    2177.13   
147.5232   449.39612  68.28384   23.31308   0.34636    3.20466    2191.23   
147.6756   447.88831  59.84295   21.2068    0.3547     2.5654     2169.16   
147.828    461.99026  59.10985   19.57784   0.34826    1.98949    2129.02   
147.9804   460.55771  56.37632   21.11818   0.35068    1.94436    2122.45   
148.1328   454.59286  62.67488   23.07552   0.38821    2.00606    2160.87   
148.2852   454.11203  66.68668   24.2874    0.3683     3.09578    2188.66   
148.4376   462.25769  69.59344   23.22898   0.36534    2.19126    2156.84   
148.59     470.39218  65.98518   20.90416   0.37127    1.93579    2105.89   
148.7424   468.10049  65.26594   19.84724   0.30063    1.86155    2071.95   
148.8948   457.98138  65.96744   18.36934   0.3155     1.8289     2076.08   
149.0472   449.33435  71.54385000000001 17.85266   0.3374     1.94463    2067.41   
149.1996   459.43011  75.04218   16.87403   0.36067    1.90255    2045.46   
149.352    463.5575   77.55704   13.92522   0.41041    2.08369    2025.16   
149.5044   466.68982  83.07049000000001 13.02416   0.42969    1.88078    2035.08   
149.6568   459.02426  79.64684   14.96397   0.35274    2.18852    2062.61   
149.8092   437.92578  80.3308    14.87437   0.31167    1.87318    2084.36   
149.9616   439.89493  78.64429   15.9057    0.33092    1.97631    2087.28   
150.114    438.36658  83.92001   16.05503   0.35839    2.2405     2093.37   
150.2664   446.35333  85.86023   15.45441   0.36241    2.23348    2089.5    
150.4188   451.93268  85.79756999999999 15.22703   0.33168    2.13108    2111.51   
150.5712   451.54605  84.02077   16.22185   0.35492    2.23669    2119.44   
150.7236   453.62271  84.8955    17.36221   0.35202    2.14213    2120.36   
150.876    476.12979  86.74755999999999 17.39598   0.32408    2.05893    2091.06   
151.0284   469.99649  91.12121   15.47539   0.4034     2.67062    2090.18   
151.1808   467.06784  93.63605   16.60363   0.40071    2.34919    2090.48   
151.3332   459.66641  92.09267   18.40317   0.33628    2.4563     2116.97   
151.4856   443.48434  89.14046   18.64746   0.33238    2.14385    2064.98   
151.638    458.87384  89.16105   19.04377   0.37359    2.75866    1976.07   
151.7904   488.27203  91.97659   15.63256   0.45012    1.63289    1816.2    
151.9428   501.78952  90.80074   13.18992   0.5146500000000001 2.25556    1771.18   
152.0952   505.84088  93.93504   8.63354    0.49452    1.514      1840.51   
152.2476   519.3146400000001 94.80978   8.13757    0.44405    2.78398    1955.34   
152.4      501.66428  97.17734   7.16008    0.50048    2.73894    2007.75   
152.5524   500.64038  99.03527   6.92205    0.49539    1.88994    1993.73   
152.7048   508.11151  104.9397   6.40309    0.45028    2.71427    1996.94   
152.8572   507.93436  110.08658  6.35277    0.50419    2.21596    1944.7    
153.0096   500.51056  109.9303   6.60636    0.53435    2.18902    1894.11   
153.162    512.1077299999999 105.66599  6.38572    0.5522     1.38228    1852.53   
153.3144   498.96887  102.56372  7.13753    0.51879    1.83872    1889.06   
153.4668   486.62552  97.59784000000001 6.97183    0.5283     2.37051    1904.96   
153.6192   481.32214  93.09059999999999 7.35212    0.52325    3.30456    1882.89   
153.7716   477.50177  89.96359   8.44042    0.5160400000000001 1.71233    1826.09   
153.924    463.80051  86.69808   9.50831    0.57905    1.92686    1803.92   
154.0764   474.39246  92.29874   8.228490000000001 0.48534    1.75798    1810.47   
154.2288   479.82138  95.25095   11.34001   0.4543     2.1979     1820.21   
154.3812   456.98978  101.42449  11.31495   0.50812    1.30648    1858.95   
154.5336   453.03891  102.51791  11.86983   0.42462    1.58327    1950.69   
154.686    426.50372  104.15803  14.12115   0.35739    2.3341     2085.84   
154.8384   409.23672  107.45058  12.56406   0.34175    2.21743    2168.39   
154.9908   417.21991  102.63956  11.71368   0.34207    2.11183    2196.92   
155.1432   409.1398   100.76266  11.169     0.36508    2.07809    2175.23   
155.2956   435.87747  98.71704   11.31721   0.34982    2.19899    2116.49   
155.448    467.92508  102.90464  10.5412    0.43805    2.60893    1993.59   
155.6004   497.90564  107.62441  8.38538    0.55119    2.01712    1899.63   
155.7528   492.10352  105.46594  10.57061   0.53727    1.93104    1920.68   
155.9052   473.09335  107.60224  10.38856   0.41999    2.10799    2029.98   
156.0576   447.45697  106.9462   15.42925   0.37248    2.37874    2152.82   
156.21     429.48871  112.81365  13.85301   0.36483    2.34375    2204.48   
156.3624   441.66989  118.29138  12.19246   0.41581    2.31879    2228.76   
156.5148   445.56039  127.3667   10.62373   0.3814     2.33511    2224.75   
156.6672   451.15274  128.57808  9.839320000000001 0.38653    2.28888    2218.9    
156.8196   453.43118  122.30164  9.35319    0.43685    2.36378    2200.42   
156.972    456.12772  112.89828  11.11701   0.44054    2.48027    2170.35   
157.1244   457.48584  104.57026  12.30754   0.39693    2.23986    2131.73   
157.2768   457.54276  101.01321  13.79827   0.38057    2.19172    2108.66   
157.4292   461.86426  99.43823999999999 13.9593    0.4164     2.04023    2099.79   
157.5816   464.95319  106.01681  14.52857   0.40008    2.0371     2108.9    
157.734    464.92538  109.16229  14.077     0.35262    2.15298    2115.78   
157.8864   464.60916  110.08121  13.95609   0.34411    2.19522    2123.13   
158.0388   462.97479  103.63007  13.55988   0.38938    2.17748    2119.55   
158.1912   457.79181  98.89703   13.83595   0.39094    2.1198     2110.77   
