~Version
 VERS              .         2.0                           : CWLS LOG ASCII STANDARD - VERSION 2.0
 WRAP              .         NO                            : ONE LINE PER DEPTH STEP
 DLM               .         SPACE                         : DELIMITING CHARACTER(SPACE TAB OR COMMA)
~Well Information
#_______________________________________________________________________________
#
#PARAMETER_NAME    .UNIT     VALUE                         : DESCRIPTION
#_______________________________________________________________________________
STRT               .m        160.1                         : First reference value
STOP               .m        414.1508                      : Last reference value
STEP               .m        0.1524                        : Step increment
NULL               .         -9999                         : Missing value
COMP               .                                       : Company
WELL               .         H                             : Well name
FLD                .                                       : Field
LOC                .                                       : Location
CNTY               .                                       : County
STAT               .                                       : State
CTRY               .                                       : Country
SRVC               .                                       : Service Company
DATE               .                                       : Date
API                .                                       : API number
~Parameter Information Block
#_______________________________________________________________________________
#
#PARAMETER_NAME    .UNIT     VALUE                         : DESCRIPTION
#_______________________________________________________________________________
SET                .         Inclination                   : 
TLFamily_AZI       .         Hole Azimuth                  : 
TLFamily_AZ_OF_P1  .                                       : 
TLFamily_CAL2      .         Caliper 2                     : 
TLFamily_CAL4      .         Caliper                       : 
TLFamily_CAL6      .         Caliper                       : 
TLFamily_CAL8      .         Caliper                       : 
TLFamily_CALX      .         Caliper 1                     : 
TLFamily_CALY      .         Caliper 2                     : 
TLFamily_DEV       .         Hole Deviation                : 
TLFamily_DMAX      .         Caliper                       : 
TLFamily_DMIN      .         Caliper                       : 
TLFamily_GR        .         Gamma Ray                     : 
TLFamily_HAZI      .         Hole Azimuth                  : 
TLFamily_MD        .         Measured Depth                : 
TLFamily_RB_OF_P1  .         Relative Bearing              : 
TLFamily_ROT       .         Relative Bearing              : 
~Curve Information
#_______________________________________________________________________________
#
#LOGNAME           .UNIT     LOG_ID                        : DESCRIPTION
#_______________________________________________________________________________
MD                 .m                                      :  
AZ_OF_P1           .deg                                    : Unrecognised 
AZI                .deg                                    : AZIMUTH OF FIRST PIXEL OF IMAGE ARRAY 
CAL2               .in                                     : Caliper 
CAL4               .in                                     : Caliper 
CAL6               .in                                     : Caliper 
CAL8               .in                                     : Caliper 
CALX               .in                                     : Caliper 
CALY               .in                                     : Caliper 
DEV                .deg                                    : Deviation 
DMAX               .in                                     : Caliper 
DMIN               .in                                     : Caliper 
GR                 .gAPI                                   : Gamma Ray 
HAZI               .deg                                    : HOLE AZIMUTH 
RB_OF_P1           .deg                                    : Unrecognised 
ROT                .deg                                    : RELATIVE BEARING OF FIRST PIXEL OF IMAGE ARRAY 
~Ascii
# ...
223.1936   346.3647   0          7.753752   7.547254   7.636118   7.743217   7.695714   7.726056   0.8656615  7.726056   7.645235   53.20849   337.4957   8.869048   22.50434  
223.346    345.9738   0          7.725051   7.534153   7.706447   7.743031   7.695592   7.750688   0.8583671  7.750688   7.638592   50.59425   337.1714   8.557158   22.82861  
223.4984   345.4541   0          7.701491   7.533982   7.742616   7.743454   7.695364   7.741879   0.8510922  7.741879   7.638719   49.93788   337.0732   8.269657   22.92679  
223.6508   345.3541   0          7.71434    7.601786   7.745421   7.732305   7.65864    7.752356   0.8502251  7.752356   7.65864    52.28513   336.2229   9.131174   23.77707  
223.8032   345.0739   0          7.716512   7.63991    7.788167   7.725907   7.682932   7.744264   0.8531399  7.752339   7.682049   56.09357   336.3014   8.990969   23.6986   
223.9556   344.7275   0          7.733309   7.645981   7.785056   7.753202   7.673886   7.751374   0.8315414  7.759182   7.673886   59.24039   337.1149   8.066522   22.88507  
224.108    344.6135   0          7.752556   7.654222   7.755898   7.809609   7.679725   7.770768   0.8186051  7.770768   7.679725   60.5531    335.4869   9.126551   24.51306  
224.2604   344.1525   0          7.761263   7.705708   7.774477   7.780807   7.694261   7.765749   0.8257516  7.76893    7.694261   60.67398   337.1253   6.93055    22.87469  
224.4128   344.0011   0          7.767786   7.675136   7.749717   7.784556   7.69928    7.744828   0.854337   7.758751   7.698406   60.26889   337.8806   5.182148   22.11944  
224.5652   344.0523   0          7.757067   7.559439   7.771868   7.769046   7.693976   7.738025   0.8568361  7.764468   7.664242   58.63303   338.6153   5.437053   21.38472  
224.7176   344.0846   0          7.758759   7.628628   7.772313   7.761251   7.678222   7.748703   0.8548083  7.765536   7.678222   56.03186   336.2812   7.803411   23.71882  
224.87     344.0643   0          7.754166   7.579505   7.773973   7.759092   7.684823   7.736821   0.8475651  7.76407    7.662844   52.75149   336.6838   7.374103   23.3162   
225.0224   344.2702   0          7.757169   7.655167   7.774585   7.76237    7.706137   7.730526   0.84236    7.765877   7.705019   49.6491    337.4553   6.813428   22.54472  
225.1748   344.3602   0          7.774369   7.592042   7.748228   7.775925   7.701829   7.74504    0.8352636  7.761299   7.683983   49.37009   337.2083   7.151928   22.79175  
225.3272   344.1754   0          7.773765   7.506966   7.719682   7.768395   7.677845   7.753857   0.8410689  7.755486   7.637681   51.88694   338.4101   5.825341   21.5899   
225.4796   344.2283   0          7.777396   7.633747   7.731269   7.750122   7.675148   7.761278   0.8753764  7.762499   7.665258   55.92381   338.1386   6.143087   21.86137  
225.632    344.2538   0          7.766455   7.662283   7.756387   7.745809   7.682647   7.776368   0.8965798  7.776368   7.682647   59.64945   338.1086   6.145202   21.89138  
225.7844   344.3902   0          7.733678   7.665908   7.797131   7.745849   7.705031   7.774039   0.8923041  7.774039   7.704957   60.60961   337.1909   7.190185   22.80907  
225.9368   344.566    0          7.726113   7.644902   7.78205    7.743704   7.707684   7.746747   0.8891491  7.759989   7.691512   59.29828   336.0434   8.491178   23.95662  
226.0892   344.64     0          7.792488   7.661261   7.771472   7.724984   7.717623   7.747508   0.8919914  7.78198    7.693122   56.12133   336.737    7.902979   23.26301  
226.2416   344.722    0          7.780638   7.689859   7.771211   7.730867   7.723491   7.750948   0.9009675  7.775925   7.710363   52.42134   338.0615   6.660509   21.93852  
226.394    344.7293   0          7.780845   7.687388   7.764648   7.749232   7.72603    7.739979   0.8691143  7.772747   7.71831    50.76356   338.6172   6.306212   21.3828   
226.5464   344.8986   0          7.816448   7.65618    7.763799   7.735052   7.724429   7.7559     0.8762478  7.790123   7.695616   50.74971   338.5419   6.366205   21.45811  
226.6988   344.95     0          7.815757   7.756124   7.778706   7.71461    7.718176   7.789962   0.8906854  7.797232   7.717907   52.39807   339.2012   5.748738   20.79876  
226.8512   344.6415   0          7.826282   7.749043   7.785168   7.715184   7.735143   7.80243    0.8645729  7.807121   7.720629   57.22984   339.9566   4.973766   20.04335  
227.0036   344.7722   0          7.843216   7.761274   7.779607   7.707139   7.775207   7.805493   0.8602638  7.811517   7.734207   63.50842   339.9963   4.887776   20.00373  
227.156    345.0998   0          7.857755   7.830993   7.874259   7.816348   7.813729   7.846307   0.8824501  7.867299   7.798819   67.52061   339.5462   5.553601   20.45379  
227.3084   345.0446   0          7.868583   7.818017   7.804275   7.841662   7.787486   7.822898   0.8749322  7.836429   7.784987   67.508     339.4548   5.68327    20.54524  
227.4608   345.4353   0          7.850227   7.693798   7.736217   7.776836   7.770955   7.780712   0.854603   7.793222   7.735317   64.1341    338.2866   7.309332   21.71341  
227.6132   345.3634   0          7.839758   7.674177   7.74126    7.773169   7.763051   7.759823   0.8559603  7.790509   7.723673   60.69305   337.9679   7.395466   22.03207  
227.7656   344.7443   0          7.794714   7.664316   7.759672   7.776667   7.716938   7.780137   0.8632826  7.786424   7.714648   58.32776   340.0857   4.676786   19.91433  
227.918    344.399    0          7.780259   7.66024    7.696643   7.768854   7.692628   7.776084   0.8665212  7.776084   7.692628   56.08234   340.7064   3.819098   19.29365  
228.0704   344.1319   0          7.765908   7.698992   7.717316   7.750571   7.670243   7.762805   0.9013868  7.762805   7.670243   54.90651   340.446    3.685948   19.55404  
228.2228   343.8342   0          7.751995   7.693666   7.705655   7.751172   7.666404   7.767412   0.9186935  7.767412   7.666404   55.07965   340.4686   3.365676   19.53143  
228.3752   343.1862   0          7.745313   7.698121   7.708899   7.75281    7.699164   7.76449    0.8879144  7.76449    7.699164   55.64013   340.9348   2.393037   19.06514  
228.5276   342.8497   0          7.772867   7.667606   7.676016   7.761689   7.705089   7.772809   0.9006725  7.772809   7.705089   54.49021   341.0503   1.827252   18.9497   
228.68     342.5974   0          7.771423   7.669111   7.663664   7.739819   7.703931   7.732229   0.8845366  7.732229   7.703325   52.63987   341.5069   1.090517   18.49306  
228.8324   342.3624   0          7.74825    7.648954   7.705372   7.713004   7.730631   7.738926   0.8738272  7.740582   7.680979   51.43821   341.8694   0.7371877  18.13061  
228.9848   342.3316   0          7.770268   7.6327     7.67796    7.71317    7.723897   7.720645   0.8625793  7.72628    7.672935   51.01424   341.0952   1.417228   18.90475  
229.1372   342.2331   0          7.764788   7.641334   7.635646   7.765914   7.71713    7.720345   0.8674272  7.723145   7.700217   51.52599   342.5311   359.702    17.46893  
229.2896   342.1438   0          7.75531    7.668114   7.699269   7.772077   7.713152   7.730337   0.8547603  7.730337   7.712727   51.63652   342.6234   359.3902   17.37663  
229.442    342.1079   0          7.776196   7.666204   7.647863   7.77941    7.725663   7.736376   0.8601654  7.736376   7.711154   51.90942   342.5      359.2153   17.49997  
229.5944   341.8617   0          7.781034   7.670587   7.588685   7.782297   7.749652   7.751728   0.8436147  7.751728   7.684859   52.64985   343.0868   358.7749   16.91316  
229.7468   341.6062   0          7.778537   7.66669    7.605873   7.783025   7.716211   7.765157   0.8354042  7.765157   7.692204   54.89969   343.8033   357.8029   16.1967   
229.8992   341.6346   0          7.786419   7.658352   7.597599   7.765568   7.712877   7.765883   0.8554167  7.765883   7.692009   58.65447   343.6906   357.8903   16.30937  
230.0516   341.7919   0          7.785909   7.67658    7.613783   7.811079   7.728042   7.758154   0.8475464  7.758154   7.699846   62.68207   343.9936   357.7984   16.00645  
