~Version
 VERS              .         2.0                           : CWLS LOG ASCII STANDARD - VERSION 2.0
 WRAP              .         NO                            : ONE LINE PER DEPTH STEP
 DLM               .         SPACE                         : DELIMITING CHARACTER(SPACE TAB OR COMMA)
~Well Information
#_______________________________________________________________________________
#
#PARAMETER_NAME    .UNIT     VALUE                         : DESCRIPTION
#_______________________________________________________________________________
STRT               .m        160.1                         : First reference value
STOP               .m        414.1508                      : Last reference value
STEP               .m        0.1524                        : Step increment
NULL               .         -9999                         : Missing value
COMP               .                                       : Company
WELL               .         H                             : Well name
FLD                .                                       : Field
LOC                .                                       : Location
CNTY               .                                       : County
STAT               .                                       : State
CTRY               .                                       : Country
SRVC               .                                       : Service Company
DATE               .                                       : Date
API                .                                       : API number
~Parameter Information Block
#_______________________________________________________________________________
#
#PARAMETER_NAME    .UNIT     VALUE                         : DESCRIPTION
#_______________________________________________________________________________
SET                .         Inclination                   : 
TLFamily_AZI       .         Hole Azimuth                  : 
TLFamily_AZ_OF_P1  .                                       : 
TLFamily_CAL2      .         Caliper 2                     : 
TLFamily_CAL4      .         Caliper                       : 
TLFamily_CAL6      .         Caliper                       : 
TLFamily_CAL8      .         Caliper                       : 
TLFamily_CALX      .         Caliper 1                     : 
TLFamily_CALY      .         Caliper 2                     : 
TLFamily_DEV       .         Hole Deviation                : 
TLFamily_DMAX      .         Caliper                       : 
TLFamily_DMIN      .         Caliper                       : 
TLFamily_GR        .         Gamma Ray                     : 
TLFamily_HAZI      .         Hole Azimuth                  : 
TLFamily_MD        .         Measured Depth                : 
TLFamily_RB_OF_P1  .         Relative Bearing              : 
TLFamily_ROT       .         Relative Bearing              : 
~Curve Information
#_______________________________________________________________________________
#
#LOGNAME           .UNIT     LOG_ID                        : DESCRIPTION
#_______________________________________________________________________________
MD                 .m                                      :  
AZ_OF_P1           .deg                                    : Unrecognised 
AZI                .deg                                    : AZIMUTH OF FIRST PIXEL OF IMAGE ARRAY 
CAL2               .in                                     : Caliper 
CAL4               .in                                     : Caliper 
CAL6               .in                                     : Caliper 
CAL8               .in                                     : Caliper 
CALX               .in                                     : Caliper 
CALY               .in                                     : Caliper 
DEV                .deg                                    : Deviation 
DMAX               .in                                     : Caliper 
DMIN               .in                                     : Caliper 
GR                 .gAPI                                   : Gamma Ray 
HAZI               .deg                                    : HOLE AZIMUTH 
RB_OF_P1           .deg                                    : Unrecognised 
ROT                .deg                                    : RELATIVE BEARING OF FIRST PIXEL OF IMAGE ARRAY 
~Ascii
# ...
405.464    190.6704   0          6.231197   6.260285   6.235417   6.147938   6.161762   6.177546   1.192765   6.233307   6.161762   59.65133   331.4153   219.2942   28.58466  
405.6164   190.1223   0          6.25404    6.220136   6.171007   6.195482   6.161519   6.179697   1.199739   6.212523   6.161519   57.28991   330.9033   219.219    29.09673  
405.7688   189.7169   0          6.250526   6.226712   6.192123   6.195076   6.16163    6.188437   1.198115   6.221325   6.16163    53.72222   330.3011   219.5089   29.69884  
405.9212   189.4788   0          6.233118   6.239205   6.197829   6.156689   6.150464   6.18642    1.187589   6.215473   6.150464   47.78524   331.722    218.3093   28.27806  
406.0736   189.0197   0          6.232748   6.226059   6.18127    6.157334   6.146384   6.172337   1.193256   6.207009   6.146384   39.01662   331.577    217.4427   28.42302  
406.226    188.3958   0          6.226201   6.224533   6.194251   6.158244   6.147202   6.168379   1.19805    6.210226   6.147202   29.98315   331.6405   216.7553   28.35954  
406.3784   187.6754   0          6.22208    6.241265   6.19325    6.15909    6.147567   6.168519   1.198315   6.207665   6.147567   23.14829   330.9865   215.9514   29.01355  
406.5308   187.1863   0          6.218347   6.237344   6.194927   6.16733    6.143595   6.17065    1.211402   6.206637   6.143595   20.51945   332.0316   215.028    27.96837  
406.6832   186.8286   0          6.210189   6.237309   6.198561   6.171605   6.141178   6.180416   1.224208   6.205094   6.141178   23.55588   331.3535   215.4751   28.64654  
406.8356   186.5584   0          6.189493   6.213857   6.222013   6.178128   6.154519   6.186225   1.212164   6.205753   6.154519   33.97913   330.1903   215.9505   29.80965  
406.988    186.2689   0          6.213698   6.240716   6.200709   6.177672   6.154603   6.174865   1.201087   6.211743   6.154603   48.93815   331.0443   214.9485   28.95576  
407.1404   185.7603   0          6.278268   6.270269   6.161886   6.192505   6.176675   6.166117   1.214161   6.231387   6.166117   62.08423   331.8345   213.9258   28.16546  
407.2928   185.2261   0          6.301905   6.245316   6.218714   6.22486    6.224492   6.190335   1.220007   6.260725   6.190335   70.33827   330.7726   214.5924   29.22745  
407.4452   184.866    0          6.2986     6.226217   6.338132   6.254412   6.250196   6.209706   1.227405   6.318366   6.209706   73.30927   331.0279   214.2263   28.97206  
407.5976   184.4964   0          6.306425   6.216172   6.326892   6.254308   6.241426   6.227753   1.211465   6.316659   6.227753   76.13414   331.4507   213.0457   28.54934  
407.75     183.9622   0          6.269419   6.280338   6.24831    6.121772   6.198375   6.18372    1.212312   6.258864   6.18372    82.52382   332.0287   211.9217   27.97132  
407.9024   183.466    0          6.295319   6.339923   6.180138   5.56782    6.180855   6.185967   1.224013   6.237728   5.953871   90.3609    331.1556   211.7034   28.84439  
408.0548   183.2418   0          6.283925   6.36062    6.226736   5.935888   6.19979    6.217816   1.254128   6.285782   6.093444   95.25408   331.3174   211.9245   28.68266  
408.2072   183.0382   0          6.218936   6.307239   6.230246   6.266714   6.185055   6.204147   1.241186   6.286976   6.185055   94.6043    330.6161   212.4221   29.38394  
408.3596   182.487    0          6.235252   6.239703   6.228452   6.213603   6.184035   6.176464   1.225478   6.237065   6.1763     89.37182   331.0199   211.4524   28.98012  
408.512    182.1418   0          6.274785   6.257573   6.265072   6.208621   6.185973   6.191707   1.217561   6.269928   6.185973   83.52002   331.6343   210.5028   28.36571  
408.6644   181.8221   0          6.242289   6.182785   6.294672   6.187182   6.165948   6.177624   1.215053   6.26848    6.163949   79.92725   331.43     210.3921   28.56999  
408.8168   181.3631   0          6.223076   6.179548   6.426232   6.180936   6.212504   6.211124   1.218068   6.324655   6.180242   78.2918    332.5174   209.0594   27.4826   
408.9692   180.9162   0          6.305111   6.211215   6.616617   6.167069   6.202671   6.217779   1.215678   6.460864   6.189142   -9999      333.4472   207.7419   26.55282  
409.1216   180.5288   0          6.322196   6.17717    6.076535   6.142586   6.111877   6.137765   1.219481   6.199365   6.111877   -9999      333.5262   207.0026   26.47382  
409.274    180.0336   0          6.222836   6.1909     6.14932    6.140049   6.118769   6.130974   1.197896   6.186078   6.118769   -9999      332.69     207.2785   27.30996  
409.4264   179.675    0          6.183956   6.19855    6.204075   6.14713    6.122311   6.124938   1.198025   6.194015   6.120311   -9999      332.7361   206.6278   27.26386  
409.5788   179.2574   0          6.186482   6.215176   6.230876   6.147538   6.119717   6.141336   1.222344   6.208679   6.119717   -9999      333.2414   206.016    26.75856  
409.7312   178.8577   0          6.197364   6.234253   6.245933   6.165725   6.140746   6.153802   1.239265   6.221649   6.139807   -9999      332.7781   206.0796   27.2219   
409.8836   178.3716   0          6.255181   6.269627   6.265018   6.202036   6.182257   6.174336   1.254779   6.260099   6.174336   -9999      333.1667   205.0431   26.83335  
410.036    177.8935   0          6.221997   6.26387    6.251048   6.163181   6.140522   6.168447   1.254738   6.236522   6.140522   -9999      333.8395   204.0328   26.16051  
410.1884   177.4084   0          6.218229   6.18629    6.169498   6.1224     6.097968   6.108407   1.265626   6.193863   6.097968   -9999      334.3986   203.0097   25.60137  
410.3408   176.8567   0          6.205384   6.210662   6.134261   6.113382   6.094853   6.121774   1.245502   6.169823   6.094853   -9999      333.925    202.824    26.07505  
410.4932   176.3786   0          6.198171   6.213842   6.180732   6.168567   6.116554   6.146573   1.241408   6.191629   6.116554   -9999      333.1328   203.1866   26.86718  
410.6456   176.0422   0          6.189084   6.198269   6.182492   6.136438   6.105875   6.136827   1.246458   6.185788   6.105875   -9999      333.0708   202.9714   26.92921  
410.798    175.5183   0          6.25535    6.196973   6.29476    6.181425   6.174308   6.174945   1.239215   6.275055   6.174308   -9999      332.9315   202.5476   27.06848  
410.9504   174.9365   0          6.349036   6.259771   6.186547   6.229474   6.207147   6.174321   1.245187   6.273023   6.161119   -9999      333.9521   200.8879   26.04791  
411.1028   174.6308   0          6.311178   6.289608   6.10609    5.993784   6.092453   6.146994   1.251582   6.209083   6.092453   -9999      333.5407   201.0901   26.4593   
411.2552   174.375    0          6.219521   6.320965   6.215068   6.092184   6.089463   6.221763   1.250142   6.224472   6.089463   -9999      332.3883   201.9924   27.61174  
411.4076   174.0379   0          6.248418   6.030593   6.184975   6.310615   6.077729   6.192228   1.253271   6.216697   6.077729   -9999      333.2756   200.8534   26.72439  
411.56     173.7872   0          6.279003   6.188847   6.167834   6.225127   6.144157   6.181723   1.245111   6.223418   6.144157   -9999      333.8523   199.9348   26.1477   
411.7124   173.4863   0          6.285746   6.366009   6.177829   6.011327   6.107508   6.209749   1.249257   6.231846   6.107508   -9999      333.5456   199.9407   26.45437  
411.8648   172.9519   0          6.243108   6.380003   6.207074   6.03898    6.099335   6.219583   1.247394   6.225258   6.099335   -9999      334.5617   198.658    25.43827  
412.0172   172.6545   0          6.249957   6.153391   6.175819   6.139508   6.104095   6.172099   1.260556   6.212888   6.104095   -9999      334.885    197.844    25.11503  
412.1696   172.3052   0          6.194569   6.163021   6.217874   6.17452    6.126706   6.160449   1.251807   6.206222   6.126706   -9999      335.0704   197.2348   24.92963  
412.322    172.1222   0          6.230511   6.252373   6.157989   6.091321   6.112942   6.136162   1.255474   6.19425    6.112942   -9999      334.9883   197.214    25.01176  
