~Version
 VERS              .         2.0                           : CWLS LOG ASCII STANDARD - VERSION 2.0
 WRAP              .         NO                            : ONE LINE PER DEPTH STEP
 DLM               .         SPACE                         : DELIMITING CHARACTER(SPACE TAB OR COMMA)
~Well Information
#_______________________________________________________________________________
#
#PARAMETER_NAME    .UNIT     VALUE                         : DESCRIPTION
#_______________________________________________________________________________
STRT               .m        160.1                         : First reference value
STOP               .m        414.1508                      : Last reference value
STEP               .m        0.1524                        : Step increment
NULL               .         -9999                         : Missing value
COMP               .                                       : Company
WELL               .         H                             : Well name
FLD                .                                       : Field
LOC                .                                       : Location
CNTY               .                                       : County
STAT               .                                       : State
CTRY               .                                       : Country
SRVC               .                                       : Service Company
DATE               .                                       : Date
API                .                                       : API number
~Parameter Information Block
#_______________________________________________________________________________
#
#PARAMETER_NAME    .UNIT     VALUE                         : DESCRIPTION
#_______________________________________________________________________________
SET                .         Inclination                   : 
TLFamily_AZI       .         Hole Azimuth                  : 
TLFamily_AZ_OF_P1  .                                       : 
TLFamily_CAL2      .         Caliper 2                     : 
TLFamily_CAL4      .         Caliper                       : 
TLFamily_CAL6      .         Caliper                       : 
TLFamily_CAL8      .         Caliper                       : 
TLFamily_CALX      .         Caliper 1                     : 
TLFamily_CALY      .         Caliper 2                     : 
TLFamily_DEV       .         Hole Deviation                : 
TLFamily_DMAX      .         Caliper                       : 
TLFamily_DMIN      .         Caliper                       : 
TLFamily_GR        .         Gamma Ray                     : 
TLFamily_HAZI      .         Hole Azimuth                  : 
TLFamily_MD        .         Measured Depth                : 
TLFamily_RB_OF_P1  .         Relative Bearing              : 
TLFamily_ROT       .         Relative Bearing              : 
~Curve Information
#_______________________________________________________________________________
#
#LOGNAME           .UNIT     LOG_ID                        : DESCRIPTION
#_______________________________________________________________________________
MD                 .m                                      :  
AZ_OF_P1           .deg                                    : Unrecognised 
AZI                .deg                                    : AZIMUTH OF FIRST PIXEL OF IMAGE ARRAY 
CAL2               .in                                     : Caliper 
CAL4               .in                                     : Caliper 
CAL6               .in                                     : Caliper 
CAL8               .in                                     : Caliper 
CALX               .in                                     : Caliper 
CALY               .in                                     : Caliper 
DEV                .deg                                    : Deviation 
DMAX               .in                                     : Caliper 
DMIN               .in                                     : Caliper 
GR                 .gAPI                                   : Gamma Ray 
HAZI               .deg                                    : HOLE AZIMUTH 
RB_OF_P1           .deg                                    : Unrecognised 
ROT                .deg                                    : RELATIVE BEARING OF FIRST PIXEL OF IMAGE ARRAY 
~Ascii
# ...
342.3704   297.5478   0          6.183232   6.175503   6.01759    6.138753   6.04129    6.106884   0.8911238  6.157128   6.04129    23.74981   341.0762   315.8627   18.92384  
342.5228   297.2222   0          6.177093   6.210936   6.020801   6.134003   6.067105   6.118492   0.9047238  6.17247    6.067105   25.31886   342.9253   314.1544   17.07467  
342.6752   297.1201   0          6.177023   6.196133   6.020564   6.123364   6.025542   6.127888   0.9143416  6.159749   6.025542   27.84216   344.2656   312.8545   15.73437  
342.8276   297.2316   0          6.174738   6.178444   6.011995   6.113013   5.995921   6.109019   0.8944636  6.145729   5.995921   30.17429   343.1096   314.0083   16.89035  
342.98     298.6396   0          6.204841   6.185551   5.992068   6.077982   6.006039   6.06756    0.9050711  6.131767   6.006039   31.32411   343.1438   315.3962   16.85618  
343.1324   304.7086   0          6.214666   6.17097    5.962346   6.097639   6.012435   6.122522   0.8920134  6.135096   6.012435   32.48447   349.0813   315.6275   10.91868  
343.2848   304.267    0          6.157849   6.117203   5.94282    6.105846   5.999949   6.105616   0.8984652  6.111896   5.999949   33.70958   348.7332   315.5705   11.26679  
343.4372   297.5488   0          6.158955   6.224284   5.830803   6.10874    6.002729   6.110175   0.9059896  6.166512   5.983582   34.30003   341.9619   315.7115   18.03807  
343.5896   297.3708   0          6.158572   6.223588   5.706059   6.112579   6.012065   6.107649   0.9034032  6.168084   5.932316   33.9709    340.1821   317.1888   19.81791  
343.742    297.3729   0          6.149054   6.210881   5.700536   6.04566    5.91881    6.075991   0.9206367  6.128271   5.909804   32.60962   339.2562   318.1166   20.74376  
343.8944   297.1077   0          6.125046   6.186986   5.728102   5.838675   5.855999   6.060633   0.9114675  6.062989   5.855999   31.45024   340.3088   316.8707   19.69121  
344.0468   297.3054   0          6.139204   6.160478   5.738284   5.913686   5.774199   6.043131   0.9290323  6.063703   5.774199   31.54429   341.8268   315.4819   18.17321  
344.1992   297.0508   0          6.153704   6.147698   5.787024   6.137426   5.872537   6.055567   0.9223357  6.142562   5.872537   32.4408    341.4893   315.5615   18.51067  
344.3516   296.0127   0          6.128654   6.208889   5.808671   6.167979   5.965281   6.099586   0.9114249  6.188434   5.961151   34.16051   339.4988   316.3409   20.50119  
344.504    294.7886   0          6.135103   6.22807    5.861587   6.168123   5.949909   6.105641   0.9274721  6.198097   5.947682   35.16272   339.908    314.8142   20.092    
344.6564   294.0492   0          6.130863   6.245205   5.923629   6.158307   6.050049   6.106367   0.9238015  6.201756   6.02578    32.98074   340.5701   313.4791   19.42989  
344.8088   293.9181   0          6.119404   6.268005   6.108742   6.147874   6.111895   6.136591   0.9256885  6.20794    6.111477   29.2847    339.6616   314.2105   20.3384   
344.9612   293.4038   0          6.129363   6.254032   6.119044   6.162621   6.105298   6.138628   0.9015267  6.208326   6.103457   26.93859   339.8975   313.4285   20.10254  
345.1136   293.3022   0          6.165021   6.218651   6.094464   6.189185   6.089522   6.109892   0.908015   6.203918   6.089522   29.50732   340.8353   312.4669   19.16473  
345.266    293.332    0          6.182553   6.239602   6.102561   6.188605   6.095708   6.12843    0.9213421  6.214104   6.095708   36.78748   339.7725   313.607    20.22748  
345.4184   293.1982   0          6.217051   6.229439   6.09512    6.182497   6.123245   6.127638   0.9303027  6.205968   6.123245   46.74376   340.1732   313.3482   19.82675  
345.5708   293.1131   0          6.22622    6.219012   6.205495   6.233872   6.147246   6.174663   0.8989646  6.226442   6.147246   61.18202   339.5937   313.5194   20.40635  
345.7232   293.24     0          6.177722   6.20314    6.240107   6.286722   6.121398   6.189793   0.9245827  6.244931   6.121398   85.20624   336.7426   316.4974   23.25744  
345.8756   293.21     0          6.254634   6.187915   6.246839   6.321451   6.182398   6.186534   0.9073179  6.256389   6.169616   123.3929   334.1704   318.2315   25.82958  
346.028    292.8846   0          6.310579   6.269996   6.234076   6.229768   6.226581   6.187018   0.8592629  6.272327   6.187018   153.0742   334.912    317.8162   25.08802  
346.1804   293.0513   0          6.298916   6.401896   6.222708   6.236271   6.2533     6.204135   0.8731923  6.325586   6.204135   152.5941   331.8499   321.2015   28.15016  
346.3328   292.9271   0          6.112818   6.285182   6.370117   6.276025   6.114601   6.164869   0.8837652  6.280604   6.114601   125.4946   333.131    320.2031   26.86896  
346.4852   292.5197   0          6.285773   6.2711     6.305724   6.309585   6.252873   6.158499   0.8343693  6.299794   6.155419   102.2562   332.9312   319.8857   27.06883  
346.6376   292.6445   0          6.255244   6.252044   6.213482   6.292009   6.21677    6.099275   0.8556902  6.272027   6.099275   110.8075   332.7583   319.8862   27.24172  
346.79     292.7292   0          6.263865   6.272372   6.110935   6.221558   6.235668   6.058574   0.865455   6.246965   6.058574   126.5811   332.0111   320.6337   27.98886  
346.9424   292.5937   0          6.230103   6.224133   6.036045   6.159997   5.97973    6.097759   0.8690374  6.192064   5.97973    123.311    332.3195   320.0223   27.68048  
347.0948   292.0653   0          6.22399    6.228551   6.121625   6.171071   6.061      6.135373   0.8603524  6.199811   6.061      106.9402   333.5258   318.5395   26.47418  
347.2472   291.8301   0          6.153305   6.224168   6.179376   6.191554   6.065375   6.113932   0.8525609  6.207861   6.065375   111.5275   332.9838   318.8463   27.0162   
347.3996   292.1174   0          6.181814   6.243517   6.19872    6.216727   6.1115     6.132639   0.8596146  6.230123   6.1115     145.9183   332.266    320.2641   27.73398  
347.552    292.3749   0          6.180355   6.224542   6.144144   6.220961   6.041253   6.137527   0.8415114  6.222752   6.041253   180.8332   330.8115   321.5634   29.18847  
347.7044   292.3737   0          6.233011   6.184376   6.089032   6.226189   6.097638   6.053068   0.8428082  6.205282   6.053068   186.1211   331.2644   321.1093   28.73557  
347.8568   292.3405   0          6.205638   6.247227   6.018101   6.144563   6.094681   5.914543   0.8624628  6.195895   5.914543   154.7811   331.8597   320.3499   28.1403   
348.0092   292.3524   0          6.20781    6.349207   5.863327   6.126517   6.111433   5.759542   0.8654252  6.237862   5.759542   122.6759   329.7667   322.541    30.23329  
348.1616   292.5041   0          6.30705    6.376087   5.976899   6.167463   6.16188    6.03171    0.8791822  6.271775   6.03171    110.1278   328.8256   323.6784   31.17436  
348.314    292.1491   0          6.223394   6.231958   6.004591   6.205791   6.129519   6.076764   0.8742793  6.218874   6.076764   112.4641   328.6262   324.1291   31.37384  
348.4664   291.7097   0          6.298743   6.204418   6.001252   6.206161   6.092945   6.096569   0.8723282  6.205289   6.085977   116.5223   327.8073   324.7561   32.1927   
348.6188   291.2437   0          6.301759   6.124306   6.049055   6.222208   6.20566    6.140664   0.8625634  6.208923   6.140664   107.7519   326.5602   324.6835   33.43982  
348.7712   291.013    0          6.420906   6.151025   6.20506    6.235415   6.247521   6.189177   0.8693629  6.312983   6.182258   88.66958   327.2477   323.8104   32.75229  
348.9236   290.7715   0          6.420282   6.114534   6.319375   6.214473   6.237042   6.174926   0.8739368  6.369828   6.164504   65.59211   328.1581   322.8541   31.84187  
349.076    290.4192   0          6.424711   6.118783   6.306977   6.213825   6.261922   6.220789   0.9054644  6.365844   6.166304   47.12378   328.3823   322.0369   31.61772  
349.2284   290.2711   0          6.381639   6.080948   6.301569   6.194009   6.241612   6.222709   0.9311725  6.341604   6.137478   40.8493    327.3435   322.9276   32.65647  
