~Version
 VERS              .         2.0                           : CWLS LOG ASCII STANDARD - VERSION 2.0
 WRAP              .         NO                            : ONE LINE PER DEPTH STEP
 DLM               .         SPACE                         : DELIMITING CHARACTER(SPACE TAB OR COMMA)
~Well Information
#_______________________________________________________________________________
#
#PARAMETER_NAME    .UNIT     VALUE                         : DESCRIPTION
#_______________________________________________________________________________
STRT               .m        160.1                         : First reference value
STOP               .m        414.1508                      : Last reference value
STEP               .m        0.1524                        : Step increment
NULL               .         -9999                         : Missing value
COMP               .                                       : Company
WELL               .         H                             : Well name
FLD                .                                       : Field
LOC                .                                       : Location
CNTY               .                                       : County
STAT               .                                       : State
CTRY               .                                       : Country
SRVC               .                                       : Service Company
DATE               .                                       : Date
API                .                                       : API number
~Parameter Information Block
#_______________________________________________________________________________
#
#PARAMETER_NAME    .UNIT     VALUE                         : DESCRIPTION
#_______________________________________________________________________________
SET                .         Inclination                   : 
TLFamily_AZI       .         Hole Azimuth                  : 
TLFamily_AZ_OF_P1  .                                       : 
TLFamily_CAL2      .         Caliper 2                     : 
TLFamily_CAL4      .         Caliper                       : 
TLFamily_CAL6      .         Caliper                       : 
TLFamily_CAL8      .         Caliper                       : 
TLFamily_CALX      .         Caliper 1                     : 
TLFamily_CALY      .         Caliper 2                     : 
TLFamily_DEV       .         Hole Deviation                : 
TLFamily_DMAX      .         Caliper                       : 
TLFamily_DMIN      .         Caliper                       : 
TLFamily_GR        .         Gamma Ray                     : 
TLFamily_HAZI      .         Hole Azimuth                  : 
TLFamily_MD        .         Measured Depth                : 
TLFamily_RB_OF_P1  .         Relative Bearing              : 
TLFamily_ROT       .         Relative Bearing              : 
~Curve Information
#_______________________________________________________________________________
#
#LOGNAME           .UNIT     LOG_ID                        : DESCRIPTION
#_______________________________________________________________________________
MD                 .m                                      :  
AZ_OF_P1           .deg                                    : Unrecognised 
AZI                .deg                                    : AZIMUTH OF FIRST PIXEL OF IMAGE ARRAY 
CAL2               .in                                     : Caliper 
CAL4               .in                                     : Caliper 
CAL6               .in                                     : Caliper 
CAL8               .in                                     : Caliper 
CALX               .in                                     : Caliper 
CALY               .in                                     : Caliper 
DEV                .deg                                    : Deviation 
DMAX               .in                                     : Caliper 
DMIN               .in                                     : Caliper 
GR                 .gAPI                                   : Gamma Ray 
HAZI               .deg                                    : HOLE AZIMUTH 
RB_OF_P1           .deg                                    : Unrecognised 
ROT                .deg                                    : RELATIVE BEARING OF FIRST PIXEL OF IMAGE ARRAY 
~Ascii
# ...
195.152    17.64912   0          7.902885   7.632771   7.807979   7.822173   7.839379   7.75945    1.190938   7.855432   7.727472   161.1066   340.919    36.73014   19.08104  
195.3044   17.56674   0          7.910956   7.628106   7.887651   7.911369   7.902217   7.837063   1.197473   7.903998   7.769738   143.4762   341.2153   36.37056   18.78472  
195.4568   17.92249   0          7.79259    7.50587    7.862278   7.837172   7.785144   7.727169   1.205096   7.827435   7.671521   110.033    340.4606   37.49987   19.53937  
195.6092   17.88678   0          7.823964   7.518239   7.785491   7.821208   7.748947   7.668644   1.204116   7.804728   7.668283   81.0549    339.5854   38.30138   20.4146   
195.7616   17.7148    0          7.831075   7.490634   7.767321   7.809221   7.782405   7.622694   1.208585   7.799198   7.622694   70.29491   340.3945   37.28617   19.60546  
195.914    18.29032   0          7.8303     7.525782   7.748269   7.832178   7.808085   7.662277   1.229998   7.808085   7.66114    70.90145   340.2733   37.71374   19.72671  
196.0664   18.46302   0          7.91155    7.494546   7.678419   7.837397   7.822733   7.686479   1.235116   7.822733   7.665972   75.22424   340.7577   37.70533   19.24232  
196.2188   18.2823    0          7.925068   7.726716   7.726403   7.847054   7.835137   7.775974   1.224395   7.835137   7.756313   77.461     341.2376   37.04471   18.76242  
196.3712   18.15049   0          7.811653   7.50172    7.776283   7.845853   7.788923   7.753174   1.217722   7.798639   7.673787   77.56028   340.9514   37.32616   19.0486   
196.5236   17.6337    0          7.8549     7.391316   7.633893   7.77447    7.737939   7.462684   1.226654   7.744397   7.462684   77.70572   340.1242   37.5385    19.87584  
196.676    16.61146   0          7.949561   7.566975   7.482077   7.695157   7.722894   7.394914   1.255397   7.726273   7.394914   80.12345   337.657    38.95448   22.34306  
196.8284   15.62204   0          7.954918   7.619842   7.459064   7.706847   7.762929   7.413562   1.266901   7.762929   7.413562   83.14483   338.2439   37.5927    21.75614  
196.9808   15.45044   0          7.930904   7.748419   7.538753   7.725266   7.777186   7.588993   1.257442   7.777186   7.588993   85.2878    339.6183   36.01484   20.38164  
197.1332   15.69256   0          7.908269   7.681262   7.507622   7.775859   7.777954   7.658905   1.252069   7.777954   7.658905   87.19007   339.5304   36.16214   20.46959  
197.2856   15.31897   0          7.874083   7.698218   7.657445   7.797521   7.779697   7.649384   1.221252   7.779697   7.649384   87.93906   339.2887   36.06131   20.71134  
197.438    15.14099   0          7.880948   7.676975   7.662054   7.804946   7.79775    7.680161   1.204106   7.79775    7.680161   88.9877    338.0252   37.21915   21.97477  
197.5904   14.85308   0          7.890942   7.637145   7.638029   7.828853   7.79126    7.688741   1.211309   7.79126    7.688741   90.40845   338.1006   36.7525    21.89944  
197.7428   14.18332   0          7.883063   7.642534   7.627098   7.853831   7.790159   7.700874   1.209654   7.790159   7.700874   90.23696   338.4799   35.70338   21.52006  
197.8952   13.6403    0          7.887643   7.655414   7.580489   7.858063   7.793635   7.728398   1.198213   7.793635   7.728398   89.31808   337.9591   35.38736   22.04088  
198.0476   13.46902   0          7.859871   7.669545   7.518321   7.8564     7.811933   7.780635   1.218654   7.811933   7.689096   88.36648   338.4612   34.99628   21.53879  
198.2      13.40922   0          7.798463   7.619039   7.571754   7.853902   7.790745   7.792615   1.218774   7.792615   7.685109   89.45284   338.7567   34.65247   21.24325  
198.3524   13.38066   0          7.836444   7.693747   7.697848   7.892001   7.793032   7.802234   1.214336   7.809614   7.767146   91.73007   338.0085   34.7634    21.9915   
198.5048   13.03901   0          7.869923   7.666742   7.591282   7.888778   7.795473   7.813473   1.198843   7.816524   7.730602   92.40872   338.3753   34.43415   21.62474  
198.6572   12.49421   0          7.894617   7.586789   7.522183   7.844378   7.804938   7.704124   1.176036   7.804938   7.692718   92.42276   338.4194   34.07479   21.58057  
198.8096   12.17571   0          7.894104   7.615885   7.581868   7.762991   7.813855   7.751097   1.184147   7.813855   7.689438   92.38578   339.8281   32.166     20.17187  
198.962    12.28732   0          7.85346    7.634886   7.605918   7.785064   7.838509   7.781868   1.171532   7.838509   7.709975   91.31464   340.1803   31.80798   19.81969  
199.1144   12.18953   0          7.8657     7.657883   7.632576   7.80116    7.842625   7.765318   1.163203   7.842625   7.729521   87.9118    340.4214   31.76809   19.57856  
199.2668   11.90037   0          7.892683   7.769269   7.673145   7.801069   7.840506   7.798224   1.155948   7.840506   7.78172    81.98464   339.9773   32.01448   20.02272  
199.4192   11.42536   0          7.893587   7.823987   7.701654   7.792652   7.822457   7.806191   1.158164   7.824038   7.797621   75.91998   339.4391   32.58303   20.56092  
199.5716   10.92011   0          7.870878   7.795908   7.674775   7.794372   7.811692   7.810272   1.138074   7.81403    7.772826   71.91315   338.8794   32.04069   21.12057  
199.724    10.19195   0          7.861354   7.781329   7.774221   7.881166   7.857595   7.85987    1.108177   7.863821   7.802599   68.8276    339.8252   30.36677   20.17483  
199.8764   9.126799   0          7.881301   7.589922   7.847459   7.911046   7.881536   7.851231   1.109579   7.881536   7.750484   64.99778   339.5613   29.34126   20.43869  
200.0288   7.960857   0          7.884528   7.71774    7.727407   7.807784   7.834191   7.804654   1.129633   7.834191   7.762762   59.88946   339.558    28.36086   20.44202  
200.1812   7.32727    0          7.903431   7.648992   7.67732    7.807587   7.813904   7.82247    1.119118   7.825497   7.728289   55.02937   338.594    28.73326   21.406    
200.3336   7.076713   0          7.864264   7.672679   7.707176   7.796376   7.794735   7.802037   1.103131   7.80575    7.734527   55.54571   338.4751   28.86249   21.52492  
200.486    6.457938   0          7.869246   7.663459   7.736759   7.796376   7.804912   7.764299   1.099716   7.805685   7.729918   61.44051   339.8383   26.80476   20.16166  
200.6384   5.970085   0          7.844604   7.631024   7.700477   7.777884   7.819902   7.771312   1.085989   7.819902   7.704453   67.86521   339.3867   26.58341   20.61333  
200.7908   5.484574   0          7.790437   7.617047   7.728305   7.722042   7.770109   7.785678   1.067786   7.789298   7.669545   70.89999   340.756    24.73456   19.24395  
200.9432   4.72315    0          7.774511   7.465773   7.830321   7.753774   7.773856   7.78718    1.04318    7.802416   7.609774   70.02064   340.4716   24.26929   19.52841  
201.0956   3.579985   0          7.765916   7.465887   7.910113   7.834418   7.771891   7.798412   1.055278   7.838015   7.650153   68.16256   340.964    22.61593   19.03596  
201.248    2.458031   0          7.931959   7.635929   7.902768   7.950795   7.873485   7.854279   1.055005   7.924202   7.793362   67.98907   341.1617   21.29633   18.8383   
201.4004   1.82336    0          8.144224   7.694629   7.940234   8.188854   8.106672   8.07075    1.061621   8.106842   7.941742   71.52628   339.4599   21.28494   20.54009  
201.5528   1.137172   0          7.850953   7.581136   7.918802   7.864615   7.864115   7.823047   1.053474   7.884877   7.722876   77.39466   340.0569   21.08031   19.94314  
201.7052   0.8034401  0          7.839788   7.399911   7.888855   7.931664   7.895335   7.804405   1.049469   7.895335   7.665787   83.27918   339.3556   21.44785   20.64441  
201.8576   0.3071066  0          7.697183   7.316069   7.865077   7.912195   7.78242    7.683836   1.067667   7.786853   7.614132   85.00934   339.1645   21.68406   20.8355   
202.01     359.737    0          7.776274   7.266825   7.757043   7.91444    7.789371   7.695386   1.061035   7.789371   7.590633   82.09786   337.3697   22.54859   22.63032  
