~Version
 VERS              .         2.0                           : CWLS LOG ASCII STANDARD - VERSION 2.0
 WRAP              .         NO                            : ONE LINE PER DEPTH STEP
 DLM               .         SPACE                         : DELIMITING CHARACTER(SPACE TAB OR COMMA)
~Well Information
#_______________________________________________________________________________
#
#PARAMETER_NAME    .UNIT     VALUE                         : DESCRIPTION
#_______________________________________________________________________________
STRT               .m        160.1                         : First reference value
STOP               .m        414.1508                      : Last reference value
STEP               .m        0.1524                        : Step increment
NULL               .         -9999                         : Missing value
COMP               .                                       : Company
WELL               .         H                             : Well name
FLD                .                                       : Field
LOC                .                                       : Location
CNTY               .                                       : County
STAT               .                                       : State
CTRY               .                                       : Country
SRVC               .                                       : Service Company
DATE               .                                       : Date
API                .                                       : API number
~Parameter Information Block
#_______________________________________________________________________________
#
#PARAMETER_NAME    .UNIT     VALUE                         : DESCRIPTION
#_______________________________________________________________________________
SET                .         Inclination                   : 
TLFamily_AZI       .         Hole Azimuth                  : 
TLFamily_AZ_OF_P1  .                                       : 
TLFamily_CAL2      .         Caliper 2                     : 
TLFamily_CAL4      .         Caliper                       : 
TLFamily_CAL6      .         Caliper                       : 
TLFamily_CAL8      .         Caliper                       : 
TLFamily_CALX      .         Caliper 1                     : 
TLFamily_CALY      .         Caliper 2                     : 
TLFamily_DEV       .         Hole Deviation                : 
TLFamily_DMAX      .         Caliper                       : 
TLFamily_DMIN      .         Caliper                       : 
TLFamily_GR        .         Gamma Ray                     : 
TLFamily_HAZI      .         Hole Azimuth                  : 
TLFamily_MD        .         Measured Depth                : 
TLFamily_RB_OF_P1  .         Relative Bearing              : 
TLFamily_ROT       .         Relative Bearing              : 
~Curve Information
#_______________________________________________________________________________
#
#LOGNAME           .UNIT     LOG_ID                        : DESCRIPTION
#_______________________________________________________________________________
MD                 .m                                      :  
AZ_OF_P1           .deg                                    : Unrecognised 
AZI                .deg                                    : AZIMUTH OF FIRST PIXEL OF IMAGE ARRAY 
CAL2               .in                                     : Caliper 
CAL4               .in                                     : Caliper 
CAL6               .in                                     : Caliper 
CAL8               .in                                     : Caliper 
CALX               .in                                     : Caliper 
CALY               .in                                     : Caliper 
DEV                .deg                                    : Deviation 
DMAX               .in                                     : Caliper 
DMIN               .in                                     : Caliper 
GR                 .gAPI                                   : Gamma Ray 
HAZI               .deg                                    : HOLE AZIMUTH 
RB_OF_P1           .deg                                    : Unrecognised 
ROT                .deg                                    : RELATIVE BEARING OF FIRST PIXEL OF IMAGE ARRAY 
~Ascii
# ...
174.1208   42.10024   0          7.743456   7.743361   7.819125   7.740584   7.790776   7.564785   1.4739     7.790776   7.564785   95.7052    335.0421   67.05814   24.95792  
174.2732   41.94649   0          7.791609   7.713903   7.761952   7.823578   7.780506   7.567683   1.469441   7.787179   7.567683   96.01602   334.3029   67.64072   25.69715  
174.4256   41.19988   0          7.762866   7.71462    7.613539   7.829181   7.707294   7.540037   1.453952   7.771901   7.540037   94.36001   334.4205   66.76503   25.57947  
174.578    39.96728   0          7.743351   7.729582   7.730342   7.877777   7.757628   7.54022    1.460358   7.80368    7.54022    90.95095   334.8551   65.11216   25.1449   
174.7304   38.93766   0          7.800278   7.831761   7.705711   7.8008     7.805421   7.52001    1.466321   7.816281   7.52001    86.1329    335.062    63.87568   24.93804  
174.8828   37.89249   0          7.914349   7.933576   7.683625   7.761016   7.789489   7.503771   1.473461   7.847296   7.503771   81.09133   335.5075   62.13577   24.4925   
175.0352   37.00938   0          7.862245   7.955603   7.657471   7.731537   7.779108   7.475593   1.469067   7.84357    7.475593   76.92865   336.7523   60.22281   23.24774  
175.1876   36.38073   0          7.852702   7.993885   7.704547   7.682777   7.760267   7.476535   1.457303   7.838331   7.476535   73.64886   336.6122   59.76857   23.38784  
175.34     35.77527   0          7.837126   7.993272   7.713855   7.682146   7.778519   7.454102   1.43525    7.837709   7.454102   70.25486   335.2984   60.31229   24.7016   
175.4924   35.51982   0          7.876002   8.008269   7.700506   7.701131   7.758662   7.474069   1.419457   7.854701   7.474069   67.17867   335.173    60.25385   24.82704  
175.6448   34.76973   0          7.85703    8.010983   7.719191   7.705242   7.751729   7.459712   1.399393   7.858113   7.459712   66.29257   334.6816   60.08812   25.31838  
175.7972   34.22961   0          7.824533   8.051629   7.724584   7.70558    7.759969   7.473325   1.424226   7.878605   7.473325   67.69059   335.0047   59.17554   24.99529  
175.9496   33.81807   0          7.821328   8.093969   7.759607   7.700294   7.812904   7.482582   1.420482   7.897132   7.482582   69.24181   335.6073   58.08659   24.3927   
176.102    33.62806   0          7.882401   8.173456   7.781101   7.744411   7.877739   7.486152   1.407543   7.961703   7.486152   67.63706   335.6294   57.99865   24.3706   
176.2544   33.57733   0          8.198716   8.581966   7.915517   7.759325   8.228681   7.712151   1.393323   8.233793   7.712151   62.70177   335.7708   57.80009   24.22919  
176.4068   32.96844   0          8.032902   8.547839   8.073447   8.056788   8.249636   8.217549   1.332017   8.302314   8.053175   57.27065   336.3356   56.51649   23.66442  
176.5592   32.41075   0          8.048094   8.384254   8.504033   8.811754   8.309454   8.58679    1.295491   8.638431   8.224799   55.16912   336.9146   55.49613   23.08541  
176.7116   32.17296   0          8.319588   8.105898   8.444967   8.72915    8.207512   7.990121   1.315587   8.439461   7.990121   56.02865   335.846    56.32695   24.154    
176.864    32.1787    0          8.227246   8.132769   8.04909    8.072536   8.162256   7.610283   1.349704   8.204033   7.610283   58.31773   335.2924   56.70686   24.70761  
177.0164   31.69501   0          8.043439   8.161972   7.874095   8.083326   8.175677   7.640645   1.362255   8.175677   7.640645   60.96873   336.2032   55.44088   23.79686  
177.1688   31.48131   0          8.229832   8.495391   7.631857   7.849576   8.098506   7.602837   1.357515   8.181835   7.602837   62.29395   338.3562   53.12513   21.64384  
177.3212   31.45095   0          8.283367   8.437133   7.728079   7.692483   8.034136   7.767239   1.315097   8.067531   7.744699   62.84776   340.2271   51.43806   19.77296  
177.4736   31.42417   0          8.117185   8.238983   7.874548   7.848801   7.974961   8.087215   1.276871   8.087215   7.974961   63.04498   341.5771   50.0816    18.42295  
177.626    31.41444   0          8.106385   8.02317    8.011408   8.20505    8.052191   8.107526   1.241932   8.129548   8.028767   63.38457   342.2977   49.11677   17.70234  
177.7784   31.42989   0          8.156185   8.124184   7.909831   8.064467   8.125004   8.058944   1.228913   8.126205   8.033008   64.33929   342.9092   48.53527   17.09082  
177.9308   31.79099   0          7.935783   8.110822   7.99417    7.957594   7.988313   8.019341   1.233007   8.04125    7.964976   63.99569   342.6459   49.20501   17.35413  
178.0832   32.13966   0          7.879224   8.024135   7.957938   7.917925   7.975552   7.915735   1.233073   7.978709   7.91505    62.44979   341.759    50.38065   18.24101  
178.2356   32.17265   0          8.005537   7.940552   7.855441   7.909602   7.921498   7.953135   1.228525   7.953135   7.913359   61.48734   342.0748   50.09781   17.92519  
178.388    32.33062   0          7.943862   7.910635   7.810359   7.894439   7.859146   7.896357   1.227001   7.904517   7.859146   61.28716   342.6745   49.42839   17.32549  
178.5404   32.42145   0          7.880451   7.891748   7.766314   7.840202   7.81456    7.869998   1.248389   7.869998   7.81456    61.33295   343.3207   49.07866   16.67925  
178.6928   32.48615   0          7.84826    7.871988   7.718689   7.781395   7.783736   7.831626   1.226026   7.831626   7.782269   60.50093   343.33     49.15612   16.66999  
178.8452   32.38091   0          7.887882   7.858838   7.677722   7.756796   7.76854    7.624494   1.214356   7.807817   7.624494   60.34646   343.5415   48.93317   16.45851  
178.9976   32.11101   0          7.922296   7.888308   7.670856   7.754465   7.762453   7.573416   1.229927   7.821386   7.573416   61.96754   344.2546   47.90018   15.7454   
179.15     31.86688   0          7.929213   7.89951    7.696007   7.787151   7.786335   7.595022   1.234429   7.843331   7.595022   65.6281    344.4921   47.37477   15.50791  
179.3024   31.29633   0          7.958912   7.952877   7.704079   7.804413   7.798367   7.626812   1.255147   7.878645   7.626812   69.46394   345.0202   46.41446   14.97978  
179.4548   30.957     0          7.951696   7.955333   7.772033   7.818954   7.837005   7.714164   1.260005   7.887144   7.714164   70.65788   346.603    44.65025   13.39704  
179.6072   31.44819   0          7.904006   7.976232   7.792166   7.820027   7.84025    7.774264   1.256913   7.898129   7.774264   71.39408   345.4659   45.98231   14.53409  
179.7596   31.64732   0          7.868522   7.924975   7.781373   7.778437   7.79831    7.731314   1.22731    7.851706   7.731314   73.03645   346.1053   45.56293   13.89473  
179.912    31.74683   0          7.886529   7.925628   7.802259   7.788569   7.819283   7.788469   1.233039   7.857099   7.788469   75.65947   346.7379   45.2252    13.26209  
180.0644   32.36095   0          7.870203   7.877624   7.797453   7.826976   7.841908   7.780298   1.235107   7.854057   7.780298   78.57026   347.0359   45.32505   12.9641   
180.2168   32.60801   0          7.899792   7.836293   7.687456   7.785513   7.82044    7.7598     1.214964   7.82044    7.7598     81.23641   347.7722   44.83575   12.22776  
180.3692   32.64917   0          7.850435   7.813085   7.71135    7.813537   7.83182    7.740802   1.216441   7.83182    7.740802   84.45812   348.3604   44.18295   11.63954  
180.5216   32.37814   0          7.833637   7.830126   7.782136   7.888104   7.842697   7.781849   1.23732    7.860103   7.781849   88.73813   348.6841   43.66834   11.31594  
180.674    31.99627   0          7.81958    7.870306   7.864726   7.943985   7.880702   7.872427   1.24748    7.908335   7.834256   92.20181   349.3305   42.66578   10.6695   
180.8264   31.78387   0          7.761827   7.86833    7.719634   7.895957   7.680271   7.737801   1.255908   7.882143   7.680271   93.50348   349.0251   42.89931   10.97488  
180.9788   31.689     0          7.773523   7.876201   7.654904   7.93568    7.665623   7.716813   1.231579   7.905941   7.665623   93.62622   348.1365   43.68086   11.86349  
