~Version
 VERS              .         2.0                           : CWLS LOG ASCII STANDARD - VERSION 2.0
 WRAP              .         NO                            : ONE LINE PER DEPTH STEP
 DLM               .         SPACE                         : DELIMITING CHARACTER(SPACE TAB OR COMMA)
~Well Information
#_______________________________________________________________________________
#
#PARAMETER_NAME    .UNIT     VALUE                         : DESCRIPTION
#_______________________________________________________________________________
STRT               .m        160.1                         : First reference value
STOP               .m        414.1508                      : Last reference value
STEP               .m        0.1524                        : Step increment
NULL               .         -9999                         : Missing value
COMP               .                                       : Company
WELL               .         H                             : Well name
FLD                .                                       : Field
LOC                .                                       : Location
CNTY               .                                       : County
STAT               .                                       : State
CTRY               .                                       : Country
SRVC               .                                       : Service Company
DATE               .                                       : Date
API                .                                       : API number
~Parameter Information Block
#_______________________________________________________________________________
#
#PARAMETER_NAME    .UNIT     VALUE                         : DESCRIPTION
#_______________________________________________________________________________
SET                .         Inclination                   : 
TLFamily_AZI       .         Hole Azimuth                  : 
TLFamily_AZ_OF_P1  .                                       : 
TLFamily_CAL2      .         Caliper 2                     : 
TLFamily_CAL4      .         Caliper                       : 
TLFamily_CAL6      .         Caliper                       : 
TLFamily_CAL8      .         Caliper                       : 
TLFamily_CALX      .         Caliper 1                     : 
TLFamily_CALY      .         Caliper 2                     : 
TLFamily_DEV       .         Hole Deviation                : 
TLFamily_DMAX      .         Caliper                       : 
TLFamily_DMIN      .         Caliper                       : 
TLFamily_GR        .         Gamma Ray                     : 
TLFamily_HAZI      .         Hole Azimuth                  : 
TLFamily_MD        .         Measured Depth                : 
TLFamily_RB_OF_P1  .         Relative Bearing              : 
TLFamily_ROT       .         Relative Bearing              : 
~Curve Information
#_______________________________________________________________________________
#
#LOGNAME           .UNIT     LOG_ID                        : DESCRIPTION
#_______________________________________________________________________________
MD                 .m                                      :  
AZ_OF_P1           .deg                                    : Unrecognised 
AZI                .deg                                    : AZIMUTH OF FIRST PIXEL OF IMAGE ARRAY 
CAL2               .in                                     : Caliper 
CAL4               .in                                     : Caliper 
CAL6               .in                                     : Caliper 
CAL8               .in                                     : Caliper 
CALX               .in                                     : Caliper 
CALY               .in                                     : Caliper 
DEV                .deg                                    : Deviation 
DMAX               .in                                     : Caliper 
DMIN               .in                                     : Caliper 
GR                 .gAPI                                   : Gamma Ray 
HAZI               .deg                                    : HOLE AZIMUTH 
RB_OF_P1           .deg                                    : Unrecognised 
ROT                .deg                                    : RELATIVE BEARING OF FIRST PIXEL OF IMAGE ARRAY 
~Ascii
# ...
244.2248   337.9069   0          7.743234   7.826614   7.917278   7.740365   7.724286   7.674423   0.9284487  7.830256   7.674423   43.26908   345.3892   352.5176   14.61079  
244.3772   337.8329   0          7.727423   7.782387   7.915327   7.740829   7.704618   7.67682    0.8951729  7.821375   7.67682    42.31284   344.8198   353.1577   15.18022  
244.5296   337.6778   0          7.718977   7.762447   7.905882   7.738491   7.699702   7.656411   0.874078   7.812429   7.656411   41.88786   343.5358   354.1683   16.46424  
244.682    337.5722   0          7.73822    7.738037   7.89299    7.713516   7.70028    7.670684   0.8651593  7.815605   7.670684   41.22306   343.5444   354.0278   16.45555  
244.8344   337.5155   0          7.771906   7.726556   7.888887   7.693374   7.700068   7.688913   0.8651678  7.830397   7.688913   40.67834   343.4643   353.5483   16.53573  
244.9868   337.0842   0          7.771384   7.763773   7.874288   7.769906   7.706787   7.687553   0.8450685  7.822836   7.687553   40.43966   343.2394   353.4978   16.76063  
245.1392   336.4184   0          7.782693   7.732533   7.853059   7.806623   7.725165   7.676333   0.839246   7.817876   7.676333   40.02172   343.8423   352.5761   16.15766  
245.2916   335.8981   0          7.785873   7.729485   7.851819   7.806327   7.721464   7.7178     0.8224152  7.818846   7.717134   39.30389   344.0159   351.7485   15.98409  
245.444    335.735    0          7.797123   7.74422    7.84631    7.796744   7.708436   7.756455   0.819429   7.821716   7.708436   38.53485   343.1852   352.1655   16.81486  
245.5964   335.2195   0          7.79198    7.750222   7.820005   7.754054   7.707606   7.736757   0.7996671  7.805993   7.707606   38.87483   340.8453   354.3742   19.15471  
245.7488   334.3713   0          7.805274   7.736979   7.821699   7.752802   7.707665   7.726459   0.7983296  7.813486   7.707665   40.43098   340.4869   353.8844   19.51308  
245.9012   333.3897   0          7.784775   7.723436   7.820386   7.740204   7.691017   7.727006   0.8089358  7.80258    7.691017   42.10723   341.4676   352.0368   18.53244  
246.0536   332.2304   0          7.776108   7.721672   7.819437   7.751305   7.700421   7.720393   0.8078802  7.797772   7.700421   42.44595   340.8914   351.339    19.10864  
246.206    331.5699   0          7.77012    7.736349   7.850775   7.743703   7.700588   7.694088   0.7830634  7.810448   7.694088   42.22828   338.9771   352.5929   21.02296  
246.3584   331.3597   0          7.779867   7.749958   7.841888   7.743207   7.706487   7.673696   0.8012108  7.810877   7.673696   42.54006   337.6236   353.2734   22.37644  
246.5108   331.3716   0          7.778343   7.749973   7.832281   7.732537   7.70546    7.633936   0.8065744  7.805312   7.633936   42.91238   336.596    354.6236   23.40397  
246.6632   331.2121   0          7.780406   7.739913   7.81294    7.740974   7.679748   7.677491   0.8011483  7.796673   7.677491   42.71304   339.0884   352.1237   20.91158  
246.8156   330.9229   0          7.783132   7.776812   7.852911   7.747383   7.686818   7.691722   0.7997808  7.818021   7.686818   42.38909   338.6318   352.7439   21.3682   
246.968    330.3759   0          7.740221   7.772898   7.85765    7.759849   7.684452   7.687794   0.793103   7.798936   7.684452   42.47798   339.0359   351.9429   20.96407  
247.1204   330.1876   0          7.740231   7.754356   7.83024    7.766436   7.669005   7.618246   0.7840227  7.785235   7.618246   43.80519   337.7682   352.4194   22.23178  
247.2728   330.1238   0          7.757154   7.767815   7.810601   7.746581   7.672894   7.631959   0.7714659  7.783877   7.631959   46.13963   337.815    352.4674   22.18497  
247.4252   330.1682   0          7.76979    7.709668   7.774803   7.748667   7.663275   7.62883    0.7806995  7.772297   7.62883    48.20018   338.9343   352.028    21.0657   
247.5776   330.2705   0          7.780631   7.710502   7.777967   7.75137    7.660259   7.647051   0.7983704  7.7793     7.647051   49.58878   336.4647   353.8058   23.53528  
247.73     330.1892   0          7.777023   7.718378   7.788431   7.750184   7.638206   7.675038   0.8219571  7.782727   7.638206   48.50585   335.8152   354.374    24.18479  
247.8824   329.4798   0          7.777365   7.688598   7.756767   7.747409   7.704022   7.675837   0.8207799  7.767066   7.663447   46.13441   337.1435   352.363    22.85646  
248.0348   328.9215   0          7.781995   7.692434   7.760796   7.764514   7.732673   7.675407   0.8114952  7.771395   7.675407   43.20771   336.8585   352.0668   23.14154  
248.1872   328.787    0          7.805999   7.680476   7.629584   7.765306   7.724143   7.673046   0.8285187  7.727808   7.673046   41.12303   335.7374   353.0496   24.26262  
248.3396   328.7726   0          7.833038   7.727214   7.55865    7.752169   7.725015   7.679031   0.8514526  7.739692   7.679031   40.21056   336.529    352.6189   23.47099  
248.492    328.6157   0          7.817237   7.761821   7.639407   7.756344   7.72104    7.739074   0.8333592  7.759082   7.716325   40.25219   336.5646   352.2662   23.43539  
248.6444   328.2649   0          7.780922   7.749904   7.673894   7.747329   7.709179   7.724349   0.8483059  7.748616   7.709179   42.50468   336.804    351.4609   23.19603  
248.7968   328.4885   0          7.756577   7.75771    7.756797   7.740033   7.694192   7.720031   0.8574463  7.757723   7.694192   45.2118    336.5002   351.9985   23.49976  
248.9492   328.8338   0          7.763285   7.778345   7.666277   7.708992   7.693019   7.721204   0.8646573  7.743669   7.693019   47.47169   337.6495   351.2103   22.35047  
249.1016   328.8852   0          7.762978   7.750621   7.64645    7.712868   7.65308    7.704484   0.8682221  7.731744   7.65308    48.65036   337.5489   351.3363   22.45108  
249.254    329.0767   0          7.742353   7.725585   7.524658   7.708327   7.635834   7.723434   0.8927722  7.724348   7.620544   48.6522    338.4044   350.6631   21.59556  
249.4064   329.0459   0          7.751425   7.745299   7.47865    7.711769   7.659344   7.752127   0.8893065  7.752588   7.615037   47.87557   337.9753   350.8939   22.02468  
249.5588   329.2839   0          7.749215   7.763957   7.408053   7.736362   7.64882    7.722603   0.8873509  7.750159   7.578634   46.34597   338.9133   350.3707   21.08673  
249.7112   329.5911   0          7.743982   7.701726   7.415135   7.738514   7.691188   7.629237   0.874232   7.72012    7.561518   45.25151   339.6738   349.9173   20.32616  
249.8636   329.5792   0          7.763864   7.749622   7.397762   7.702155   7.686223   7.417455   0.8719493  7.725889   7.417455   47.89121   340.1609   350.0869   19.83904  
250.016    329.7532   0          7.741412   7.692127   7.386641   7.739363   7.66617    7.652297   0.8804321  7.715745   7.564026   54.52721   339.127    350.8182   20.87294  
250.1684   329.973    0          7.688136   7.648732   7.466683   7.856252   7.718632   7.614851   0.9053699  7.752492   7.57741    64.08063   340.3309   349.642    19.66907  
250.3208   329.8377   0          7.692653   7.666868   7.552865   7.959382   7.735089   7.759367   0.8917118  7.817906   7.60718    74.15288   340.6766   348.6592   19.32341  
250.4732   329.721    0          7.752938   7.743414   7.667334   7.853635   7.648542   7.7153     0.8857575  7.804685   7.648542   81.04317   339.0968   350.0669   20.90319  
250.6256   329.4392   0          7.719569   7.785338   7.60586    7.749012   7.642404   7.668762   0.8946072  7.767175   7.632051   84.09977   339.7155   349.7237   20.28449  
250.778    329.0854   0          7.694876   7.734295   7.547006   7.704836   7.656578   7.637867   0.9087942  7.719566   7.620941   83.16434   340.155    348.897    19.84501  
250.9304   328.6558   0          7.674224   7.766069   7.534872   7.721833   7.628848   7.60355    0.9254127  7.743951   7.6035     80.77479   340.834    347.6827   19.16601  
251.0828   328.0471   0          7.643485   7.774371   7.584686   7.751177   7.651037   7.633041   0.953833   7.762774   7.613493   79.70742   341.7021   346.345    18.29791  
