~Version
 VERS              .         2.0                           : CWLS LOG ASCII STANDARD - VERSION 2.0
 WRAP              .         NO                            : ONE LINE PER DEPTH STEP
 DLM               .         SPACE                         : DELIMITING CHARACTER(SPACE TAB OR COMMA)
~Well Information
#_______________________________________________________________________________
#
#PARAMETER_NAME    .UNIT     VALUE                         : DESCRIPTION
#_______________________________________________________________________________
STRT               .m        160.1                         : First reference value
STOP               .m        414.1508                      : Last reference value
STEP               .m        0.1524                        : Step increment
NULL               .         -9999                         : Missing value
COMP               .                                       : Company
WELL               .         H                             : Well name
FLD                .                                       : Field
LOC                .                                       : Location
CNTY               .                                       : County
STAT               .                                       : State
CTRY               .                                       : Country
SRVC               .                                       : Service Company
DATE               .                                       : Date
API                .                                       : API number
~Parameter Information Block
#_______________________________________________________________________________
#
#PARAMETER_NAME    .UNIT     VALUE                         : DESCRIPTION
#_______________________________________________________________________________
SET                .         Inclination                   : 
TLFamily_AZI       .         Hole Azimuth                  : 
TLFamily_AZ_OF_P1  .                                       : 
TLFamily_CAL2      .         Caliper 2                     : 
TLFamily_CAL4      .         Caliper                       : 
TLFamily_CAL6      .         Caliper                       : 
TLFamily_CAL8      .         Caliper                       : 
TLFamily_CALX      .         Caliper 1                     : 
TLFamily_CALY      .         Caliper 2                     : 
TLFamily_DEV       .         Hole Deviation                : 
TLFamily_DMAX      .         Caliper                       : 
TLFamily_DMIN      .         Caliper                       : 
TLFamily_GR        .         Gamma Ray                     : 
TLFamily_HAZI      .         Hole Azimuth                  : 
TLFamily_MD        .         Measured Depth                : 
TLFamily_RB_OF_P1  .         Relative Bearing              : 
TLFamily_ROT       .         Relative Bearing              : 
~Curve Information
#_______________________________________________________________________________
#
#LOGNAME           .UNIT     LOG_ID                        : DESCRIPTION
#_______________________________________________________________________________
MD                 .m                                      :  
AZ_OF_P1           .deg                                    : Unrecognised 
AZI                .deg                                    : AZIMUTH OF FIRST PIXEL OF IMAGE ARRAY 
CAL2               .in                                     : Caliper 
CAL4               .in                                     : Caliper 
CAL6               .in                                     : Caliper 
CAL8               .in                                     : Caliper 
CALX               .in                                     : Caliper 
CALY               .in                                     : Caliper 
DEV                .deg                                    : Deviation 
DMAX               .in                                     : Caliper 
DMIN               .in                                     : Caliper 
GR                 .gAPI                                   : Gamma Ray 
HAZI               .deg                                    : HOLE AZIMUTH 
RB_OF_P1           .deg                                    : Unrecognised 
ROT                .deg                                    : RELATIVE BEARING OF FIRST PIXEL OF IMAGE ARRAY 
~Ascii
# ...
272.2664   302.8105   0          7.445792   7.71389    7.760777   7.671628   7.568664   7.628293   0.8341047  7.692759   7.568664   56.5635    339.8254   322.9974   20.17463  
272.4188   302.3096   0          7.471859   7.703296   7.809027   7.727427   7.583213   7.659617   0.8325877  7.715361   7.583213   55.66452   339.6653   322.7262   20.33469  
272.5712   301.8151   0          7.52732    7.64527    7.820058   7.805382   7.617424   7.698446   0.8415417  7.725326   7.617424   54.96875   338.4944   323.3207   21.50562  
272.7236   301.4342   0          7.578546   7.658752   7.744373   7.816432   7.59459    7.729115   0.8562795  7.741586   7.59459    54.8747    337.3708   324.0634   22.62923  
272.876    301.3044   0          7.585984   7.715798   7.728751   7.745048   7.553776   7.724553   0.8494397  7.734484   7.553776   55.72188   336.6016   324.6647   23.39843  
273.0284   301.679    0          7.545946   7.694115   7.662812   7.7539     7.58686    7.752657   0.8426726  7.752657   7.582422   56.91939   336.1184   325.5533   23.88157  
273.1808   301.683    0          7.595578   7.688205   7.704579   7.78225    7.627086   7.74876    0.8627239  7.74876    7.624085   57.02741   335.8399   325.8431   24.16012  
273.3332   301.3415   0          7.601005   7.712982   7.717569   7.780402   7.610847   7.753428   0.8583151  7.753428   7.610847   56.39278   334.4768   326.4723   25.5232   
273.4856   300.7738   0          7.619466   7.745758   7.629658   7.776351   7.657604   7.75518    0.8464933  7.761085   7.616092   56.69451   335.5836   324.9077   24.41642  
273.638    300.4095   0          7.608497   7.767075   7.629295   7.758422   7.666461   7.754031   0.8571423  7.764468   7.618896   56.6359    334.7534   325.6562   25.24661  
273.7904   299.3944   0          7.579713   7.758625   7.697357   7.747367   7.662021   7.719471   0.8484282  7.75343    7.638535   56.88126   335.2442   324.2071   24.75577  
273.9428   298.5975   0          7.557451   7.756241   7.692976   7.765438   7.655479   7.710671   0.8675992  7.760839   7.625214   57.286     335.3656   323.4001   24.63443  
274.0952   297.988    0          7.599923   7.755071   7.678719   7.774875   7.657949   7.700347   0.8513553  7.764973   7.63932    57.2335    335.7549   322.2331   24.24506  
274.2476   297.8043   0          7.567374   7.753623   7.692774   7.77386    7.660711   7.733222   0.8780102  7.763741   7.630074   57.67578   335.9538   321.8505   24.04625  
274.4      297.1283   0          7.574924   7.764965   7.706167   7.756446   7.660586   7.728415   0.8829023  7.760705   7.640545   58.6292    337.5578   320.2503   22.44216  
274.5524   296.3      0          7.510708   7.741303   7.674502   7.754902   7.664878   7.705833   0.8721867  7.748103   7.592605   60.3964    338.1526   318.1473   21.84739  
274.7048   296.3273   0          7.553499   7.691276   7.675146   7.752181   7.65362    7.694241   0.8957649  7.721728   7.614323   62.35878   337.5661   318.7612   22.43387  
274.8572   296.2966   0          7.584536   7.705543   7.671146   7.733573   7.617676   7.7084     0.919679   7.719558   7.613759   62.50735   337.1544   319.2962   22.84561  
275.0096   296.1252   0          7.59849    7.71885    7.609658   7.693414   7.597676   7.688452   0.91746    7.706132   7.597676   61.35668   337.1924   318.9848   22.80758  
275.162    296.135    0          7.580875   7.733229   7.423101   7.669703   7.510705   7.673025   0.9392534  7.701466   7.490565   60.12664   336.73     319.4049   23.26997  
275.3144   295.9391   0          7.569282   7.720519   7.246894   7.723624   7.575426   7.658425   0.9418789  7.722072   7.408088   59.07701   337.511    318.7102   22.48901  
275.4668   295.6807   0          7.519618   7.729844   7.534425   7.739057   7.566808   7.683844   0.9621324  7.734451   7.516652   59.01123   338.1903   317.8822   21.80972  
275.6192   295.4709   0          7.507697   7.738708   7.681155   7.735697   7.535016   7.693429   0.9538951  7.737203   7.535016   58.82765   337.0906   318.3803   22.90941  
275.7716   295.0446   0          7.472292   7.733648   7.718583   7.754869   7.603451   7.676388   0.9444436  7.744259   7.589084   58.51978   336.734    318.2687   23.26602  
275.924    294.797    0          7.517497   7.673507   7.686125   7.786554   7.625196   7.667002   0.9521472  7.730031   7.601811   58.22907   336.8108   317.7658   23.18917  
276.0764   294.4802   0          7.54537    7.643139   7.652943   7.802885   7.619348   7.68134    0.9397949  7.723012   7.599156   58.19554   337.4582   317.022    22.54184  
276.2288   294.2422   0          7.551587   7.641651   7.626906   7.790394   7.63288    7.688144   0.9292349  7.716023   7.589247   59.35296   337.2387   317.0034   22.76127  
276.3812   294.1019   0          7.568732   7.651918   7.723938   7.763114   7.667091   7.739197   0.9478131  7.741849   7.646335   60.28873   337.1987   316.7765   22.80129  
276.5336   293.8269   0          7.622978   7.648232   7.768584   7.771413   7.663589   7.741938   0.9438393  7.741938   7.663589   60.12344   336.3901   317.4178   23.60988  
276.686    294.1595   0          7.63631    7.638518   7.827849   7.800288   7.619456   7.715978   0.9339471  7.735407   7.619456   58.57872   335.8425   318.317    24.15747  
276.8384   294.3415   0          7.599012   7.680051   7.859948   7.753887   7.619504   7.694997   0.9506375  7.729479   7.619504   57.17306   336.4456   318.2208   23.55442  
276.9908   294.1794   0          7.587923   7.670789   7.832881   7.758295   7.609006   7.674696   0.943544   7.714972   7.609006   56.66572   334.3518   320.022    25.64823  
277.1432   293.8101   0          7.6491     7.685582   7.78641    7.71293    7.614139   7.689966   0.9352106  7.721604   7.614139   57.28972   334.9056   318.9045   25.09438  
277.2956   293.2738   0          7.639034   7.675591   7.852803   7.687243   7.635636   7.663156   0.9320734  7.745919   7.635636   59.14863   336.5058   316.5585   23.49422  
277.448    293.2273   0          7.58312    7.668594   7.813482   7.573752   7.564632   7.633746   0.9465905  7.698301   7.564632   61.90496   335.8435   316.833    24.15652  
277.6004   293.1975   0          7.588871   7.625842   7.771159   7.602754   7.470805   7.654024   0.9417647  7.680015   7.470805   64.85515   335.7062   317.4913   24.29377  
277.7528   293.1279   0          7.631073   7.606657   7.750548   7.667782   7.575703   7.64927    0.9560364  7.690811   7.575703   66.14622   336.6517   316.4769   23.34833  
277.9052   292.8471   0          7.608889   7.568563   7.71598    7.673758   7.568308   7.618286   0.9558278  7.674953   7.564707   65.72284   336.4371   316.4259   23.56287  
278.0576   292.3184   0          7.583208   7.505076   7.264906   7.615261   7.494236   7.696208   0.9741443  7.696208   7.424057   63.64689   334.888    317.4304   25.112    
278.21     291.3728   0          7.518266   7.571337   7.412808   7.593501   7.504724   7.706089   0.9784962  7.706089   7.465537   61.62743   334.3533   317.0195   25.64671  
278.3624   290.7552   0          7.540169   7.760014   7.628816   7.530054   7.598416   7.694863   0.9612394  7.694863   7.559863   60.61613   335.4023   315.4579   24.59776  
278.5148   290.5373   0          7.621599   7.695294   7.570429   7.661077   7.595267   7.680229   0.9541594  7.680357   7.58918    60.94768   335.6458   314.9227   24.35425  
278.6672   290.4444   0          7.632686   7.692503   7.545476   7.648453   7.598747   7.641105   0.9797062  7.670478   7.585257   61.88979   335.3313   315.1132   24.66875  
278.8196   290.2234   0          7.612904   7.623277   7.639367   7.491908   7.584219   7.631908   0.9786376  7.638342   7.557592   63.5325    335.5755   314.9546   24.42447  
278.972    289.91     0          7.552298   7.552997   7.690542   7.552891   7.648167   7.706049   0.9821218  7.706049   7.552944   65.0466    334.4914   315.7737   25.50863  
279.1244   289.2308   0          7.572616   7.572641   7.649867   7.678332   7.646018   7.69336    0.9884849  7.69336    7.608242   65.40856   333.807    315.4238   26.19303  
