~Version
 VERS              .         2.0                           : CWLS LOG ASCII STANDARD - VERSION 2.0
 WRAP              .         NO                            : ONE LINE PER DEPTH STEP
 DLM               .         SPACE                         : DELIMITING CHARACTER(SPACE TAB OR COMMA)
~Well Information
#_______________________________________________________________________________
#
#PARAMETER_NAME    .UNIT     VALUE                         : DESCRIPTION
#_______________________________________________________________________________
STRT               .m        160.1                         : First reference value
STOP               .m        414.1508                      : Last reference value
STEP               .m        0.1524                        : Step increment
NULL               .         -9999                         : Missing value
COMP               .                                       : Company
WELL               .         H                             : Well name
FLD                .                                       : Field
LOC                .                                       : Location
CNTY               .                                       : County
STAT               .                                       : State
CTRY               .                                       : Country
SRVC               .                                       : Service Company
DATE               .                                       : Date
API                .                                       : API number
~Parameter Information Block
#_______________________________________________________________________________
#
#PARAMETER_NAME    .UNIT     VALUE                         : DESCRIPTION
#_______________________________________________________________________________
SET                .         Inclination                   : 
TLFamily_AZI       .         Hole Azimuth                  : 
TLFamily_AZ_OF_P1  .                                       : 
TLFamily_CAL2      .         Caliper 2                     : 
TLFamily_CAL4      .         Caliper                       : 
TLFamily_CAL6      .         Caliper                       : 
TLFamily_CAL8      .         Caliper                       : 
TLFamily_CALX      .         Caliper 1                     : 
TLFamily_CALY      .         Caliper 2                     : 
TLFamily_DEV       .         Hole Deviation                : 
TLFamily_DMAX      .         Caliper                       : 
TLFamily_DMIN      .         Caliper                       : 
TLFamily_GR        .         Gamma Ray                     : 
TLFamily_HAZI      .         Hole Azimuth                  : 
TLFamily_MD        .         Measured Depth                : 
TLFamily_RB_OF_P1  .         Relative Bearing              : 
TLFamily_ROT       .         Relative Bearing              : 
~Curve Information
#_______________________________________________________________________________
#
#LOGNAME           .UNIT     LOG_ID                        : DESCRIPTION
#_______________________________________________________________________________
MD                 .m                                      :  
AZ_OF_P1           .deg                                    : Unrecognised 
AZI                .deg                                    : AZIMUTH OF FIRST PIXEL OF IMAGE ARRAY 
CAL2               .in                                     : Caliper 
CAL4               .in                                     : Caliper 
CAL6               .in                                     : Caliper 
CAL8               .in                                     : Caliper 
CALX               .in                                     : Caliper 
CALY               .in                                     : Caliper 
DEV                .deg                                    : Deviation 
DMAX               .in                                     : Caliper 
DMIN               .in                                     : Caliper 
GR                 .gAPI                                   : Gamma Ray 
HAZI               .deg                                    : HOLE AZIMUTH 
RB_OF_P1           .deg                                    : Unrecognised 
ROT                .deg                                    : RELATIVE BEARING OF FIRST PIXEL OF IMAGE ARRAY 
~Ascii
# ...
391.4432   247.243    0          6.439796   6.446191   6.441554   6.438337   6.387264   6.386294   1.11132    6.442331   6.382282   12.75106   335.7681   271.5882   24.2319   
391.5956   246.8517   0          6.417991   6.408851   6.441439   6.386804   6.355975   6.360627   1.125225   6.429883   6.355975   13.1431    336.2672   270.5845   23.73284  
391.748    246.3055   0          6.311788   6.367239   6.392796   6.44843    6.267058   6.317088   1.090948   6.407834   6.267058   13.88627   335.7791   270.5264   24.2209   
391.9004   245.8022   0          6.365133   6.239666   6.311607   6.496815   6.279714   6.264791   1.075856   6.36824    6.264655   14.69395   336.7787   269.4196   23.22132  
392.0528   245.4926   0          6.296713   6.380563   6.350659   6.342571   6.254565   6.299383   1.065716   6.361567   6.254565   14.80877   336.6879   268.8047   23.31212  
392.2052   245.2552   0          6.273806   6.362542   6.322535   6.400722   6.257646   6.291724   1.080732   6.381631   6.257646   14.60765   335.4465   269.8086   24.55348  
392.3576   244.6202   0          6.283565   6.422597   6.320584   6.379132   6.285042   6.31795    1.110938   6.400865   6.285042   13.87005   335.9409   269.147    24.05912  
392.51     244.1593   0          6.273848   6.46332    6.386347   6.368556   6.283875   6.327895   1.117722   6.415938   6.283875   13.21878   335.4522   268.8637   24.54781  
392.6624   243.9953   0          6.282356   6.396863   6.39001    6.404031   6.272436   6.323816   1.118058   6.400447   6.272436   13.67373   334.3786   269.6166   25.6214   
392.8148   243.6861   0          6.332987   6.360448   6.372613   6.42236    6.284329   6.323314   1.115319   6.391824   6.278591   14.0478    336.0038   267.8167   23.99626  
392.9672   243.4751   0          6.428854   6.465596   6.389943   6.252259   6.299872   6.254002   1.129879   6.409399   6.254002   13.99669   335.0016   268.6575   24.99845  
393.1196   243.3161   0          6.385012   6.521196   6.234087   6.029393   6.169437   6.301673   1.151618   6.311845   6.169437   13.60315   335.6274   267.6887   24.37256  
393.272    242.7344   0          6.314638   6.350558   6.437356   6.1659     6.16015    6.305474   1.15955    6.375997   6.16015    13.38199   337.0176   265.5813   22.98236  
393.4244   242.4577   0          6.362138   6.305619   6.431644   6.199778   6.180675   6.293141   1.187767   6.396891   6.180675   13.87995   335.7793   265.9785   24.22074  
393.5768   241.9088   0          6.364811   6.310084   6.385755   6.210594   6.231407   6.308533   1.185451   6.375283   6.231407   15.01708   335.7809   266.1279   24.21907  
393.7292   241.5188   0          6.326459   6.418493   6.434534   6.167551   6.241597   6.318001   1.176106   6.380497   6.241597   15.9549    334.7343   266.7845   25.26572  
393.8816   241.1051   0          6.341461   6.472224   6.422144   6.124959   6.206817   6.321751   1.181323   6.381803   6.206817   15.88237   334.5454   266.256    25.45457  
394.034    240.5658   0          6.345938   6.365503   6.382444   6.152161   6.112886   6.321653   1.172089   6.364191   6.112886   15.29844   335.2139   265.3073   24.78609  
394.1864   240.3854   0          6.474103   5.912201   5.997996   6.408084   6.066021   6.248651   1.180133   6.253917   6.066021   15.14215   333.561    266.8243   26.43897  
394.3388   240.2644   0          6.376877   6.272191   6.233862   6.215917   6.32854    6.234755   1.191075   6.32854    6.23436    17.18619   330.7742   269.2678   29.22579  
394.4912   239.829    0          6.286603   6.418629   6.294767   6.064649   6.258358   6.254359   1.194615   6.290911   6.239441   20.37567   330.9296   268.7681   29.07036  
394.6436   239.4531   0          6.259154   6.351907   6.32661    6.181562   6.264924   6.229141   1.192353   6.292881   6.229141   22.2944    331.0782   268.3749   28.92176  
394.796    238.956    0          6.325791   6.262627   6.243585   6.224068   6.255562   6.225327   1.178666   6.284688   6.225327   22.67114   331.1666   267.5555   28.83344  
394.9484   238.608    0          6.360483   6.268043   6.290585   6.233217   6.273672   6.258628   1.211332   6.325534   6.236491   22.45175   331.3343   266.6642   28.6657   
395.1008   237.9504   0          6.340304   6.230992   6.348716   6.232931   6.262696   6.271976   1.207811   6.34451    6.231962   22.66341   330.447    267.5034   29.55303  
395.2532   237.3817   0          6.401861   6.130524   6.291755   6.252298   6.273179   6.323247   1.187703   6.346808   6.191411   22.94249   328.998    268.405    31.00204  
395.4056   236.9051   0          6.452226   6.428242   6.344366   6.229028   6.42327    6.377795   1.187188   6.425751   6.328635   22.04698   328.4148   268.957    31.58522  
395.558    236.4749   0          6.498353   6.526517   6.536145   6.270463   6.463214   6.44576    1.1874     6.517249   6.39849    20.31161   327.5908   268.8841   32.4092   
395.7104   235.9276   0          6.480095   6.514321   6.533502   6.352679   6.435798   6.427182   1.197333   6.506799   6.425695   19.05629   328.8484   267.0791   31.15159  
395.8628   235.3599   0          6.520807   6.540482   6.517233   6.392295   6.438513   6.468966   1.202956   6.51902    6.438513   18.86773   329.4959   265.9074   30.50413  
396.0152   234.9227   0          6.536948   6.581993   6.525952   6.36592    6.434317   6.445239   1.197786   6.53145    6.434317   19.48084   328.537    266.3984   31.46295  
396.1676   234.4906   0          6.516613   6.50858    6.525976   6.052521   6.379013   6.387476   1.206811   6.521295   6.269344   21.0165    328.1794   266.3113   31.82065  
396.32     233.9691   0          6.463013   6.459455   6.4549     6.056671   6.326667   6.368832   1.223463   6.462894   6.227862   23.85096   329.6464   264.4816   30.35359  
396.4724   233.4163   0          6.375205   6.392201   6.128201   6.239321   6.167822   6.263293   1.236062   6.315761   6.167822   28.0047    329.088    264.5097   30.91199  
396.6248   232.9681   0          6.327177   6.328492   6.119966   6.165661   6.173323   6.231127   1.242149   6.271984   6.148415   33.37439   326.9691   265.999    33.03094  
396.7772   232.1766   0          6.122188   6.058892   6.283986   6.103743   6.193497   6.169962   1.22375    6.206346   6.081317   38.40675   325.1433   267.0026   34.85668  
396.9296   231.6998   0          6.23923    6.200608   6.262012   6.092012   6.19008    6.196677   1.196138   6.250621   6.14631    41.76231   325.6103   265.9584   34.38975  
397.082    231.3909   0          6.303662   6.255596   6.191754   6.01946    6.185627   6.186619   1.163491   6.247708   6.137528   44.8353    326.1305   265.2604   33.86952  
397.2344   230.992    0          6.299853   6.250675   6.228145   6.194642   6.195293   6.20967    1.162089   6.263999   6.19262    48.24216   324.3614   266.6306   35.63862  
397.3868   230.5239   0          6.307122   6.173861   6.195259   6.232876   6.166727   6.211721   1.165382   6.25119    6.166727   52.32027   325.6269   265.5418   34.37308  
397.5392   230.3402   0          6.247767   6.138133   6.196072   6.287048   6.191665   6.185966   1.161158   6.225904   6.185966   54.42085   325.5221   264.8865   34.47788  
397.6916   230.125    0          6.276247   6.190207   6.194109   6.257552   6.187427   6.176491   1.122873   6.236032   6.176491   52.70052   322.9628   267.1622   37.03724  
397.844    229.9616   0          6.266382   6.204703   6.174209   6.237768   6.198161   6.162041   1.113075   6.222142   6.162041   49.00871   322.048    267.8755   37.95202  
397.9964   229.504    0          6.263577   6.210388   6.179493   6.214172   6.170681   6.154252   1.094869   6.221535   6.154252   45.15038   322.6329   266.8525   37.36706  
398.1488   228.9317   0          6.284399   6.203735   6.182827   6.23049    6.170219   6.17282    1.105375   6.233613   6.170219   43.04815   324.0177   264.914    35.98225  
398.3012   228.3841   0          6.286834   6.185437   6.183196   6.231927   6.158063   6.173394   1.106475   6.235015   6.158063   42.6422    324.424    263.822    35.57597  
