~Version
 VERS              .         2.0                           : CWLS LOG ASCII STANDARD - VERSION 2.0
 WRAP              .         NO                            : ONE LINE PER DEPTH STEP
 DLM               .         SPACE                         : DELIMITING CHARACTER(SPACE TAB OR COMMA)
~Well Information
#_______________________________________________________________________________
#
#PARAMETER_NAME    .UNIT     VALUE                         : DESCRIPTION
#_______________________________________________________________________________
STRT               .m        160.1                         : First reference value
STOP               .m        414.1508                      : Last reference value
STEP               .m        0.1524                        : Step increment
NULL               .         -9999                         : Missing value
COMP               .                                       : Company
WELL               .         H                             : Well name
FLD                .                                       : Field
LOC                .                                       : Location
CNTY               .                                       : County
STAT               .                                       : State
CTRY               .                                       : Country
SRVC               .                                       : Service Company
DATE               .                                       : Date
API                .                                       : API number
~Parameter Information Block
#_______________________________________________________________________________
#
#PARAMETER_NAME    .UNIT     VALUE                         : DESCRIPTION
#_______________________________________________________________________________
SET                .         Inclination                   : 
TLFamily_AZI       .         Hole Azimuth                  : 
TLFamily_AZ_OF_P1  .                                       : 
TLFamily_CAL2      .         Caliper 2                     : 
TLFamily_CAL4      .         Caliper                       : 
TLFamily_CAL6      .         Caliper                       : 
TLFamily_CAL8      .         Caliper                       : 
TLFamily_CALX      .         Caliper 1                     : 
TLFamily_CALY      .         Caliper 2                     : 
TLFamily_DEV       .         Hole Deviation                : 
TLFamily_DMAX      .         Caliper                       : 
TLFamily_DMIN      .         Caliper                       : 
TLFamily_GR        .         Gamma Ray                     : 
TLFamily_HAZI      .         Hole Azimuth                  : 
TLFamily_MD        .         Measured Depth                : 
TLFamily_RB_OF_P1  .         Relative Bearing              : 
TLFamily_ROT       .         Relative Bearing              : 
~Curve Information
#_______________________________________________________________________________
#
#LOGNAME           .UNIT     LOG_ID                        : DESCRIPTION
#_______________________________________________________________________________
MD                 .m                                      :  
AZ_OF_P1           .deg                                    : Unrecognised 
AZI                .deg                                    : AZIMUTH OF FIRST PIXEL OF IMAGE ARRAY 
CAL2               .in                                     : Caliper 
CAL4               .in                                     : Caliper 
CAL6               .in                                     : Caliper 
CAL8               .in                                     : Caliper 
CALX               .in                                     : Caliper 
CALY               .in                                     : Caliper 
DEV                .deg                                    : Deviation 
DMAX               .in                                     : Caliper 
DMIN               .in                                     : Caliper 
GR                 .gAPI                                   : Gamma Ray 
HAZI               .deg                                    : HOLE AZIMUTH 
RB_OF_P1           .deg                                    : Unrecognised 
ROT                .deg                                    : RELATIVE BEARING OF FIRST PIXEL OF IMAGE ARRAY 
~Ascii
# ...
370.412    295.4124   0          6.274906   6.277384   6.196636   6.177658   6.213559   6.180564   0.9514141  6.235771   6.180564   37.44917   329.3328   325.749    30.66721  
370.5644   295.1117   0          6.262692   6.251925   6.201612   6.178085   6.212705   6.164631   0.9481529  6.232152   6.164631   34.87308   330.4348   324.6769   29.56522  
370.7168   294.8514   0          6.272554   6.18354    6.207287   6.236177   6.214366   6.177965   0.9526209  6.23992    6.177965   32.85008   329.7596   325.0919   30.24045  
370.8692   294.8363   0          6.304672   6.212529   6.197376   6.246253   6.241992   6.15231    0.9536952  6.251024   6.15231    31.19909   329.3264   325.5194   30.67356  
371.0216   294.9832   0          6.371221   6.235977   6.164892   6.240143   6.247776   6.235565   0.9637638  6.270815   6.224892   30.37361   329.4555   325.53     30.54448  
371.174    294.7419   0          6.314024   6.349533   6.315335   6.260837   6.288639   6.274051   0.9771894  6.318033   6.261203   29.75981   330.445    324.2969   29.55502  
371.3264   294.3687   0          6.367505   6.464377   6.38476    6.322216   6.32736    6.30694    0.9921168  6.393297   6.285957   29.46143   331.0511   323.2241   28.94896  
371.4788   293.867    0          6.442743   6.470741   6.386071   6.425801   6.349655   6.446827   0.9977014  6.449425   6.349655   29.43306   331.1573   322.6243   28.84268  
371.6312   293.0966   0          6.484772   6.513332   6.389256   6.442193   6.42321    6.463703   1.012805   6.477762   6.42321    29.29357   331.6992   321.3974   28.30077  
371.7836   292.3453   0          6.504016   6.506453   6.467112   6.442097   6.437921   6.471505   1.009925   6.488569   6.437921   29.81138   331.9255   320.2783   28.07451  
371.936    292.0761   0          6.487668   6.514535   6.440793   6.442099   6.430273   6.47112    0.9881033  6.478317   6.430273   31.58639   331.5871   319.9907   28.41289  
372.0884   291.7636   0          6.479937   6.49828    6.427139   6.441104   6.41644    6.460099   0.9941435  6.469692   6.41644    33.17769   332.317    319.4466   27.68294  
372.2408   291.5134   0          6.472999   6.515776   6.413444   6.413902   6.411875   6.428113   0.9930427  6.464839   6.411875   33.12888   331.6342   319.8792   28.36579  
372.3932   291.265    0          6.48226    6.463118   6.433975   6.412887   6.414065   6.460328   1.010817   6.46247    6.414065   31.88585   332.6344   319.4036   27.36556  
372.5456   290.9325   0          6.472683   6.476615   6.423633   6.399064   6.412086   6.448279   0.9846911  6.449169   6.412086   29.28735   332.0996   318.8756   27.90036  
372.698    290.533    0          6.463449   6.50334    6.488599   6.424078   6.410326   6.457366   0.9954697  6.476068   6.410326   27.83791   333.9149   316.6181   26.08514  
372.8504   290.2064   0          6.485098   6.463017   6.449295   6.433896   6.383019   6.438526   0.9848003  6.467196   6.383019   27.7641    335.2766   315.1063   24.72344  
373.0028   289.9307   0          6.506583   6.395911   6.396571   6.385156   6.351041   6.429623   0.9654161  6.451577   6.351041   27.8516    335.4235   314.5773   24.57649  
373.1552   289.4925   0          6.485536   6.432299   6.430296   6.411991   6.355502   6.445563   0.9732717  6.457916   6.355502   27.95355   335.5533   313.9392   24.44672  
373.3076   288.9787   0          6.480865   6.462762   6.263508   6.356874   6.329614   6.346519   1.00628    6.409818   6.326823   27.65838   336.3992   312.5054   23.60083  
373.46     288.3975   0          6.399348   6.47975    6.233694   6.3362     6.345273   6.293549   1.025331   6.407975   6.293549   27.9752    335.0462   313.2201   24.95382  
373.6124   288.0941   0          6.425242   6.518258   6.291673   6.527712   6.397809   6.45455    1.043003   6.522985   6.346683   29.0167    335.596    312.498    24.40398  
373.7648   288.305    0          6.515366   6.591838   6.523836   6.502202   6.432921   6.500621   1.009959   6.54702    6.432921   29.93143   335.6288   312.6354   24.37124  
373.9172   288.0891   0          6.485085   6.576532   6.430917   6.413147   6.371372   6.4668     0.9907737  6.50607    6.371372   30.99203   335.8999   311.8925   24.10011  
374.0696   287.7316   0          6.313059   6.426777   6.438721   6.214069   6.294469   6.38291    1.000479   6.38291    6.294469   31.72044   337.2555   310.4761   22.74452  
374.222    287.2032   0          6.411753   6.442087   6.41274    6.367076   6.350438   6.429789   1.030477   6.429789   6.350438   31.58116   337.8642   309.339    22.13577  
374.3744   286.6407   0          6.439627   6.48392    6.459463   6.382312   6.370271   6.443236   1.018148   6.454094   6.370271   30.53782   338.5878   308.0943   21.41222  
374.5268   286.3401   0          6.417798   6.571611   6.433057   6.462234   6.38379    6.519877   1.003322   6.522473   6.38379    29.66827   337.8108   308.5377   22.18917  
374.6792   286.4235   0          6.498975   6.50281    6.375041   6.442126   6.393683   6.480269   0.9926365  6.482284   6.393683   30.24104   335.1765   311.2469   24.82345  
374.8316   286.4601   0          6.450026   6.405033   6.446263   6.380598   6.367833   6.447966   1.009544   6.457788   6.367833   31.17894   335.8168   311.186    24.18318  
374.984    286.2951   0          6.442435   6.42265    6.430344   6.297062   6.157967   6.386157   0.9944497  6.436389   6.157967   31.6722    336.4724   310.236    23.52755  
375.1364   286.2162   0          6.445127   6.336384   6.348377   6.242357   6.159018   6.313384   1.007951   6.396752   6.159018   31.40757   338.3689   307.8474   21.63114  
375.2888   286.1353   0          6.306037   6.301259   6.234718   6.115305   6.144098   6.236547   1.017959   6.270378   6.144098   30.61745   339.5052   306.8109   20.49479  
375.4412   285.9834   0          6.342387   6.323797   6.270086   6.123228   6.145092   6.279513   1.016337   6.306237   6.145092   29.55786   338.6633   307.8758   21.33673  
375.5936   285.9708   0          6.399504   6.370664   6.380033   6.206836   6.300505   6.371534   1.021875   6.389769   6.283712   29.41137   337.5341   308.4367   22.46584  
375.746    285.4394   0          6.452145   6.436411   6.383277   6.500316   6.365876   6.404511   0.9985103  6.468363   6.365876   30.44078   337.1416   308.2979   22.85843  
375.8984   284.8909   0          6.458123   6.495661   6.383964   6.422946   6.377227   6.403201   0.9792678  6.459304   6.377227   31.41372   337.181    308.0533   22.81898  
376.0508   284.7299   0          6.42753    6.464892   6.358244   6.408923   6.35951    6.388584   0.974645   6.436907   6.35951    32.62455   336.0021   308.7322   23.99787  
376.2032   284.7086   0          6.368124   6.362388   6.315027   6.380372   6.292795   6.351297   0.9828262  6.371945   6.292795   34.77791   334.8427   309.8659   25.15735  
376.3556   284.4672   0          6.331834   6.334996   6.307268   6.299411   6.26077    6.330196   0.9947965  6.331079   6.26077    36.97075   335.067    309.8788   24.93299  
376.508    284.1748   0          6.412517   6.336295   6.291856   6.366037   6.274664   6.400054   0.9993568  6.404614   6.274664   37.56749   335.2005   309.1423   24.79948  
376.6604   283.9648   0          6.499935   6.545548   6.315294   6.403224   6.402483   6.433389   1.018844   6.474386   6.402483   35.50567   335.3816   308.5832   24.6184   
376.8128   284.0142   0          6.431429   6.448392   6.385171   6.354945   6.324068   6.397709   1.034863   6.4083     6.324068   32.78502   334.8739   309.3677   25.12608  
376.9652   284.0731   0          6.449976   6.446323   6.345472   6.333725   6.30641    6.380912   1.029315   6.397724   6.30641    31.45812   333.8973   310.5101   26.1027   
377.1176   283.9236   0          6.417389   6.386464   6.330189   6.315273   6.289421   6.3364     1.009497   6.373789   6.289421   29.98697   333.5463   310.3773   26.45366  
377.27     283.3806   0          6.362584   6.288991   6.176403   6.252604   6.22656    6.266271   0.9907942  6.280377   6.22656    28.49443   333.2386   310.0807   26.76144  
