~Version
 VERS              .         2.0                           : CWLS LOG ASCII STANDARD - VERSION 2.0
 WRAP              .         NO                            : ONE LINE PER DEPTH STEP
 DLM               .         SPACE                         : DELIMITING CHARACTER(SPACE TAB OR COMMA)
~Well Information
#_______________________________________________________________________________
#
#PARAMETER_NAME    .UNIT     VALUE                         : DESCRIPTION
#_______________________________________________________________________________
STRT               .m        160.1                         : First reference value
STOP               .m        414.1508                      : Last reference value
STEP               .m        0.1524                        : Step increment
NULL               .         -9999                         : Missing value
COMP               .                                       : Company
WELL               .         H                             : Well name
FLD                .                                       : Field
LOC                .                                       : Location
CNTY               .                                       : County
STAT               .                                       : State
CTRY               .                                       : Country
SRVC               .                                       : Service Company
DATE               .                                       : Date
API                .                                       : API number
~Parameter Information Block
#_______________________________________________________________________________
#
#PARAMETER_NAME    .UNIT     VALUE                         : DESCRIPTION
#_______________________________________________________________________________
SET                .         Inclination                   : 
TLFamily_AZI       .         Hole Azimuth                  : 
TLFamily_AZ_OF_P1  .                                       : 
TLFamily_CAL2      .         Caliper 2                     : 
TLFamily_CAL4      .         Caliper                       : 
TLFamily_CAL6      .         Caliper                       : 
TLFamily_CAL8      .         Caliper                       : 
TLFamily_CALX      .         Caliper 1                     : 
TLFamily_CALY      .         Caliper 2                     : 
TLFamily_DEV       .         Hole Deviation                : 
TLFamily_DMAX      .         Caliper                       : 
TLFamily_DMIN      .         Caliper                       : 
TLFamily_GR        .         Gamma Ray                     : 
TLFamily_HAZI      .         Hole Azimuth                  : 
TLFamily_MD        .         Measured Depth                : 
TLFamily_RB_OF_P1  .         Relative Bearing              : 
TLFamily_ROT       .         Relative Bearing              : 
~Curve Information
#_______________________________________________________________________________
#
#LOGNAME           .UNIT     LOG_ID                        : DESCRIPTION
#_______________________________________________________________________________
MD                 .m                                      :  
AZ_OF_P1           .deg                                    : Unrecognised 
AZI                .deg                                    : AZIMUTH OF FIRST PIXEL OF IMAGE ARRAY 
CAL2               .in                                     : Caliper 
CAL4               .in                                     : Caliper 
CAL6               .in                                     : Caliper 
CAL8               .in                                     : Caliper 
CALX               .in                                     : Caliper 
CALY               .in                                     : Caliper 
DEV                .deg                                    : Deviation 
DMAX               .in                                     : Caliper 
DMIN               .in                                     : Caliper 
GR                 .gAPI                                   : Gamma Ray 
HAZI               .deg                                    : HOLE AZIMUTH 
RB_OF_P1           .deg                                    : Unrecognised 
ROT                .deg                                    : RELATIVE BEARING OF FIRST PIXEL OF IMAGE ARRAY 
~Ascii
# ...
258.2456   315.5232   0          7.634101   7.685922   7.494013   7.835102   7.604772   7.631155   0.9178116  7.760511   7.564057   54.88635   341.1478   334.3755   18.85224  
258.398    315.5751   0          7.619449   7.735642   7.753342   7.821411   7.632232   7.681585   0.9132001  7.778526   7.632217   53.98986   342.0825   333.8375   17.91747  
258.5504   315.3613   0          7.624507   7.775344   7.847291   7.77124    7.644175   7.676588   0.8924236  7.773292   7.641343   51.86042   341.2011   334.1657   18.79886  
258.7028   315.0203   0          7.627863   7.792285   7.834928   7.716915   7.644584   7.604273   0.8769842  7.754723   7.604273   49.24464   340.7293   334.291    19.2707   
258.8552   314.8513   0          7.579267   7.733191   7.83927    7.655976   7.608745   7.578705   0.8664935  7.709269   7.578705   48.3738    342.3753   332.9401   17.62472  
259.0076   315.2253   0          7.574114   7.699798   7.82741    7.629376   7.607558   7.574875   0.8587378  7.700762   7.574875   50.29447   342.3448   333.0449   17.65516  
259.16     315.6731   0          7.577313   7.696992   7.849639   7.629376   7.585157   7.57108    0.8549936  7.713477   7.57108    53.46444   341.7524   333.9207   18.24757  
259.3124   315.8401   0          7.583615   7.698137   7.828725   7.633314   7.566858   7.569601   0.8473341  7.70617    7.56645    55.97903   342.4839   333.8095   17.51616  
259.4648   316.1501   0          7.572016   7.687989   7.807982   7.663016   7.550444   7.549159   0.8238788  7.689999   7.549159   56.84604   343.5152   333.3106   16.48476  
259.6172   316.442    0          7.543636   7.657169   7.786899   7.6918     7.54396    7.531492   0.8196009  7.675303   7.531492   56.30938   342.6741   333.7679   17.32589  
259.7696   316.4192   0          7.541238   7.660768   7.657616   7.692      7.543083   7.550795   0.8091357  7.67783    7.538246   55.85855   343.0974   333.3805   16.90259  
259.922    316.283    0          7.543684   7.659408   7.423792   7.692243   7.52702    7.541847   0.8353081  7.675826   7.483738   54.75148   342.3819   334.2369   17.61812  
260.0744   315.9842   0          7.513052   7.642871   7.412766   7.716443   7.502697   7.539342   0.8321012  7.679657   7.462909   53.09373   340.5136   335.4706   19.48636  
260.2268   315.6963   0          7.546786   7.655766   7.482388   7.729538   7.518955   7.553843   0.8510886  7.692652   7.507068   49.87238   342.1175   333.5787   17.88247  
260.3792   315.7623   0          7.694915   7.623993   7.672658   7.832153   7.649539   7.668834   0.8622974  7.728073   7.640314   44.75494   341.4491   334.3958   18.55093  
260.5316   315.4753   0          7.726564   7.77006    7.829762   7.766891   7.675318   7.761524   0.8533964  7.784883   7.675318   39.89276   338.759    336.7299   21.24099  
260.684    314.5472   0          7.764796   7.849362   7.71695    7.753723   7.676147   7.738107   0.8576008  7.801542   7.676147   37.1241    339.5493   334.998    20.45076  
260.8364   314.0939   0          7.729599   7.801779   7.730009   7.79483    7.679581   7.707075   0.8743646  7.798305   7.679581   38.1688    338.9166   334.4397   21.08343  
260.9888   313.7455   0          7.702363   7.800392   7.889349   7.794245   7.682216   7.707047   0.8732224  7.799555   7.682216   41.30622   339.7841   333.4873   20.21585  
261.1412   313.22     0          7.678061   7.728152   7.789833   7.78599    7.636752   7.687312   0.8425158  7.757071   7.636752   44.29076   339.7534   333.4667   20.24664  
261.2936   312.4496   0          7.677686   7.652586   7.478702   7.826996   7.577919   7.617568   0.8679816  7.739791   7.569054   45.71292   338.7153   333.6619   21.28467  
261.446    311.749    0          7.760989   7.361889   7.264038   8.175655   7.63405    7.60187    0.904158   7.768773   7.512514   44.67365   336.7868   334.7632   23.21317  
261.5984   311.7353   0          7.811038   7.33504    7.465144   8.298778   7.822116   7.62815    0.9902124  7.824138   7.627217   41.63821   335.1348   336.6005   24.86519  
261.7508   311.5786   0          7.806689   7.614559   7.776227   8.13907    7.89668    7.706876   1.063787   7.89668    7.703863   38.23976   331.7845   339.7874   28.21545  
261.9032   311.1783   0          7.820632   7.857644   7.947492   7.912526   7.884976   7.705403   1.067423   7.885222   7.705403   36.53695   330.0152   340.9044   29.98479  
262.0556   310.7156   0          7.801621   7.861812   7.972616   7.912239   7.879408   7.741219   1.051159   7.887155   7.741219   37.63055   330.9899   339.7258   29.01012  
262.208    310.3407   0          7.77669    7.861179   7.992219   7.911634   7.861451   7.780633   1.029559   7.886406   7.780633   39.47174   331.3268   339.0139   28.67321  
262.3604   310.0089   0          7.761435   7.858101   7.988003   7.911187   7.860759   7.761326   1.011081   7.884644   7.761326   39.03477   331.0654   339.0732   28.93459  
262.5128   309.8752   0          7.793792   7.869987   7.963976   7.910944   7.855179   7.767237   1.017743   7.890466   7.767237   36.72652   331.9854   337.9304   28.01459  
262.6652   309.8789   0          7.763555   7.846768   7.963817   7.91221    7.852857   7.784582   1.027411   7.879489   7.784582   34.93626   332.9876   336.8914   27.01241  
262.8176   309.8141   0          7.764103   7.807851   7.9707     7.935439   7.825218   7.797092   1.02342    7.872363   7.796092   34.96211   331.6299   337.6306   28.37005  
262.97     309.8184   0          7.751366   7.781027   7.990675   7.935084   7.787432   7.795341   1.039638   7.87102    7.787432   36.78222   331.6318   337.4994   28.36816  
263.1224   309.926    0          7.748948   7.810202   7.989582   7.890928   7.758593   7.780961   1.025333   7.869265   7.758593   38.80484   332.6873   337.2387   27.31274  
263.2748   310.2624   0          7.72177    7.822155   7.993537   7.865493   7.737654   7.772662   1.022279   7.857654   7.737654   40.37602   332.1571   337.9763   27.84286  
263.4272   310.4634   0          7.680453   7.773844   7.932477   7.853141   7.705015   7.73135    1.045685   7.814306   7.701053   42.17527   331.3157   338.5492   28.68428  
263.5796   310.2459   0          7.607993   7.656219   7.836415   7.821084   7.729895   7.634098   1.031474   7.749014   7.634098   44.27616   332.5169   337.729    27.48313  
263.732    310.1687   0          7.607119   7.655579   7.878314   7.811706   7.795118   7.653399   1.020636   7.795118   7.653399   47.25846   330.3013   339.8674   29.69868  
263.8844   309.922    0          7.65692    7.647066   7.711549   7.822764   7.81706    7.619178   1.025798   7.81706    7.619178   51.24881   329.2451   340.5796   30.75484  
264.0368   310.3583   0          7.709319   7.675406   7.664612   7.752237   7.657072   7.636364   1.033719   7.734294   7.636364   53.58002   329.7951   340.551    30.20491  
264.1892   311.1242   0          7.658178   7.723516   7.892097   7.731861   7.657019   7.684564   1.04025    7.775138   7.653009   53.64326   329.5922   341.532    30.40777  
264.3416   311.1219   0          7.644576   7.757738   7.884174   7.702825   7.656535   7.687979   1.037387   7.764375   7.656535   53.02679   330.5442   340.8195   29.4558   
264.494    311.0102   0          7.643785   7.755306   7.85682    7.690258   7.636314   7.675693   1.041896   7.750303   7.636314   52.28938   331.5977   339.5415   28.40231  
264.6464   310.5663   0          7.615821   7.747582   7.452605   7.629506   7.571364   7.64031    1.028398   7.688544   7.534213   51.74551   330.8463   339.72     29.15373  
264.7988   310.0363   0          7.566427   7.727366   7.28464    7.685014   7.449812   7.594668   1.036972   7.70619    7.425534   51.40714   331.2494   338.8914   28.75065  
264.9512   309.961    0          7.4682     7.704693   7.283423   7.647032   7.338425   7.529128   1.067836   7.675862   7.338425   50.70313   331.6978   338.5168   28.30225  
265.1036   309.834    0          7.742323   7.530631   7.318996   7.692978   7.348999   7.597267   1.140773   7.611805   7.348999   51.23658   332.8164   337.0175   27.18356  
