~Version
 VERS              .         2.0                           : CWLS LOG ASCII STANDARD - VERSION 2.0
 WRAP              .         NO                            : ONE LINE PER DEPTH STEP
 DLM               .         SPACE                         : DELIMITING CHARACTER(SPACE TAB OR COMMA)
~Well Information
#_______________________________________________________________________________
#
#PARAMETER_NAME    .UNIT     VALUE                         : DESCRIPTION
#_______________________________________________________________________________
STRT               .m        160.1                         : First reference value
STOP               .m        414.1508                      : Last reference value
STEP               .m        0.1524                        : Step increment
NULL               .         -9999                         : Missing value
COMP               .                                       : Company
WELL               .         H                             : Well name
FLD                .                                       : Field
LOC                .                                       : Location
CNTY               .                                       : County
STAT               .                                       : State
CTRY               .                                       : Country
SRVC               .                                       : Service Company
DATE               .                                       : Date
API                .                                       : API number
~Parameter Information Block
#_______________________________________________________________________________
#
#PARAMETER_NAME    .UNIT     VALUE                         : DESCRIPTION
#_______________________________________________________________________________
SET                .         Inclination                   : 
TLFamily_AZI       .         Hole Azimuth                  : 
TLFamily_AZ_OF_P1  .                                       : 
TLFamily_CAL2      .         Caliper 2                     : 
TLFamily_CAL4      .         Caliper                       : 
TLFamily_CAL6      .         Caliper                       : 
TLFamily_CAL8      .         Caliper                       : 
TLFamily_CALX      .         Caliper 1                     : 
TLFamily_CALY      .         Caliper 2                     : 
TLFamily_DEV       .         Hole Deviation                : 
TLFamily_DMAX      .         Caliper                       : 
TLFamily_DMIN      .         Caliper                       : 
TLFamily_GR        .         Gamma Ray                     : 
TLFamily_HAZI      .         Hole Azimuth                  : 
TLFamily_MD        .         Measured Depth                : 
TLFamily_RB_OF_P1  .         Relative Bearing              : 
TLFamily_ROT       .         Relative Bearing              : 
~Curve Information
#_______________________________________________________________________________
#
#LOGNAME           .UNIT     LOG_ID                        : DESCRIPTION
#_______________________________________________________________________________
MD                 .m                                      :  
AZ_OF_P1           .deg                                    : Unrecognised 
AZI                .deg                                    : AZIMUTH OF FIRST PIXEL OF IMAGE ARRAY 
CAL2               .in                                     : Caliper 
CAL4               .in                                     : Caliper 
CAL6               .in                                     : Caliper 
CAL8               .in                                     : Caliper 
CALX               .in                                     : Caliper 
CALY               .in                                     : Caliper 
DEV                .deg                                    : Deviation 
DMAX               .in                                     : Caliper 
DMIN               .in                                     : Caliper 
GR                 .gAPI                                   : Gamma Ray 
HAZI               .deg                                    : HOLE AZIMUTH 
RB_OF_P1           .deg                                    : Unrecognised 
ROT                .deg                                    : RELATIVE BEARING OF FIRST PIXEL OF IMAGE ARRAY 
~Ascii
# ...
307.3184   288.0848   0          7.698092   7.76166    7.800315   7.663471   7.543184   7.734905   0.6922497  7.751826   7.543184   89.26728   334.4003   313.7341   25.59972  
307.4708   287.8049   0          7.700503   7.737084   7.795916   7.767504   7.554046   7.705013   0.6712821  7.752371   7.554046   86.80344   334.2994   313.5652   25.70056  
307.6232   287.6111   0          7.602813   7.749164   7.803695   7.671611   7.550498   7.677908   0.6742014  7.710388   7.550498   84.65375   334.4543   313.1569   25.54576  
307.7756   287.3629   0          7.672487   7.685205   7.773616   7.703358   7.578088   7.626662   0.6734526  7.723985   7.578088   82.58989   335.6159   311.8188   24.38406  
307.928    287.2019   0          7.736435   7.684635   7.730631   7.764412   7.581678   7.622519   0.643104   7.739225   7.581678   79.36537   336.1427   311.3835   23.85728  
308.0804   287.1367   0          7.660906   7.634034   7.533286   7.78959    7.593997   7.558534   0.6330669  7.711812   7.551954   74.3796    336.0371   311.0997   23.96293  
308.2328   287.1022   0          7.641438   7.633139   7.433582   7.794727   7.600666   7.524417   0.6441054  7.713933   7.517463   68.0005    335.028    312.0742   24.97201  
308.3852   286.8369   0          7.596165   7.684444   7.422956   7.788901   7.629668   7.522042   0.6435919  7.736673   7.509561   61.76066   336.6147   311.854    23.38524  
308.5376   286.1068   0          7.803924   7.890217   7.623155   7.815038   7.658889   7.698527   0.6419396  7.852627   7.64676    59.3145    334.4791   311.8214   25.52091  
308.69     284.7936   0          7.80472    7.868453   7.880415   7.822469   7.669837   7.753496   0.6637148  7.84546    7.669837   61.05002   337.391    307.4022   22.60897  
308.8424   285.3501   0          7.684259   7.735692   7.891981   7.768483   7.555841   7.663516   0.636179   7.78812    7.555841   64.60207   340.8506   304.0624   19.14938  
308.9948   285.7516   0          7.657318   7.670265   7.840705   7.71658    7.427831   7.693535   0.6738147  7.749012   7.427831   67.2728    341.8914   303.6338   18.10857  
309.1472   285.6985   0          7.679009   7.677826   7.808605   7.746143   7.547373   7.700075   0.7001621  7.743807   7.547373   68.83546   344.0213   301.6772   15.97871  
309.2996   285.7942   0          7.51947    7.696518   7.858472   7.74637    7.544394   7.676688   0.7011034  7.721499   7.544394   70.846     342.9603   302.6992   17.03974  
309.452    285.4771   0          7.690161   7.669728   7.798214   7.746683   7.541078   7.619421   0.6978456  7.744188   7.541078   71.64244   343.8497   301.3082   16.15032  
309.6044   284.7784   0          7.618687   7.644419   7.802128   7.740671   7.574153   7.617305   0.7004629  7.710407   7.574153   70.96964   344.9993   299.7791   15.00066  
309.7568   284.392    0          7.612681   7.637852   7.784412   7.713142   7.516998   7.653075   0.677087   7.698547   7.516998   70.06195   344.2886   300.1198   15.71138  
309.9092   283.4674   0          7.707829   7.67144    7.609976   7.664118   7.443518   7.678      0.6753427  7.678      7.443518   69.99142   344.5039   299.1842   15.49608  
310.0616   282.5674   0          7.661355   7.672544   7.540509   7.679087   7.449141   7.6552     0.6771713  7.676322   7.449141   70.46394   343.8773   298.6901   16.12272  
310.214    282.6865   0          7.637843   7.651103   7.726934   7.713667   7.42909    7.590877   0.6713966  7.685454   7.42909    70.80696   343.8554   298.8311   16.14456  
310.3664   283.1283   0          7.711401   7.601738   7.78906    7.759068   7.426807   7.596358   0.6873805  7.75023    7.426807   70.37732   343.5078   299.2531   16.49214  
310.5188   283.0842   0          7.763122   7.613127   7.791437   7.777699   7.411217   7.603234   0.709585   7.777279   7.411217   70.01279   342.5787   300.4081   17.4213   
310.6712   282.8323   0          7.744377   7.578837   7.689066   7.736619   7.288519   7.582152   0.7176278  7.716722   7.288519   70.21082   339.7985   303.0338   20.20152  
310.8236   283.285    0          7.583144   7.603022   7.754375   7.645357   7.305814   7.621071   0.7178019  7.668759   7.305814   69.69075   335.1089   307.248    24.89111  
310.976    284.0457   0          7.537095   7.766525   7.787618   7.654232   7.447642   7.601328   0.7323484  7.719765   7.447642   68.45383   333.9247   309.1862   26.07534  
311.1284   283.8638   0          7.631431   7.711093   7.535601   7.701801   7.536843   7.576947   0.7471099  7.708707   7.531363   66.99358   337.8452   306.0186   22.15484  
311.2808   283.6196   0          7.650155   7.668527   7.839762   7.744078   7.549749   7.514811   0.7582202  7.744958   7.514811   65.55862   338.4465   305.383    21.55352  
311.4332   283.139    0          7.696743   7.664195   7.79216    7.746607   7.507246   7.622679   0.7366634  7.744452   7.507246   66.29049   340.3645   303.5752   19.63546  
311.5856   283.0917   0          7.660783   7.593879   7.690386   7.771277   7.449518   7.57993    0.7397794  7.687971   7.449518   69.27154   341.1116   301.98     18.88835  
311.738    282.9093   0          7.625691   7.556188   7.598882   7.774923   7.408564   7.508193   0.7696357  7.665555   7.408564   70.68273   341.4756   301.4336   18.52434  
311.8904   282.1593   0          7.678817   7.528355   7.171813   7.774662   7.28862    7.443429   0.8103195  7.651509   7.28862    69.3929    342.5455   300.7141   17.45448  
312.0428   281.937    0          7.69492    7.484922   7.17733    7.775477   7.560425   7.488916   0.8573937  7.6302     7.436125   66.78831   341.1234   300.899    18.87665  
312.1952   281.8832   0          7.577906   7.542559   7.248371   7.752538   7.657188   7.543818   0.8485162  7.658216   7.413139   65.5752    338.2284   303.6548   21.77157  
312.3476   281.6432   0          7.619006   7.618528   7.607948   7.721035   7.629179   7.565244   0.8181342  7.669781   7.565244   68.01468   338.3959   303.2216   21.60411  
312.5      281.4339   0          7.665605   7.630656   7.560247   7.773801   7.594429   7.561974   0.8174444  7.702229   7.561974   70.61823   338.785    302.6379   21.21498  
312.6524   280.7634   0          7.648212   7.562453   7.598446   7.913932   7.68728    7.634427   0.8217911  7.756971   7.61086    72.34371   338.2836   302.4799   21.7164   
312.8048   279.395    0          7.725516   7.611452   7.787418   7.745887   7.748503   7.618596   0.8029214  7.759298   7.618596   74.27417   335.1926   304.0712   24.80745  
312.9572   278.6884   0          7.692315   7.626652   7.460161   7.708238   7.665713   7.486385   0.8079824  7.706641   7.486385   75.88332   333.0817   305.3495   26.91828  
313.1096   278.7643   0          7.506698   7.528269   7.356337   7.785976   7.555106   7.420151   0.8272657  7.657123   7.410779   78.20135   334.1013   304.6629   25.89864  
313.262    278.8148   0          7.527858   7.360811   7.208349   7.739576   7.307911   7.371531   0.8267472  7.550193   7.296447   80.87505   335.1134   303.7115   24.8866   
313.4144   278.8405   0          7.138505   7.42242    6.772157   7.701843   7.185341   7.325417   0.8409633  7.562131   6.955331   83.2343    335.5989   303.329    24.40105  
313.5668   278.9351   0          7.002937   7.305418   6.644403   7.617455   7.040519   7.174705   0.8478842  7.461437   6.82367    85.80451   336.1013   302.8338   23.8987   
313.7192   279.3445   0          6.978137   7.351231   6.577996   7.431654   7.007615   7.130826   0.8265773  7.391443   6.778066   87.70087   334.6479   304.6966   25.35211  
313.8716   279.555    0          6.977566   7.319936   6.535046   7.287507   6.935165   7.107658   0.8507164  7.303721   6.756306   89.2756    334.9416   305.5348   25.05845  
314.024    279.541    0          6.863945   7.269509   6.579221   7.12664    6.870643   7.121124   0.8778647  7.198075   6.720812   90.93444   333.1543   306.5937   26.84567  
314.1764   279.3911   0          6.815728   7.318947   6.821401   7.138816   6.797162   7.11118    0.8717024  7.228881   6.797162   92.75049   330.6901   308.701    29.30989  
