~Version
 VERS              .         2.0                           : CWLS LOG ASCII STANDARD - VERSION 2.0
 WRAP              .         NO                            : ONE LINE PER DEPTH STEP
 DLM               .         SPACE                         : DELIMITING CHARACTER(SPACE TAB OR COMMA)
~Well Information
#_______________________________________________________________________________
#
#PARAMETER_NAME    .UNIT     VALUE                         : DESCRIPTION
#_______________________________________________________________________________
STRT               .m        160.1                         : First reference value
STOP               .m        414.1508                      : Last reference value
STEP               .m        0.1524                        : Step increment
NULL               .         -9999                         : Missing value
COMP               .                                       : Company
WELL               .         H                             : Well name
FLD                .                                       : Field
LOC                .                                       : Location
CNTY               .                                       : County
STAT               .                                       : State
CTRY               .                                       : Country
SRVC               .                                       : Service Company
DATE               .                                       : Date
API                .                                       : API number
~Parameter Information Block
#_______________________________________________________________________________
#
#PARAMETER_NAME    .UNIT     VALUE                         : DESCRIPTION
#_______________________________________________________________________________
SET                .         Inclination                   : 
TLFamily_AZI       .         Hole Azimuth                  : 
TLFamily_AZ_OF_P1  .                                       : 
TLFamily_CAL2      .         Caliper 2                     : 
TLFamily_CAL4      .         Caliper                       : 
TLFamily_CAL6      .         Caliper                       : 
TLFamily_CAL8      .         Caliper                       : 
TLFamily_CALX      .         Caliper 1                     : 
TLFamily_CALY      .         Caliper 2                     : 
TLFamily_DEV       .         Hole Deviation                : 
TLFamily_DMAX      .         Caliper                       : 
TLFamily_DMIN      .         Caliper                       : 
TLFamily_GR        .         Gamma Ray                     : 
TLFamily_HAZI      .         Hole Azimuth                  : 
TLFamily_MD        .         Measured Depth                : 
TLFamily_RB_OF_P1  .         Relative Bearing              : 
TLFamily_ROT       .         Relative Bearing              : 
~Curve Information
#_______________________________________________________________________________
#
#LOGNAME           .UNIT     LOG_ID                        : DESCRIPTION
#_______________________________________________________________________________
MD                 .m                                      :  
AZ_OF_P1           .deg                                    : Unrecognised 
AZI                .deg                                    : AZIMUTH OF FIRST PIXEL OF IMAGE ARRAY 
CAL2               .in                                     : Caliper 
CAL4               .in                                     : Caliper 
CAL6               .in                                     : Caliper 
CAL8               .in                                     : Caliper 
CALX               .in                                     : Caliper 
CALY               .in                                     : Caliper 
DEV                .deg                                    : Deviation 
DMAX               .in                                     : Caliper 
DMIN               .in                                     : Caliper 
GR                 .gAPI                                   : Gamma Ray 
HAZI               .deg                                    : HOLE AZIMUTH 
RB_OF_P1           .deg                                    : Unrecognised 
ROT                .deg                                    : RELATIVE BEARING OF FIRST PIXEL OF IMAGE ARRAY 
~Ascii
# ...
209.1728   353.736    0          7.778501   7.456313   7.831504   7.894495   7.750162   7.76207    1.012559   7.805003   7.675404   95.71462   342.78     10.95605   17.22002  
209.3252   353.9681   0          7.799853   7.409504   7.783169   7.866867   7.728126   7.726107   1.028431   7.791511   7.638186   93.49675   342.306    11.44756   17.69403  
209.4776   354.2211   0          7.808946   7.31965    7.732891   7.753983   7.720743   7.645888   1.044023   7.770919   7.536816   93.22787   341.2089   12.80778   18.79106  
209.63     354.4357   0          7.829347   7.421475   7.700585   7.725328   7.726722   7.646143   1.038794   7.764966   7.573402   96.39281   341.0529   13.38277   18.94712  
209.7824   354.8325   0          7.795202   7.401497   7.682005   7.732993   7.725124   7.641577   1.020561   7.738604   7.567245   100.0407   340.2369   14.62861   19.76313  
209.9348   355.3903   0          7.786431   7.40302    7.680671   7.727417   7.718399   7.672101   1.031195   7.733551   7.565219   100.5294   340.6256   14.88488   19.37439  
210.0872   355.897    0          7.769074   7.42943    7.67468    7.722404   7.710282   7.679822   1.031221   7.721877   7.575917   98.55975   341.2894   14.6076    18.71058  
210.2396   355.9312   0          7.770913   7.447082   7.705659   7.740771   7.707356   7.742158   1.006972   7.748874   7.593926   93.93037   342.0294   13.90187   17.97064  
210.392    355.9512   0          7.763667   7.438451   7.725921   7.753528   7.704477   7.770529   1.005601   7.770529   7.59599    89.88622   342.5742   13.65511   17.42585  
210.5444   356.1599   0          7.759712   7.40413    7.744464   7.754653   7.701878   7.761952   1.010071   7.76311    7.579391   89.53079   342.5977   13.58028   17.40229  
210.6968   356.1923   0          7.774072   7.408279   7.795085   7.754383   7.694853   7.747114   0.9885141  7.784578   7.581331   88.49647   342.4448   13.74751   17.55518  
210.8492   356.1906   0          7.797843   7.448566   7.771709   7.755876   7.701169   7.7433     0.993494   7.784776   7.602221   86.51222   342.4225   13.5185    17.57753  
211.0016   356.1367   0          7.834271   7.400784   7.73766    7.759338   7.705997   7.783474   1.002785   7.785966   7.580061   83.90739   342.611    13.42338   17.38905  
211.154    356.0424   0          7.823535   7.389057   7.757871   7.765286   7.706155   7.774579   0.9987751  7.790703   7.577172   82.92482   343.8662   12.17622   16.1338   
211.3064   355.9841   0          7.863585   7.434484   7.773872   7.774358   7.737106   7.792597   0.9989606  7.818729   7.604421   85.3784    343.2302   12.88267   16.76976  
211.4588   355.6139   0          7.873058   7.475539   7.837815   7.800687   7.732349   7.836147   1.015935   7.855437   7.638113   86.60995   343.5643   12.28765   16.43567  
211.6112   355.1357   0          7.858265   7.508648   7.833523   7.810448   7.721768   7.81705    1.024564   7.845894   7.659548   85.22921   343.36     11.77576   16.64001  
211.7636   355.1472   0          7.883932   7.495689   7.741009   7.827866   7.751259   7.834948   1.055625   7.843729   7.661777   80.9073    343.0223   12.06131   16.9777   
211.916    355.434    0          7.867695   7.457052   7.710716   7.769087   7.748003   7.823926   1.068742   7.823926   7.61307    74.84546   343.2583   11.67916   16.74168  
212.0684   355.6441   0          7.893437   7.413072   7.68168    7.767695   7.746167   7.833916   1.043648   7.833916   7.590384   68.86974   344.4254   11.21868   15.5746   
212.2208   355.8703   0          7.899981   7.489676   7.668531   7.751864   7.749302   7.84016    1.048649   7.84016    7.62077    62.10338   345.0606   10.80966   14.93938  
212.3732   355.9521   0          7.873437   7.415778   7.647137   7.769054   7.75293    7.826002   1.019676   7.826002   7.592416   55.01506   345.5919   10.62405   14.40806  
212.5256   356.1301   0          7.899277   7.346425   7.67027    7.765937   7.783793   7.815752   1.010764   7.815752   7.556181   48.79704   344.4114   11.7747    15.58856  
212.678    356.2849   0          7.927128   7.418526   7.700262   7.690569   7.761562   7.812811   1.024399   7.816684   7.554548   44.03035   345.2415   11.04346   14.75852  
212.8304   356.4117   0          7.886025   7.522576   7.751774   7.689503   7.723439   7.865304   0.9986806  7.865304   7.60604    41.36273   346.1323   10.48768   13.86766  
212.9828   356.5275   0          7.800144   7.491537   7.810344   7.720575   7.70631    7.877336   0.9766169  7.877336   7.606056   40.44868   347.7864   8.906542   12.21355  
213.1352   356.6228   0          7.753202   7.591983   7.806172   7.744194   7.702465   7.872514   0.9606968  7.872514   7.668088   40.57112   349.0565   7.566261   10.94345  
213.2876   356.6406   0          7.754698   7.533751   7.840741   7.749801   7.704308   7.870401   0.9466733  7.870401   7.641776   42.16706   348.2313   8.127711   11.76867  
213.44     356.9629   0          7.744078   7.53089    7.857596   7.748581   7.70067    7.854319   0.9490613  7.854319   7.639736   44.46875   346.8605   9.2104     13.13946  
213.5924   357.1236   0          7.758427   7.52763    7.854626   7.736913   7.687463   7.767253   0.9150036  7.808709   7.632271   46.2842    346.9514   10.17222   13.04861  
213.7448   357.2523   0          7.772673   7.557321   7.854808   7.724661   7.675961   7.781007   0.9017986  7.813741   7.640991   47.38597   345.0066   12.2457    14.99338  
213.8972   357.0836   0          7.761691   7.471341   7.864061   7.724527   7.660721   7.771896   0.8945621  7.812876   7.597934   47.53537   344.5981   12.37948   15.40196  
214.0496   356.8505   0          7.778771   7.434588   7.85707    7.721639   7.667952   7.764321   0.8627416  7.817921   7.578114   47.19553   344.8544   11.99371   15.14563  
214.202    356.7123   0          7.779525   7.485494   7.860583   7.727201   7.680472   7.748675   0.8687121  7.820054   7.606348   47.52532   343.8548   12.85754   16.14523  
214.3544   356.4297   0          7.772532   7.467676   7.867716   7.704331   7.684783   7.739539   0.8769764  7.820124   7.586004   47.87749   344.3567   11.86701   15.64329  
214.5068   356.3261   0          7.786226   7.454276   7.861175   7.670653   7.666617   7.713173   0.891934   7.8237     7.562465   49.20497   343.7084   12.54337   16.29156  
214.6592   355.8402   0          7.767314   7.437989   7.86705    7.689207   7.64402    7.733078   0.8736432  7.817182   7.563598   51.93589   343.5932   12.24696   16.40676  
214.8116   355.692    0          7.752891   7.419819   7.860976   7.687923   7.627046   7.756006   0.886152   7.806933   7.553871   54.48775   341.9102   13.71835   18.08977  
214.964    355.6108   0          7.758006   7.177283   7.856857   7.681724   7.627571   7.748711   0.8717219  7.807431   7.429503   55.21316   343.1164   12.39709   16.88358  
215.1164   355.6472   0          7.750621   7.304896   7.833587   7.679701   7.634814   7.737482   0.8797029  7.792104   7.492299   53.12904   342.6245   13.02264   17.37544  
215.2688   355.2672   0          7.767419   7.465973   7.808703   7.680608   7.620288   7.758347   0.8843285  7.788061   7.57329    50.09931   344.4044   10.91834   15.59557  
215.4212   354.8564   0          7.767718   7.515438   7.847257   7.67996    7.619754   7.75978    0.8848107  7.807488   7.597699   48.07442   345.322    9.863535   14.678    
215.5736   354.8997   0          7.751035   7.501422   7.851418   7.690584   7.620934   7.764511   0.8875672  7.801226   7.596003   47.87909   345.5711   9.328608   14.42891  
215.726    354.9263   0          7.747288   7.49785    7.841315   7.702132   7.620617   7.763896   0.8592772  7.794302   7.599991   48.05621   345.1964   9.729856   14.80358  
215.8784   355.0342   0          7.752696   7.488409   7.827169   7.702048   7.615472   7.765553   0.8335651  7.789933   7.595228   48.19236   344.0799   11.25347   15.92014  
216.0308   355.1036   0          7.753961   7.488726   7.816543   7.701429   7.603916   7.762033   0.8298833  7.785252   7.595078   48.36255   343.045    12.10998   16.95498  
