~Version
 VERS              .         2.0                           : CWLS LOG ASCII STANDARD - VERSION 2.0
 WRAP              .         NO                            : ONE LINE PER DEPTH STEP
 DLM               .         SPACE                         : DELIMITING CHARACTER(SPACE TAB OR COMMA)
~Well Information
#_______________________________________________________________________________
#
#PARAMETER_NAME    .UNIT     VALUE                         : DESCRIPTION
#_______________________________________________________________________________
STRT               .m        160.1                         : First reference value
STOP               .m        414.1508                      : Last reference value
STEP               .m        0.1524                        : Step increment
NULL               .         -9999                         : Missing value
COMP               .                                       : Company
WELL               .         H                             : Well name
FLD                .                                       : Field
LOC                .                                       : Location
CNTY               .                                       : County
STAT               .                                       : State
CTRY               .                                       : Country
SRVC               .                                       : Service Company
DATE               .                                       : Date
API                .                                       : API number
~Parameter Information Block
#_______________________________________________________________________________
#
#PARAMETER_NAME    .UNIT     VALUE                         : DESCRIPTION
#_______________________________________________________________________________
SET                .         Inclination                   : 
TLFamily_AZI       .         Hole Azimuth                  : 
TLFamily_AZ_OF_P1  .                                       : 
TLFamily_CAL2      .         Caliper 2                     : 
TLFamily_CAL4      .         Caliper                       : 
TLFamily_CAL6      .         Caliper                       : 
TLFamily_CAL8      .         Caliper                       : 
TLFamily_CALX      .         Caliper 1                     : 
TLFamily_CALY      .         Caliper 2                     : 
TLFamily_DEV       .         Hole Deviation                : 
TLFamily_DMAX      .         Caliper                       : 
TLFamily_DMIN      .         Caliper                       : 
TLFamily_GR        .         Gamma Ray                     : 
TLFamily_HAZI      .         Hole Azimuth                  : 
TLFamily_MD        .         Measured Depth                : 
TLFamily_RB_OF_P1  .         Relative Bearing              : 
TLFamily_ROT       .         Relative Bearing              : 
~Curve Information
#_______________________________________________________________________________
#
#LOGNAME           .UNIT     LOG_ID                        : DESCRIPTION
#_______________________________________________________________________________
MD                 .m                                      :  
AZ_OF_P1           .deg                                    : Unrecognised 
AZI                .deg                                    : AZIMUTH OF FIRST PIXEL OF IMAGE ARRAY 
CAL2               .in                                     : Caliper 
CAL4               .in                                     : Caliper 
CAL6               .in                                     : Caliper 
CAL8               .in                                     : Caliper 
CALX               .in                                     : Caliper 
CALY               .in                                     : Caliper 
DEV                .deg                                    : Deviation 
DMAX               .in                                     : Caliper 
DMIN               .in                                     : Caliper 
GR                 .gAPI                                   : Gamma Ray 
HAZI               .deg                                    : HOLE AZIMUTH 
RB_OF_P1           .deg                                    : Unrecognised 
ROT                .deg                                    : RELATIVE BEARING OF FIRST PIXEL OF IMAGE ARRAY 
~Ascii
# ...
356.3912   291.2803   0          6.290475   6.100986   6.352747   6.212423   6.218305   6.218609   0.919287   6.321611   6.156704   48.50448   331.7898   319.5916   28.21024  
356.5436   291.1927   0          6.314625   6.105271   6.296936   6.048749   6.238784   6.259445   0.9309064  6.30578    6.07701    51.60223   332.0072   319.1927   27.99283  
356.696    290.9194   0          6.341341   6.101561   6.24996    6.243127   6.229863   6.245143   0.9285381  6.29565    6.172344   51.14093   331.7555   319.1639   28.24448  
356.8484   290.8838   0          6.351103   6.069437   6.273548   6.205894   6.183605   6.264085   0.9330211  6.312325   6.137666   46.57861   330.9576   319.8711   29.04235  
357.0008   290.9748   0          6.264767   6.056692   6.382493   6.165679   6.085976   6.262557   0.9555047  6.32363    6.085756   40.89504   330.0822   320.8697   29.91784  
357.1532   291.1498   0          6.235945   6.0911     6.349207   6.020208   6.067105   6.264191   0.9691802  6.292576   6.054238   37.12099   331.3452   319.8046   28.65483  
357.3056   291.4243   0          6.202731   6.238867   6.258991   6.083413   6.076684   6.279385   0.966997   6.279385   6.076684   34.76135   330.7991   320.2637   29.20094  
357.458    291.5363   0          6.215997   6.200068   6.272052   6.089141   6.109776   6.232399   0.9739074  6.245938   6.109776   34.01997   330.8712   319.977    29.12882  
357.6104   291.6814   0          6.18774    6.246819   6.30002    6.101963   6.147068   6.236819   0.9823413  6.248082   6.137685   34.02308   332.1142   319.5672   27.88579  
357.7628   291.7099   0          6.123889   6.376035   6.264364   6.007319   6.23684    6.084857   0.9592353  6.241427   6.084857   35.51598   333.4612   318.3615   26.53885  
357.9152   291.9798   0          6.114871   6.262656   6.261569   5.996174   6.198243   6.09555    0.9407349  6.198243   6.093685   38.39848   335.9077   316.9979   24.09227  
358.0676   292.6575   0          5.935053   6.183548   6.343729   5.898665   6.154205   6.133977   0.8889281  6.154205   6.036976   41.82714   336.3086   316.3488   23.69138  
358.22     293.2545   0          6.075052   6.196765   6.298722   5.832047   6.121264   6.160995   0.8612767  6.189342   5.993617   45.38937   335.5496   317.705    24.45043  
358.3724   293.6694   0          6.152054   6.217942   6.256438   6.209694   6.089019   6.184578   0.8445926  6.213819   6.089019   48.82848   334.2732   319.4067   25.72681  
358.5248   293.9738   0          6.209787   6.22058    6.203062   6.231346   6.06943    6.182473   0.8670647  6.225963   6.06943    53.15434   334.384    319.5921   25.61604  
358.6772   294.0591   0          6.169691   6.270424   6.229183   6.219213   6.062811   6.197601   0.8627183  6.244818   6.062811   56.87116   332.8009   321.2582   27.19907  
358.8296   293.851    0          6.18249    6.198671   6.191903   6.197058   6.009372   6.204343   0.8604118  6.224646   6.009372   55.63379   332.5283   321.7764   27.47172  
358.982    294.0567   0          6.126923   6.016291   6.251833   6.125454   6.027076   6.180041   0.9083671  6.189378   6.027076   48.50699   332.3262   322.101    27.67376  
359.1344   294.2672   0          6.108477   6.021059   6.270446   6.108181   6.049345   6.16296    0.9387308  6.189461   6.049345   38.26206   332.1185   322.1486   27.88146  
359.2868   294.3102   0          6.145601   6.042619   6.268714   6.118444   6.047953   6.14181    0.9218689  6.207158   6.047953   30.60744   333.6235   320.8048   26.37649  
359.4392   294.4869   0          6.103378   6.071514   6.260518   6.163346   6.121511   6.159055   0.9087035  6.195538   6.091464   29.37406   333.8796   320.9892   26.12043  
359.5916   295.2781   0          6.157053   6.186594   6.223094   6.156395   6.217539   6.170722   0.9056609  6.217539   6.168589   32.08988   333.9627   321.3154   26.03733  
359.744    296.0052   0          6.082054   6.216558   6.233214   6.125412   6.151329   6.153367   0.8997318  6.17401    6.147894   36.02865   336.8118   319.1935   23.18824  
359.8964   297.0751   0          6.089277   6.344345   6.15402    6.014468   6.073828   6.121582   0.8837107  6.179654   6.073546   36.89382   336.4094   319.9464   23.59064  
360.0488   297.1669   0          6.229874   6.285503   6.131743   5.935468   6.06495    6.053535   0.9279931  6.180809   6.023887   32.81496   336.6379   320.5079   23.36212  
360.2012   296.6789   0          5.99469    6.1562     6.329899   5.935961   6.144755   6.027349   0.9608307  6.162294   6.027349   26.72664   337.4413   319.2375   22.55865  
360.3536   297.1099   0          6.060798   6.135731   6.387261   6.25231    6.144417   6.157011   0.9485505  6.22403    6.141706   23.11932   338.0934   318.8661   21.9066   
360.506    297.7651   0          6.132403   6.242234   6.351742   6.092163   6.141745   6.123609   0.9218659  6.242073   6.123609   23.60528   336.8634   320.8465   23.13663  
360.6584   297.854    0          6.112573   6.201179   6.411754   6.095265   6.174281   6.1519     0.9037452  6.262163   6.144487   26.19998   336.1369   321.7171   23.8631   
360.8108   297.4446   0          6.171351   6.210239   6.338846   6.060534   6.157404   6.154428   0.8732313  6.255098   6.135353   27.37629   338.8492   318.9673   21.15078  
360.9632   297.5202   0          6.139197   6.225982   6.296935   5.985816   6.113943   6.124019   0.8804309  6.218066   6.105783   26.26977   338.5141   319.593    21.48594  
361.1156   297.3703   0          6.127773   6.11173    6.259107   6.010572   6.122777   6.113554   0.8861428  6.19344    6.061151   24.6826    338.2988   319.0714   21.70116  
361.268    297.1194   0          6.150558   6.114639   6.266452   6.02633    6.139677   6.10092    0.89692    6.208505   6.070484   23.77408   338.1782   319.0183   21.82182  
361.4204   297.2869   0          6.160517   6.203138   6.210369   5.925644   6.17574    6.088429   0.8926921  6.185443   6.064391   23.22819   339.4905   318.2708   20.50953  
361.5728   297.6773   0          6.090054   6.182115   6.321548   5.925644   6.18257    6.106678   0.8962675  6.205801   6.05388    22.74622   339.4231   318.2542   20.57692  
361.7252   298.1512   0          6.094378   6.185742   6.305569   5.921362   6.121612   6.149196   0.8918703  6.199974   6.053552   25.80996   339.1507   319.0005   20.84931  
361.8776   298.2089   0          6.181538   6.17533    6.182622   6.053596   6.175127   6.137105   0.8659822  6.199543   6.114463   34.77131   337.4332   320.5226   22.56683  
362.03     298.1809   0          6.138997   6.18043    6.216579   6.184784   6.195974   6.162772   0.8994533  6.195974   6.16182    48.26525   335.4806   322.6552   24.5194   
362.1824   298.4557   0          6.256519   6.22095    6.233825   6.256625   6.238754   6.210312   0.9022882  6.250583   6.209754   59.9628    334.5727   323.8831   25.42735  
362.3348   298.5728   0          6.154591   6.240819   6.213186   6.275583   6.221975   6.226452   0.8903187  6.258201   6.183888   64.58579   334.9609   323.6923   25.03906  
362.4872   298.7225   0          6.19258    6.159882   6.18969    6.211918   6.201597   6.129789   0.8743086  6.202963   6.129425   65.67214   333.4693   325.308    26.53073  
362.6396   298.96     0          6.213217   6.198771   6.172133   6.205853   6.195382   6.113792   0.8934355  6.216502   6.113792   65.41422   333.4456   325.5144   26.55441  
362.792    299.1454   0          6.17131    6.090257   6.188811   5.843339   6.087523   6.029592   0.9216209  6.180061   5.963216   63.35188   334.4145   324.9704   25.58549  
362.9444   299.1544   0          6.12456    6.118658   6.239752   5.723715   6.065451   6.018808   0.9420452  6.182156   5.921186   57.85289   335.9945   323.8423   24.0055   
363.0968   298.9834   0          6.118661   6.180344   6.206697   5.8111     6.050075   5.991941   0.9445343  6.162679   5.988856   49.83986   335.5358   323.4476   24.46422  
363.2492   298.1779   0          6.005316   6.122601   6.362296   6.011897   6.090682   6.018863   0.9443362  6.183806   6.018863   43.72625   335.6303   322.5502   24.36968  
