~Version
 VERS              .         2.0                           : CWLS LOG ASCII STANDARD - VERSION 2.0
 WRAP              .         NO                            : ONE LINE PER DEPTH STEP
 DLM               .         SPACE                         : DELIMITING CHARACTER(SPACE TAB OR COMMA)
~Well Information
#_______________________________________________________________________________
#
#PARAMETER_NAME    .UNIT     VALUE                         : DESCRIPTION
#_______________________________________________________________________________
STRT               .m        160.1                         : First reference value
STOP               .m        414.1508                      : Last reference value
STEP               .m        0.1524                        : Step increment
NULL               .         -9999                         : Missing value
COMP               .                                       : Company
WELL               .         H                             : Well name
FLD                .                                       : Field
LOC                .                                       : Location
CNTY               .                                       : County
STAT               .                                       : State
CTRY               .                                       : Country
SRVC               .                                       : Service Company
DATE               .                                       : Date
API                .                                       : API number
~Parameter Information Block
#_______________________________________________________________________________
#
#PARAMETER_NAME    .UNIT     VALUE                         : DESCRIPTION
#_______________________________________________________________________________
SET                .         Inclination                   : 
TLFamily_AZI       .         Hole Azimuth                  : 
TLFamily_AZ_OF_P1  .                                       : 
TLFamily_CAL2      .         Caliper 2                     : 
TLFamily_CAL4      .         Caliper                       : 
TLFamily_CAL6      .         Caliper                       : 
TLFamily_CAL8      .         Caliper                       : 
TLFamily_CALX      .         Caliper 1                     : 
TLFamily_CALY      .         Caliper 2                     : 
TLFamily_DEV       .         Hole Deviation                : 
TLFamily_DMAX      .         Caliper                       : 
TLFamily_DMIN      .         Caliper                       : 
TLFamily_GR        .         Gamma Ray                     : 
TLFamily_HAZI      .         Hole Azimuth                  : 
TLFamily_MD        .         Measured Depth                : 
TLFamily_RB_OF_P1  .         Relative Bearing              : 
TLFamily_ROT       .         Relative Bearing              : 
~Curve Information
#_______________________________________________________________________________
#
#LOGNAME           .UNIT     LOG_ID                        : DESCRIPTION
#_______________________________________________________________________________
MD                 .m                                      :  
AZ_OF_P1           .deg                                    : Unrecognised 
AZI                .deg                                    : AZIMUTH OF FIRST PIXEL OF IMAGE ARRAY 
CAL2               .in                                     : Caliper 
CAL4               .in                                     : Caliper 
CAL6               .in                                     : Caliper 
CAL8               .in                                     : Caliper 
CALX               .in                                     : Caliper 
CALY               .in                                     : Caliper 
DEV                .deg                                    : Deviation 
DMAX               .in                                     : Caliper 
DMIN               .in                                     : Caliper 
GR                 .gAPI                                   : Gamma Ray 
HAZI               .deg                                    : HOLE AZIMUTH 
RB_OF_P1           .deg                                    : Unrecognised 
ROT                .deg                                    : RELATIVE BEARING OF FIRST PIXEL OF IMAGE ARRAY 
~Ascii
# ...
293.2976   287.0443   0          7.72258    7.557457   7.682115   7.680796   7.569674   7.733726   0.9075175  7.733726   7.569674   85.44617   340.5511   306.4453   19.44885  
293.45     287.3422   0          7.738302   7.570199   7.741607   7.715546   7.539299   7.742942   0.8862538  7.748899   7.539299   86.99084   339.6024   307.6207   20.39758  
293.6024   287.4635   0          7.823453   7.781643   7.793882   7.764669   7.492107   7.797973   0.8920966  7.8098     7.492107   90.20312   339.9102   307.5533   20.08977  
293.7548   287.6066   0          7.814733   7.693102   7.775228   7.787724   7.568976   7.836797   0.9081816  7.836797   7.568976   92.45474   339.0139   308.5613   20.98608  
293.9072   288.3646   0          7.753798   7.556001   7.798799   7.76785    7.693369   7.834477   0.944388   7.834477   7.661548   91.67971   338.1064   309.7211   21.89365  
294.0596   289.3664   0          7.881085   7.652908   7.720037   7.801866   7.695402   7.888723   0.926503   7.888723   7.695402   89.2476    339.0861   310.2803   20.91388  
294.212    289.4992   0          7.909352   7.577027   7.595219   7.769519   7.72401    7.882323   0.9334069  7.882323   7.673273   87.15787   338.7245   310.7747   21.27546  
294.3644   289.1042   0          7.886134   7.585047   7.716711   7.732858   7.737153   7.898967   0.9521785  7.898967   7.658953   86.51156   338.3668   311.0268   21.63323  
294.5168   289.0708   0          7.865473   7.652155   7.695187   7.730943   7.770502   7.88369    0.9729293  7.88369    7.691549   86.74607   337.8713   311.2808   22.12867  
294.6692   289.2967   0          7.777322   7.608963   7.612202   7.71846    7.667418   7.771097   0.97959    7.771097   7.663712   86.34417   336.6357   312.661    23.3643   
294.8216   289.3005   0          7.722322   7.557679   7.751175   7.7396     7.683042   7.782393   0.9659567  7.782393   7.648639   85.66489   337.6598   311.5026   22.34023  
294.974    289.3345   0          7.853882   7.785193   7.916753   7.794581   7.781879   7.831019   0.9581949  7.887794   7.754843   84.88266   338.9251   310.2603   21.07492  
295.1264   289.2755   0          7.862888   7.743027   7.786958   7.802146   7.762641   7.815532   0.9505801  7.84905    7.759028   83.83648   339.5062   309.7693   20.49376  
295.2788   289.472    0          7.808559   7.594363   7.481792   7.70829    7.659267   7.765149   0.9596732  7.765149   7.645175   84.22409   338.3376   311.0716   21.66241  
295.4312   289.8069   0          7.763649   7.609411   7.370916   7.646228   7.627094   7.759009   0.9617325  7.759009   7.567283   85.83636   338.673    310.879    21.32702  
295.5836   290.2737   0          7.754094   7.74472    7.324483   7.609251   7.627275   7.759696   0.9625438  7.759696   7.539288   86.59358   339.7282   310.5455   20.27176  
295.736    290.5119   0          7.761835   7.638044   7.22087    7.48866    7.435408   7.747517   0.9738087  7.747517   7.435408   88.05157   339.7069   310.805    20.2931   
295.8884   290.5417   0          7.659968   7.731925   7.089487   7.41561    7.322836   7.710243   0.9705221  7.710243   7.322836   91.386     338.4594   312.5976   21.54066  
296.0408   290.4688   0          7.62963    7.785512   7.135989   7.359104   7.380311   7.726268   0.9710127  7.726268   7.365339   94.93175   336.5554   313.9615   23.44462  
296.1932   290.6573   0          7.585394   7.794214   7.270714   7.348479   7.312752   7.774744   1.028432   7.774744   7.312752   96.64927   337.1349   313.5224   22.86515  
296.3456   291.1027   0          7.57271    7.762941   7.200448   7.333885   7.273336   7.748552   1.029188   7.748552   7.273336   95.40049   337.222    314.1125   22.77798  
296.498    291.3256   0          7.517694   7.738945   7.205732   7.241916   7.258174   7.722999   1.043376   7.722999   7.258174   94.21852   336.1673   315.265    23.83268  
296.6504   291.4042   0          7.49633    7.669211   7.239467   7.209449   7.249704   7.722142   1.060821   7.722142   7.249704   95.51736   336.2246   315.1796   23.7754   
296.8028   291.2118   0          7.492958   7.645652   7.311782   7.261792   7.277014   7.685245   1.050338   7.685245   7.277014   96.02407   337.2933   313.7189   22.70666  
296.9552   291.6019   0          7.501202   7.638905   7.396436   7.182562   7.309272   7.663369   1.032758   7.663369   7.309272   92.6982    336.1769   315.0041   23.82313  
297.1076   291.9168   0          7.41378    7.62067    7.53475    7.291381   7.346822   7.667653   1.016125   7.667653   7.346822   86.44012   336.7673   315.1495   23.23265  
297.26     291.3885   0          7.469105   7.652421   7.625519   7.369654   7.421705   7.758907   0.9783782  7.758907   7.421705   78.78798   335.9422   315.4604   24.05779  
297.4124   291.6669   0          7.471348   7.62936    7.662304   7.728404   7.48358    7.743346   0.9703598  7.743346   7.48358    71.65546   335.3056   316.5028   24.69436  
297.5648   291.8083   0          7.449161   7.629137   7.840898   7.69878    7.434128   7.702726   0.9392287  7.702726   7.434128   68.66196   333.5857   318.2226   26.41428  
297.7172   292.0385   0          7.505206   7.633928   7.585852   7.636013   7.382295   7.67832    0.919355   7.67832    7.382295   71.59305   331.9001   320.1384   28.09988  
297.8696   292.491    0          7.534328   7.60976    7.419703   7.576794   7.290924   7.62328    0.891598   7.62328    7.290924   79.48418   330.3049   321.3829   29.69512  
298.022    292.5737   0          7.551477   7.691791   7.537708   7.611035   7.315723   7.598672   0.8924074  7.651413   7.315723   86.83807   330.6823   321.6984   29.31768  
298.1744   292.522    0          7.544805   7.661767   7.742465   7.503327   7.5126     7.636378   0.9156233  7.648239   7.5126     91.11946   329.6516   322.8705   30.3484   
298.3268   292.5114   0          7.62962    7.65729    7.798553   7.526596   7.539701   7.661596   0.8931981  7.71797    7.539701   92.22974   329.4188   323.4175   30.58121  
298.4792   292.2865   0          7.703461   7.676233   7.809189   7.681544   7.549718   7.725219   0.8651814  7.759339   7.549718   91.375     329.5632   323.0159   30.43676  
298.6316   292.2286   0          7.717788   7.641996   7.813916   7.710338   7.627457   7.678905   0.8790261  7.765852   7.627457   91.59041   330.4591   321.7695   29.5409   
298.784    291.7851   0          7.785126   7.771029   7.807156   7.723672   7.626767   7.766495   0.8468064  7.796141   7.626767   92.16949   331.1566   320.5323   28.84336  
298.9364   291.4608   0          7.793424   7.848989   7.849654   7.858184   7.699498   7.79941    0.8641351  7.853587   7.699498   93.1997    332.1246   319.0013   27.87539  
299.0888   291.3044   0          7.74842    7.879188   7.780326   7.833127   7.674295   7.762272   0.8597563  7.856157   7.674295   94.40067   333.0266   318.2779   26.97342  
299.2412   291.6323   0          7.784936   7.879239   7.874971   7.839001   7.657077   7.80188    0.8514017  7.85912    7.657077   93.71081   332.3742   319.2581   27.62583  
299.3936   291.8964   0          7.762635   7.761137   7.834075   7.89769    7.640705   7.815074   0.8316213  7.829413   7.640705   92.49448   332.3351   319.3265   27.66495  
299.546    291.633    0          7.829272   7.733722   7.712836   7.80525    7.609343   7.789356   0.7967581  7.792524   7.609343   92.52997   333.3578   318.2629   26.64216  
299.6984   291.4405   0          7.76302    7.786064   7.666222   7.581088   7.48714    7.762364   0.8249981  7.762364   7.48714    94.35292   333.3949   318.0456   26.60513  
299.8508   291.5057   0          7.753064   7.764458   7.691749   7.601739   7.536537   7.745536   0.8341462  7.757987   7.536537   96.29875   332.3271   319.5133   27.67287  
300.0032   291.2861   0          7.760701   7.736773   7.653096   7.761271   7.627228   7.854851   0.8172795  7.854851   7.627228   94.6585    331.7422   319.6756   28.25785  
300.1556   290.9755   0          7.760657   7.704794   7.598266   7.675806   7.593407   7.817424   0.8056117  7.817424   7.593407   89.7501    330.7909   320.1845   29.20909  
