~Version
 VERS              .         2.0                           : CWLS LOG ASCII STANDARD - VERSION 2.0
 WRAP              .         NO                            : ONE LINE PER DEPTH STEP
 DLM               .         SPACE                         : DELIMITING CHARACTER(SPACE TAB OR COMMA)
~Well Information
#_______________________________________________________________________________
#
#PARAMETER_NAME    .UNIT     VALUE                         : DESCRIPTION
#_______________________________________________________________________________
STRT               .m        160.1                         : First reference value
STOP               .m        414.1508                      : Last reference value
STEP               .m        0.1524                        : Step increment
NULL               .         -9999                         : Missing value
COMP               .                                       : Company
WELL               .         H                             : Well name
FLD                .                                       : Field
LOC                .                                       : Location
CNTY               .                                       : County
STAT               .                                       : State
CTRY               .                                       : Country
SRVC               .                                       : Service Company
DATE               .                                       : Date
API                .                                       : API number
~Parameter Information Block
#_______________________________________________________________________________
#
#PARAMETER_NAME    .UNIT     VALUE                         : DESCRIPTION
#_______________________________________________________________________________
SET                .         Inclination                   : 
TLFamily_AZI       .         Hole Azimuth                  : 
TLFamily_AZ_OF_P1  .                                       : 
TLFamily_CAL2      .         Caliper 2                     : 
TLFamily_CAL4      .         Caliper                       : 
TLFamily_CAL6      .         Caliper                       : 
TLFamily_CAL8      .         Caliper                       : 
TLFamily_CALX      .         Caliper 1                     : 
TLFamily_CALY      .         Caliper 2                     : 
TLFamily_DEV       .         Hole Deviation                : 
TLFamily_DMAX      .         Caliper                       : 
TLFamily_DMIN      .         Caliper                       : 
TLFamily_GR        .         Gamma Ray                     : 
TLFamily_HAZI      .         Hole Azimuth                  : 
TLFamily_MD        .         Measured Depth                : 
TLFamily_RB_OF_P1  .         Relative Bearing              : 
TLFamily_ROT       .         Relative Bearing              : 
~Curve Information
#_______________________________________________________________________________
#
#LOGNAME           .UNIT     LOG_ID                        : DESCRIPTION
#_______________________________________________________________________________
MD                 .m                                      :  
AZ_OF_P1           .deg                                    : Unrecognised 
AZI                .deg                                    : AZIMUTH OF FIRST PIXEL OF IMAGE ARRAY 
CAL2               .in                                     : Caliper 
CAL4               .in                                     : Caliper 
CAL6               .in                                     : Caliper 
CAL8               .in                                     : Caliper 
CALX               .in                                     : Caliper 
CALY               .in                                     : Caliper 
DEV                .deg                                    : Deviation 
DMAX               .in                                     : Caliper 
DMIN               .in                                     : Caliper 
GR                 .gAPI                                   : Gamma Ray 
HAZI               .deg                                    : HOLE AZIMUTH 
RB_OF_P1           .deg                                    : Unrecognised 
ROT                .deg                                    : RELATIVE BEARING OF FIRST PIXEL OF IMAGE ARRAY 
~Ascii
160.1000   60.55568   0          7.820958   7.917767   7.913296   7.644426   7.600584   7.830356   1.467177   7.867126   7.600584   99.6747    338.3076   82.24806   21.69239  
160.2524   61.00673   0          7.580714   7.852715   7.781513   7.648529   7.478624   7.720298   1.471371   7.750622   7.478624   98.54046   338.6461   82.35856   21.35389  
160.4048   61.3576    0          7.420743   7.766132   7.679676   7.56717    7.475346   7.701575   1.48372    7.701575   7.475346   95.77087   339.1461   82.15981   20.85386  
160.5572   61.40163   0          7.344264   7.722327   7.644659   7.600142   7.459509   7.696249   1.478474   7.696249   7.459509   92.52699   339.8026   81.59907   20.19743  
160.7096   61.19907   0          7.373678   7.67739    7.361971   7.610983   7.465688   7.659925   1.436237   7.665146   7.367825   91.33506   340.6718   80.52721   19.32817  
160.862    61.16349   0          7.562195   7.805867   7.530228   7.694909   7.545072   7.712631   1.416865   7.750388   7.52598    90.96777   341.3815   79.43922   18.61845  
161.0144   60.98186   0          7.651445   7.854421   7.645311   7.577117   7.563903   7.658707   1.404963   7.715769   7.561458   88.31873   342.5066   78.37254   17.49344  
161.1668   60.79132   0          7.834403   7.902919   7.672237   7.686669   7.782493   7.771058   1.373193   7.797892   7.75332    84.31976   342.654    78.13731   17.34599  
161.3192   60.68355   0          7.934681   7.864196   7.899868   7.892687   7.937428   7.858551   1.36668    7.937428   7.858551   78.9715    342.2012   78.57549   17.79876  
161.4716   60.34985   0          7.92919    7.923268   7.636744   8.017849   7.945521   7.918637   1.418117   7.987297   7.761448   76.69667   342.7482   77.71103   17.2518   
161.624    59.7963    0          7.927254   8.04816    7.422514   7.852349   7.912621   7.863393   1.436481   7.950254   7.674884   79.07569   343.3478   76.44848   16.65219  
161.7764   59.23637   0          7.825795   8.083637   7.53673    7.875306   7.852155   7.735733   1.425366   7.979471   7.681262   84.88811   343.5938   75.66182   16.40615  
161.9288   58.85778   0          7.788415   7.897862   7.457596   7.980761   7.779155   7.634033   1.412905   7.939312   7.622701   92.21554   343.8382   75.10432   16.16184  
162.0812   58.23009   0          7.795208   7.795099   7.503122   7.986852   7.7908     7.633443   1.392185   7.890975   7.633443   96.08371   343.8655   74.36458   16.13452  
162.2336   57.77862   0          7.581167   7.833083   7.405969   7.659884   7.754812   7.494405   1.412455   7.763148   7.491868   97.02657   344.116    73.66261   15.88401  
162.386    57.35604   0          7.671868   7.942731   7.31882    7.566807   7.794926   7.495427   1.424093   7.794926   7.49437    95.80646   343.7119   73.43439   16.28807  
162.5384   56.64839   0          7.769588   7.958118   7.480927   7.767098   7.751661   7.821177   1.413406   7.875669   7.625257   92.32072   343.0257   73.59914   16.97435  
162.6908   56.0112    0          7.544601   7.903464   7.70816    8.111049   7.807066   7.79469    1.437077   8.007257   7.626381   88.29907   342.9792   73.03201   17.02082  
162.8432   55.83974   0          8.079549   7.953287   7.888061   8.061206   7.99839    7.806061   1.456515   8.044513   7.806061   83.70978   342.9535   72.77035   17.04651  
162.9956   55.80254   0          8.031348   7.863845   8.380342   8.172357   7.994545   7.895447   1.497388   8.205845   7.895447   80.03717   344.1227   71.6216    15.87736  
163.148    55.88954   0          8.037148   8.097222   8.073857   7.918372   7.910288   7.874112   1.535132   8.055504   7.861341   75.98144   343.7442   72.14535   16.25583  
163.3004   56.15717   0          7.929911   7.998636   8.124437   7.834359   7.808985   7.855085   1.540176   8.027174   7.808955   71.85017   343.3377   72.9769    16.66228  
163.4528   56.0521    0          7.987777   7.981081   7.948347   7.803613   7.800627   7.759087   1.517272   7.968062   7.759087   71.67596   342.9845   73.43081   17.01551  
163.6052   56.00289   0          8.046092   7.989626   7.627779   7.79117    7.805288   7.709921   1.492196   7.890398   7.709921   75.21838   342.0274   73.97552   17.97263  
163.7576   55.63526   0          7.959202   7.974757   7.629415   7.753548   7.777163   7.633231   1.481636   7.864152   7.633231   82.91949   342.5758   73.0976    17.42418  
163.91     55.07557   0          7.768342   7.986946   7.523791   7.73835    7.691726   7.57044    1.456848   7.862648   7.568125   89.35278   343.0253   72.52278   16.97473  
164.0624   54.48052   0          7.60447    7.846324   7.535417   7.793313   7.6252     7.650663   1.444422   7.819818   7.569943   90.40771   342.7577   71.72279   17.24228  
164.2148   53.76744   0          7.608748   7.861416   7.632698   7.9186     7.638385   7.701542   1.43299    7.890007   7.614944   87.28262   342.9959   70.77152   17.00408  
164.3672   53.15156   0          7.721192   7.907954   7.710302   7.889384   7.793343   7.697617   1.465756   7.898669   7.697617   82.23732   342.9888   70.03122   17.0112   
164.5196   52.72967   0          7.694326   7.941567   7.73811    7.874836   7.803805   7.729758   1.473104   7.908201   7.712724   79.04473   343.245    69.45064   16.75504  
164.672    52.70117   0          7.799316   7.964472   7.762587   7.851417   7.810298   7.741958   1.488933   7.907945   7.741958   78.73372   343.0543   69.64687   16.9457   
164.8244   52.49738   0          7.733246   7.973612   7.760447   7.825234   7.785746   7.725099   1.508054   7.899423   7.72432    81.10269   342.2596   70.42292   17.74042  
164.9768   51.85967   0          7.47475    7.948605   8.079319   7.636628   7.657214   7.544109   1.490926   7.811834   7.544109   84.81373   340.873    71.16798   19.12702  
165.1292   51.64729   0          7.466876   7.813963   7.761417   7.667066   7.605412   7.436593   1.468197   7.740515   7.436593   87.64904   339.7304   71.91685   20.26957  
165.2816   51.50594   0          7.51455    7.71697    7.763227   7.824738   7.616571   7.520093   1.463014   7.770854   7.520093   88.51183   339.3017   72.23497   20.6983   
165.434    51.62219   0          7.507756   7.718102   7.794841   7.842247   7.654266   7.558567   1.478398   7.780174   7.558567   88.79002   338.4914   73.24535   21.50865  
165.5864   51.94743   0          7.495552   7.751748   7.851312   7.805274   7.643751   7.622037   1.471722   7.778511   7.622037   89.65869   337.618    74.32941   22.38199  
165.7388   52.02873   0          7.482254   7.757879   7.796351   7.813034   7.562503   7.488185   1.465667   7.785456   7.488185   91.46075   337.4892   74.53951   22.51079  
165.8912   51.91264   0          7.60887    7.726541   7.750632   7.893399   7.683347   7.604412   1.446064   7.80997    7.604412   93.33288   337.7882   74.33907   22.21182  
166.0436   52.02732   0          7.616813   7.766983   7.630991   7.787962   7.609684   7.586936   1.444049   7.777472   7.586936   93.19793   336.663    75.37959   23.337    
166.196    52.36261   0          7.668745   7.661373   7.68996    7.909148   7.580119   7.533817   1.438862   7.785261   7.533817   91.65712   335.4125   76.95007   24.58748  
166.3484   52.2739    0          7.528202   7.679512   7.817745   7.871205   7.598641   7.563625   1.436909   7.775359   7.563625   89.87257   335.217    77.03173   24.78299  
166.5008   51.73147   0          7.32553    7.839268   7.719857   7.723224   7.532751   7.505422   1.468498   7.781246   7.504827   87.88485   334.4778   77.24313   25.52216  
166.6532   51.14833   0          7.472202   7.898018   7.563955   7.662657   7.501897   7.535845   1.479272   7.780338   7.471866   86.95717   334.7272   76.42109   25.27277  
166.8056   50.63852   0          7.692404   7.927544   7.512666   7.616572   7.519732   7.55847    1.472033   7.772058   7.519732   86.40605   334.9569   75.61115   25.04306  
166.958    50.39725   0          7.801303   7.958559   7.554814   7.56039    7.520734   7.558803   1.468958   7.759474   7.520734   86.63867   335.509    74.75423   24.49098  
