~Version
 VERS              .         2.0                           : CWLS LOG ASCII STANDARD - VERSION 2.0
 WRAP              .         NO                            : ONE LINE PER DEPTH STEP
 DLM               .         SPACE                         : DELIMITING CHARACTER(SPACE TAB OR COMMA)
~Well Information
#_______________________________________________________________________________
#
#PARAMETER_NAME    .UNIT     VALUE                         : DESCRIPTION
#_______________________________________________________________________________
STRT               .m        160.1                         : First reference value
STOP               .m        414.1508                      : Last reference value
STEP               .m        0.1524                        : Step increment
NULL               .         -9999                         : Missing value
COMP               .                                       : Company
WELL               .         H                             : Well name
FLD                .                                       : Field
LOC                .                                       : Location
CNTY               .                                       : County
STAT               .                                       : State
CTRY               .                                       : Country
SRVC               .                                       : Service Company
DATE               .                                       : Date
API                .                                       : API number
~Parameter Information Block
#_______________________________________________________________________________
#
#PARAMETER_NAME    .UNIT     VALUE                         : DESCRIPTION
#_______________________________________________________________________________
SET                .         Inclination                   : 
TLFamily_AZI       .         Hole Azimuth                  : 
TLFamily_AZ_OF_P1  .                                       : 
TLFamily_CAL2      .         Caliper 2                     : 
TLFamily_CAL4      .         Caliper                       : 
TLFamily_CAL6      .         Caliper                       : 
TLFamily_CAL8      .         Caliper                       : 
TLFamily_CALX      .         Caliper 1                     : 
TLFamily_CALY      .         Caliper 2                     : 
TLFamily_DEV       .         Hole Deviation                : 
TLFamily_DMAX      .         Caliper                       : 
TLFamily_DMIN      .         Caliper                       : 
TLFamily_GR        .         Gamma Ray                     : 
TLFamily_HAZI      .         Hole Azimuth                  : 
TLFamily_MD        .         Measured Depth                : 
TLFamily_RB_OF_P1  .         Relative Bearing              : 
TLFamily_ROT       .         Relative Bearing              : 
~Curve Information
#_______________________________________________________________________________
#
#LOGNAME           .UNIT     LOG_ID                        : DESCRIPTION
#_______________________________________________________________________________
MD                 .m                                      :  
AZ_OF_P1           .deg                                    : Unrecognised 
AZI                .deg                                    : AZIMUTH OF FIRST PIXEL OF IMAGE ARRAY 
CAL2               .in                                     : Caliper 
CAL4               .in                                     : Caliper 
CAL6               .in                                     : Caliper 
CAL8               .in                                     : Caliper 
CALX               .in                                     : Caliper 
CALY               .in                                     : Caliper 
DEV                .deg                                    : Deviation 
DMAX               .in                                     : Caliper 
DMIN               .in                                     : Caliper 
GR                 .gAPI                                   : Gamma Ray 
HAZI               .deg                                    : HOLE AZIMUTH 
RB_OF_P1           .deg                                    : Unrecognised 
ROT                .deg                                    : RELATIVE BEARING OF FIRST PIXEL OF IMAGE ARRAY 
~Ascii
# ...
321.3392   275.4085   0          6.872008   7.283807   7.017336   7.207141   7.003709   7.128723   0.7833619  7.245474   6.944672   92.58024   331.0862   304.4078   28.91381  
321.4916   275.5018   0          7.021588   7.272519   7.232253   7.223525   7.064576   7.123935   0.7735437  7.248022   7.058322   92.73579   330.9668   304.5848   29.03325  
321.644    275.7839   0          7.047211   7.248854   7.285926   7.170623   7.057629   7.051209   0.7709101  7.209739   7.045195   93.77637   331.6978   304.0861   28.30223  
321.7964   276.2408   0          7.073085   7.363568   7.259242   7.184275   7.076068   7.101048   0.7478529  7.273921   7.076068   94.29485   331.808    304.1625   28.19198  
321.9488   276.2481   0          7.102853   7.432277   7.171504   7.366993   7.090463   7.197607   0.7590246  7.399635   7.090463   92.65974   333.1415   302.4084   26.85848  
322.1012   275.9782   0          7.119975   7.365111   7.026847   7.284202   7.069694   7.190442   0.7646276  7.324656   7.068974   90.13095   334.5509   301.4273   25.44905  
322.2536   276.283    0          7.104088   7.259337   6.977809   7.260085   7.133539   7.197937   0.7890853  7.259711   7.040949   88.49693   330.8719   305.446    29.12813  
322.406    276.2359   0          7.118462   6.983848   6.903047   7.238498   7.125101   7.10563    0.7773165  7.131794   7.000035   89.86728   331.3488   305.5993   28.65119  
322.5584   275.9144   0          7.201021   6.738977   6.904379   7.270023   7.160376   7.118113   0.7728338  7.160376   6.978378   92.8515    331.7173   304.1971   28.28273  
322.7108   275.4005   0          7.253261   7.483817   6.802016   7.30857    7.136024   7.127673   0.7714252  7.396194   7.027638   93.1238    333.0744   302.3261   26.92558  
322.8632   275.1126   0          7.172107   7.790716   6.594866   7.311314   7.12594    7.351423   0.7797173  7.551015   6.883487   91.29923   332.1031   302.614    27.89694  
323.0156   275.0805   0          7.021324   7.687626   6.613361   7.240694   7.085486   7.343046   0.8012447  7.46416    6.817342   89.61182   331.1735   303.7922   28.8265   
323.168    274.8729   0          7.114244   7.336661   6.553377   7.218354   7.049456   7.275029   0.8139008  7.303449   6.83381    89.25413   330.1662   304.7066   29.83377  
323.3204   274.6993   0          7.145331   7.225495   6.539776   7.104425   7.067476   7.163653   0.8339819  7.18724    6.842554   89.69495   329.4627   305.1536   30.53731  
323.4728   274.8018   0          6.848794   7.209165   6.48909    6.872303   6.774669   6.948484   0.834103   7.040734   6.668942   89.32424   329.16     305.5483   30.83999  
323.6252   275.265    0          6.692554   7.215621   6.37637    6.751439   6.7342     6.873078   0.8343907  6.98353    6.534462   89.25451   327.1797   308.0853   32.82031  
323.7776   275.9341   0          6.846091   7.11984    6.366313   6.737472   6.982393   6.955003   0.8217686  7.004382   6.606202   90.39142   327.5119   308.3476   32.48814  
323.93     276.0872   0          6.913748   7.072498   6.324233   7.276408   7.196476   7.021146   0.819464   7.196476   6.61899    91.82935   327.8416   307.9309   32.15845  
324.0824   275.6185   0          6.893852   7.336259   6.304901   7.345066   7.220068   7.018812   0.8131657  7.343756   6.599377   93.25057   328.4195   307.199    31.58053  
324.2348   275.4355   0          7.467134   7.524555   6.304185   7.608957   7.322476   7.278184   0.8204272  7.566756   6.885659   94.63167   330.0819   305.3536   29.91812  
324.3872   275.0652   0          7.313013   7.438755   6.485497   7.358067   7.222348   7.454515   0.8510342  7.479044   6.899255   95.80898   332.6113   303.1158   27.38874  
324.5396   274.8437   0          6.94161    7.192652   6.419243   7.167167   7.050052   7.141089   0.8712816  7.179909   6.680427   95.29176   331.5203   303.3915   28.4797   
324.692    274.6707   0          6.773958   7.131782   6.290231   6.973234   7.019859   7.008563   0.8142934  7.052508   6.532094   93.5853    331.5467   303.1241   28.45332  
324.8444   274.5667   0          6.83952    7.014329   6.178452   6.565344   7.013518   6.996377   0.7835496  7.013518   6.508986   90.85058   331.0842   303.2737   28.91578  
324.9968   274.351    0          7.123739   7.159585   6.213839   7.13527    7.027019   7.10475    0.7571824  7.155202   6.668789   87.75155   331.4117   302.8389   28.58834  
325.1492   274.5948   0          6.840381   7.170964   6.41217    7.341051   7.075925   7.207048   0.7786422  7.265359   6.626276   86.80069   330.7682   303.8267   29.23185  
325.3016   274.4429   0          7.018986   7.233203   6.731309   7.387928   7.207526   7.14857    0.7894235  7.310565   6.875147   87.68518   330.1706   304.2642   29.82943  
325.454    274.163    0          7.103525   7.114098   6.493278   7.248999   7.132415   7.177342   0.7673541  7.195061   6.798401   90.26528   328.3115   305.8334   31.68849  
325.6064   274.5615   0          7.068012   7.166589   6.072139   7.231198   7.068506   7.185483   0.7597254  7.198894   6.570076   91.93166   328.0485   306.5129   31.95147  
325.7588   274.7747   0          7.044672   7.296286   6.286261   7.200083   7.022924   7.16264    0.7428318  7.248185   6.665466   90.33349   329.4692   305.2647   30.53077  
325.9112   275.0083   0          7.10313    7.272177   6.470088   7.183392   7.00433    7.168828   0.7442108  7.227785   6.786609   87.81474   330.4287   304.1289   29.57125  
326.0636   275.0943   0          7.066278   7.273528   7.040452   7.149827   6.953051   7.116997   0.7379689  7.211678   6.885962   86.76638   330.9057   304.1886   29.09432  
326.216    274.679    0          7.135689   7.249167   7.419821   7.125282   6.994332   7.106371   0.7494028  7.277755   6.994332   87.7062    328.9239   305.7551   31.07615  
326.3684   273.8998   0          7.140354   7.406101   7.457192   7.210684   7.084601   7.237467   0.7569097  7.351545   7.084601   88.35084   329.368    304.6695   30.632    
326.5208   273.7949   0          7.123478   7.317332   7.276874   7.233866   7.087945   7.222539   0.7545387  7.275599   7.087945   86.605     330.8511   302.9781   29.14888  
326.6732   273.7695   0          7.325393   7.589447   7.231951   6.583085   7.29921    7.392789   0.7257952  7.402688   7.023397   84.15942   332.3115   301.458    27.68852  
326.8256   273.8344   0          7.173842   7.424346   7.133374   4.927655   7.09459    7.199455   0.7275997  7.199455   6.176001   84.14477   332.6294   301.2923   27.37062  
326.978    273.896    0          7.327284   7.361204   7.399171   5.779972   7.225067   7.384305   0.728946   7.384305   6.570588   86.21771   334.21     299.7679   25.79     
327.1304   274.0832   0          7.411662   7.427918   7.562051   7.557081   7.403019   7.541306   0.7023252  7.546254   7.403019   87.41666   333.9882   300.095    26.0118   
327.2828   273.985    0          7.282022   7.538939   7.564157   7.652127   7.462059   7.627783   0.6704344  7.630582   7.415493   86.561     334.2778   299.4874   25.72222  
327.4352   274.0104   0          7.86354    7.941538   8.057489   7.796686   8.178839   7.820518   0.6666072  8.178839   7.778487   83.97134   333.1716   300.0475   26.82841  
327.5876   274.3066   0          7.779379   8.14254    7.834955   7.54132    8.039555   7.800318   0.6784438  8.039555   7.788332   80.09985   334.0866   300.22     25.91343  
327.74     275.4838   0          7.835439   7.710032   7.699214   7.561897   7.74102    7.784507   0.6704018  7.793257   7.635964   75.46387   332.2523   303.2315   27.74771  
327.8924   276.3978   0          7.458336   7.351205   7.822159   7.509622   7.561991   7.42443    0.6655923  7.640247   7.413239   71.49451   330.949    305.6353   29.05097  
328.0448   276.736    0          6.42599    6.478902   6.18932    6.390345   5.972729   6.12956    0.635047   6.447539   5.972729   71.50922   330.9724   305.7751   29.02758  
328.1972   276.9884   0          6.233088   6.029474   6.069876   6.170197   4.961496   5.934662   0.6367313  6.151482   4.961496   75.39102   336.5695   300.4189   23.43055  
