~Version
 VERS              .         2.0                           : CWLS LOG ASCII STANDARD - VERSION 2.0
 WRAP              .         NO                            : ONE LINE PER DEPTH STEP
 DLM               .         SPACE                         : DELIMITING CHARACTER(SPACE TAB OR COMMA)
~Well Information
#_______________________________________________________________________________
#
#PARAMETER_NAME    .UNIT     VALUE                         : DESCRIPTION
#_______________________________________________________________________________
STRT               .M        0                             : First reference value
STOP               .M        427.9                         : Last reference value
STEP               .M        0.1                           : Step increment
NULL               .         -9999                         : Missing value
COMP               .                                       : Company
WELL               .         H                             : Well name
FLD                .                                       : Field
LOC                .                                       : Location
CNTY               .                                       : County
STAT               .                                       : State
CTRY               .                                       : Country
SRVC               .                                       : Service Company
DATE               .                                       : Date
API                .                                       : API number
~Parameter Information Block
#_______________________________________________________________________________
#
#PARAMETER_NAME    .UNIT     VALUE                         : DESCRIPTION
#_______________________________________________________________________________
SET                .         Logs                          : 
TLFamily_DEPT      .         Measured Depth                : 
TLFamily_DT        .         Compressional Slowness        : 
TLFamily_GR        .         Gamma Ray                     : 
TLFamily_ILD       .         Resistivity - Deep            : 
TLFamily_NPOR_LIM  .         Thermal Neutron Porosity Limestone: 
TLFamily_PEF       .         Photoelectric Factor          : 
TLFamily_RHO       .         Bulk Density                  : 
~Curve Information
#_______________________________________________________________________________
#
#LOGNAME           .UNIT     LOG_ID                        : DESCRIPTION
#_______________________________________________________________________________
DEPT               .M                                      : Logged depth 
DT                 .us/m                                   : Compressional Slowness 
GR                 .GAPI                                   : MGS Gamma Ray 
ILD                .OHMM                                   : Array Ind. One Res 85 
NPOR_LIM           .V/V                                    : Lmst Neutron Por. (PEN) 
PEF                .B/E                                    : PE 
RHO                .K/M3                                   : Compensated Density 
~Ascii
# ...
136.1      -9999      61.506886  19635.824219 0.4380770027637482 12.622375  1857.038818
136.2      -9999      61.195084  19764.822266 0.4287930130958557 12.672029  1867.701538
136.3      -9999      60.452827  19908.804688 0.4207989871501923 12.629207  1875.710083
136.4      -9999      58.873299  20038.095703 0.4168570041656494 12.596704  1880.818481
136.5      -9999      60.238728  20126.195313 0.4154829978942871 12.575885  1881.753906
136.6      -9999      62.75172   20173.09375 0.4110310077667236 12.568903  1880.529053
136.7      -9999      65.106781  20196.640625 0.401854008436203 12.537821  1878.999634
136.8      -9999      65.843414  20208.492188 0.4107570052146912 12.50258   1878.10144
136.9      -9999      66.053253  20206.611328 0.4116140007972717 12.490582  1883.92334
137        -9999      65.877937  20200.134766 0.4071890115737915 12.446664  1890.001709
137.1      -9999      64.286514  20188.115234 0.3962239921092987 12.417199  1898.199219
137.2      -9999      63.041538  20175.521484 0.3913100063800812 12.364944  1903.728638
137.3      -9999      61.56802   20165.537109 0.3984009921550751 12.36402   1911.449219
137.4      -9999      61.38496   20153.626953 0.407696008682251 12.357644  1912.733765
137.5      -9999      60.190617  20144.878906 0.4142659902572632 12.379213  1915.521362
137.6      -9999      60.352184  20135.888672 0.4103539884090424 12.343271  1918.999634
137.7      -9999      59.745434  20140.056641 0.4108650088310242 12.315108  1925.816528
137.8      -9999      59.801437  20140.626953 0.411765992641449 12.283122  1926.966675
137.9      -9999      59.45475   20139.529297 0.4138849973678589 12.271333  1926.663696
138        -9999      59.115685  20124.240234 0.4105919897556305 12.250698  1924.972778
138.1      -9999      58.829288  20103.822266 0.4154579937458038 12.246188  1923.308472
138.2      -9999      59.017712  20074.953125 0.4209290146827698 12.222301  1917.257935
138.3      -9999      59.460163  20043.851563 0.415446013212204 12.22548   1914.525879
138.4      -9999      60.928047  20020.394531 0.4126920104026794 12.232028  1915.322876
138.5      -9999      61.820351  20006.84375 0.4081670045852661 12.28087   1917.840576
138.6      -9999      63.087822  20002.417969 0.4229609966278076 12.314535  1917.673218
138.7      -9999      63.134205  20002.083984 0.4283480048179626 12.348773  1918.581909
138.8      -9999      63.551136  20011.820313 0.4336830079555511 12.37592   1920.542969
138.9      -9999      62.414486  20024.302734 0.4207560122013092 12.371603  1921.261597
139        -9999      62.480103  20036.732422 0.4144890010356903 12.367555  1922.135986
139.1      -9999      61.875698  20040.902344 0.4160700142383575 12.288179  1922.963257
139.2      -9999      62.816444  20039.089844 0.4245010018348694 12.248471  1923.385376
139.3      -9999      63.218857  20030.429688 0.427372008562088 12.151065  1919.426636
139.4      -9999      63.853107  20013.882813 0.4284749925136566 12.159016  1916.651245
139.5      -9999      63.160557  19992.919922 0.4363229870796204 12.112858  1914.576416
139.6      -9999      61.556202  19976.589844 0.4361290037631989 12.140455  1915.063232
139.7      -9999      59.866436  19971.931641 0.4339840114116669 12.14215   1916.291138
139.8      -9999      58.180759  19979.525391 0.4285660088062286 12.212947  1918.221191
139.9      -9999      56.991367  20004.349609 0.4310249984264374 12.242108  1919.69165
140        -9999      56.55508   20041.859375 0.4340989887714386 12.326435  1921.678589
140.1      -9999      57.144863  20084.0625 0.4338099956512451 12.431295  1925.496582
140.2      -9999      58.712978  20117.867188 0.4313760101795197 12.494913  1929.97937
140.3      -9999      59.835693  20135.910156 0.430988997220993 12.476185  1931.608887
140.4      -9999      61.803143  20131.222656 0.4339340031147003 12.387669  1930.910889
140.5      -9999      62.656666  20114.083984 0.4415760040283203 12.286944  1926.609863
140.6      -9999      63.639053  20094.492188 0.4516550004482269 12.138151  1920.166016
140.7      -9999      63.037712  20075.681641 0.4541270136833191 12.047332  1912.929199
140.8      -9999      63.225346  20053.787109 0.4520489871501923 12.030294  1907.672485
140.9      -9999      62.744495  20034.044922 0.4568249881267548 12.155462  1905.007446
141        -9999      63.070923  20029.810547 0.4580790102481842 12.251685  1903.258545
141.1      -9999      62.78899   20036.625  0.4670490026473999 12.390446  1903.348022
141.2      -9999      62.597599  20048.583984 0.4653260111808777 12.440692  1904.070313
141.3      -9999      62.068325  20067.166016 0.4723730087280273 12.484629  1906.90686
141.4      -9999      61.809502  20087.5    0.4754250049591064 12.441638  1906.716187
141.5      -9999      62.002003  20096.623047 0.48335000872612 12.444064  1906.91394
141.6      -9999      62.805794  20082.34375 0.4838980138301849 12.423821  1904.306519
141.7      -9999      63.41238   20060.611328 0.4781140089035034 12.447011  1903.429077
141.8      -9999      63.714931  20039.628906 0.4692830145359039 12.43878   1901.130493
141.9      -9999      62.801853  20032.859375 0.4735609889030457 12.444554  1902.168701
142        -9999      61.447224  20035.193359 0.4883120059967041 12.444773  1902.497192
142.1      -9999      59.553768  20063.238281 0.4981360137462616 12.443286  1903.714111
142.2      -9999      58.796337  20107.011719 0.5010480284690857 12.459516  1904.598145
142.3      -9999      59.399097  20151.882813 0.5017179846763611 12.373935  1910.224243
142.4      -9999      61.521786  20174.693359 0.5005530118942261 12.237     1916.539551
142.5      -9999      63.228306  20162.048828 0.5044080018997192 12.135557  1922.589722
142.6      -9999      63.335388  20130.15625 0.4995689988136292 12.249921  1925.357178
142.7      -9999      61.884964  20099.300781 0.504243016242981 12.482067  1665.777954
142.8      -9999      58.804077  20067.96875 0.5092570185661316 12.841015  1373.056274
142.9      -9999      56.515911  20030.710938 0.5123580098152161 13.182733  1184.953247
143        -9999      55.0243    19975.283203 0.5058749914169312 13.416384  2308.162109
143.1      -9999      56.232231  19902.181641 0.5039989948272705 13.393223  2314.231689
143.2      -9999      57.340874  19801.826172 0.5104799866676331 13.159254  1646.102295
143.3      -9999      59.929218  19705.121094 0.521589994430542 12.894329  1885.498047
143.4      -9999      61.346516  19643.599609 0.5219519734382629 12.627152  2015.843018
143.5      -9999      63.324787  19631.347656 0.5223900079727173 12.459179  2004.922729
143.6      -9999      63.868675  19649.265625 0.5147600173950195 12.360951  1955.392334
143.7      -9999      65.99044000000001 19672.933594 0.5087959766387939 12.371782  1942.884033
143.8      -9999      66.792503  19693.662109 0.5053210258483887 12.358672  1949.873291
143.9      -9999      67.023048  19697.121094 0.5013759732246399 12.29073   1960.640991
144        -9999      65.666466  19703.867188 0.4893450140953064 12.175122  1965.528198
144.1      -9999      65.403175  19722.730469 0.4871399998664856 12.035327  1967.542358
144.2      -9999      64.759918  19765.921875 0.4929310083389282 11.965709  1967.282471
144.3      -9999      64.640213  19841.734375 0.4990279972553253 11.900009  1968.549927
144.4      -9999      64.518227  19931.183594 0.4878529906272888 11.89987   1972.233276
144.5      -9999      65.68531   20020.376953 0.4763129949569702 11.843324  1980.347412
144.6      -9999      66.82637800000001 20074.402344 0.4729700088500977 11.779616  1987.73999
144.7      -9999      66.85871899999999 20096.636719 0.4782429933547974 11.67637   1995.112793
144.8      -9999      66.130386  20072.181641 0.4861800074577332 11.652044  2000.638184
144.9      -9999      64.557816  20035.164063 0.4815160036087036 11.687215  2004.291748
145        -9999      63.374462  20003.478516 0.4693210124969482 11.778461  2004.369751
145.1      -9999      61.729801  20008.943359 0.4665260016918182 11.891096  2002.443115
