~Version
 VERS              .         2.0                           : CWLS LOG ASCII STANDARD - VERSION 2.0
 WRAP              .         NO                            : ONE LINE PER DEPTH STEP
 DLM               .         SPACE                         : DELIMITING CHARACTER(SPACE TAB OR COMMA)
~Well Information
#_______________________________________________________________________________
#
#PARAMETER_NAME    .UNIT     VALUE                         : DESCRIPTION
#_______________________________________________________________________________
STRT               .M        0                             : First reference value
STOP               .M        427.9                         : Last reference value
STEP               .M        0.1                           : Step increment
NULL               .         -9999                         : Missing value
COMP               .                                       : Company
WELL               .         H                             : Well name
FLD                .                                       : Field
LOC                .                                       : Location
CNTY               .                                       : County
STAT               .                                       : State
CTRY               .                                       : Country
SRVC               .                                       : Service Company
DATE               .                                       : Date
API                .                                       : API number
~Parameter Information Block
#_______________________________________________________________________________
#
#PARAMETER_NAME    .UNIT     VALUE                         : DESCRIPTION
#_______________________________________________________________________________
SET                .         Logs                          : 
TLFamily_DEPT      .         Measured Depth                : 
TLFamily_DT        .         Compressional Slowness        : 
TLFamily_GR        .         Gamma Ray                     : 
TLFamily_ILD       .         Resistivity - Deep            : 
TLFamily_NPOR_LIM  .         Thermal Neutron Porosity Limestone: 
TLFamily_PEF       .         Photoelectric Factor          : 
TLFamily_RHO       .         Bulk Density                  : 
~Curve Information
#_______________________________________________________________________________
#
#LOGNAME           .UNIT     LOG_ID                        : DESCRIPTION
#_______________________________________________________________________________
DEPT               .M                                      : Logged depth 
DT                 .us/m                                   : Compressional Slowness 
GR                 .GAPI                                   : MGS Gamma Ray 
ILD                .OHMM                                   : Array Ind. One Res 85 
NPOR_LIM           .V/V                                    : Lmst Neutron Por. (PEN) 
PEF                .B/E                                    : PE 
RHO                .K/M3                                   : Compensated Density 
~Ascii
# ...
218.9      438.073    51.081123  22.656776  0.3831419944763184 2.201492   2014.282715
219        439.7477   49.616314  22.190283  0.3806549906730652 2.205318   2009.579468
219.1      442.2381   48.776646  21.795904  0.3713380098342896 2.205119   2007.317749
219.2      445.4478   48.68433   21.279148  0.3595620095729828 2.205162   2005.619141
219.3      449.1977   49.604752  21.036118  0.3609969913959503 2.2048     2006.08313
219.4      453.2464   49.971149  21.050663  0.3672299981117249 2.219398   2005.38623
219.5      457.3215   50.835163  21.01326   0.3773399889469147 2.228508   2001.756592
219.6      461.1569   50.400425  20.986935  0.372433990240097 2.237225   1991.682373
219.7      464.5254   50.201733  21.103336  0.3754779994487762 2.244127   1974.860107
219.8      467.2617   49.193382  20.368872  0.4137870073318481 2.300946   1960.023193
219.9      469.2704   48.968948  19.373287  0.4878199994564056 2.491213   1951.420288
220        470.5198   48.228161  18.992069  0.551505982875824 2.717349   1957.299072
220.1      471.0267   47.671078  17.950495  0.5690280199050903 2.898372   1974.014526
220.2      470.838    46.34539   16.077005  0.5322840213775635 2.931417   2000.128906
220.3      470.0155   45.029602  16.52725   0.50798499584198 2.86773    2020.025146
220.4      468.6289   43.503162  18.058498  0.4636690020561218 2.652114   2032.005615
220.5      466.7549   43.122616  18.682846  0.4400950074195862 2.411273   2032.325073
220.6      464.4822   43.776592  19.10931   0.3952299952507019 2.230096   2026.91748
220.7      461.9162   45.526211  19.814939  0.3774070143699646 2.213543   2017.278076
220.8      459.1791   47.953739  20.161913  0.3725500106811523 2.236369   2008.490601
220.9      456.4048   50.255661  19.82316   0.3872610032558441 2.250573   2005.633911
221        453.7282   51.052792  19.502052  0.4036679863929749 2.257804   2005.355103
221.1      451.2729   51.78878   18.945427  0.4009949862957001 2.262839   2007.006958
221.2      449.142    52.099667  18.276913  0.3930430114269257 2.264734   2009.623413
221.3      447.4136   52.77034   17.82337   0.382779985666275 2.27719    2015.249756
221.4      446.1423   52.919998  17.417173  0.384797990322113 2.302875   2017.057739
221.5      445.3658   53.461113  15.901023  0.3823339939117432 2.371103   2017.601196
221.6      445.1105   53.516491  13.262748  0.3884299993515015 2.425235   2018.006104
221.7      445.3947   52.756973  10.182803  0.3907339870929718 2.471729   2023.641968
221.8      446.2265   51.828457  7.034828   0.3978720009326935 2.460181   2029.704346
221.9      447.5973   51.137974  7.42897    0.4025680124759674 2.432296   2037.979004
222        449.4742   51.271851  10.505317  0.409934014081955 2.342656   2046.776611
222.1      451.795    50.957294  12.762662  0.4156349897384644 2.264655   2054.506104
222.2      454.466    51.451454  14.105663  0.3899689912796021 2.194806   2059.812256
222.3      457.3677   51.83992   14.093195  0.3697789907455444 2.198878   2063.121826
222.4      460.3641   52.936844  13.472251  0.3484799861907959 2.221628   2065.696533
222.5      463.314    54.359489  13.778706  0.3611040115356445 2.264148   2064.434082
222.6      466.0829   56.289776  14.899051  0.3662430047988892 2.297998   2060.765137
222.7      468.5514   58.243103  15.657141  0.371053010225296 2.324805   2053.059814
222.8      470.6221   59.61821   16.72443   0.383558988571167 2.335761   2045.866089
222.9      472.2239   61.304462  17.383968  0.4092490077018738 2.337832   2038.14209
223        473.3167   61.410324  17.206057  0.4190709888935089 2.330646   2031.938599
223.1      473.8955   60.804146  17.13488   0.4173339903354645 2.311798   2026.787598
223.2      473.9933   58.384773  18.644676  0.4148229956626892 2.286533   2024.390381
223.3      473.6803   56.296715  19.517981  0.4149259924888611 2.260141   2022.941284
223.4      473.0582   53.980881  19.351816  0.4088119864463806 2.242296   2022.10437
223.5      472.2479   53.290218  18.641436  0.4029980003833771 2.234521   2023.564087
223.6      471.3722   53.403584  17.194857  0.40556401014328 2.244039   2028.013672
223.7      470.5368   54.756676  16.213554  0.4208180010318756 2.276433   2033.661499
223.8      469.8157   55.584415  16.481773  0.4245139956474304 2.383656   2040.169556
223.9      469.2411   56.298336  16.266836  0.4376640021800995 2.520045   2048.793945
224        468.8022   56.374073  15.13695   0.4346489906311035 2.648161   2056.450439
224.1      468.4517   56.784996  14.100208  0.4520950019359589 2.699975   2061.018555
224.2      468.1168   57.841019  14.203697  0.4767110049724579 2.701997   2059.06665
224.3      467.7133   60.510151  15.62313   0.4993740022182465 2.624169   2055.757568
224.4      467.1606   63.410637  16.258554  0.4826219975948334 2.508286   2049.875977
224.5      466.3945   65.935112  15.530929  0.4484510123729706 2.391343   2046.619751
224.6      465.3779   65.959091  14.199541  0.4292489886283875 2.337312   2042.035889
224.7      464.1069   63.702976  13.71061   0.439873993396759 2.310042   2040.893188
224.8      462.6126   59.133102  14.956058  0.4464479982852936 2.277022   2038.032715
224.9      460.9565   53.615982  16.63023   0.43402299284935 2.242652   2035.784058
225        459.2219   48.959091  17.792698  0.4059999883174896 2.205418   2031.685547
225.1      457.5004   47.006943  18.186628  0.3743959963321686 2.180399   2029.358643
225.2      455.8792   47.835709  17.868015  0.3593319952487946 2.164734   2028.426392
225.3      454.4299   49.849731  17.877287  0.3510240018367767 2.172417   2028.403442
225.4      453.2009   51.899696  18.899036  0.3582960069179535 2.19606    2028.690552
225.5      452.2161   53.402306  18.391607  0.3606480062007904 2.236631   2028.570923
225.6      451.4774   54.500538  16.873028  0.3674780130386353 2.278143   2032.349121
225.7      450.9703   55.139721  15.566982  0.3738789856433868 2.313193   2038.702881
225.8      450.672    55.904842  14.969972  0.3764089941978455 2.328841   2045.452759
225.9      450.5593   56.96706   15.152864  0.3936839997768402 2.319942   2050.049316
226        450.6154   57.906139  16.49399   0.410165011882782 2.30555    2051.397217
226.1      450.8363   58.663811  17.156565  0.425911009311676 2.291979   2050.767578
226.2      451.2372   58.595024  16.891666  0.4105460047721863 2.282773   2044.664063
226.3      451.8597   57.891747  16.46772   0.4088389873504639 2.276242   2038.69165
226.4      452.7779   56.544308  16.792503  0.4169099926948547 2.27585    2032.87561
226.5      454.1001   54.868946  17.228535  0.4236940145492554 2.274199   2030.619629
226.6      455.9605   53.449364  17.271479  0.4083540141582489 2.263329   2030.083374
226.7      458.4957   53.581261  16.625355  0.3907209932804108 2.271382   2032.974243
226.8      461.8042   56.145298  15.19884   0.391198992729187 2.329942   2040.623413
226.9      465.8984   60.492088  13.016112  0.3947109878063202 2.457461   2055.674072
227        470.6599   65.43000000000001 10.218923  0.4001080095767975 2.604342   2072.932861
227.1      475.8173   68.752235  7.466482   0.425572007894516 2.735186   2081.458496
227.2      480.9569   70.064781  6.364763   0.4738810062408447 2.796507   2071.387451
227.3      485.5714   68.02364300000001 7.371715   0.5153539776802063 2.77751    2043.533813
227.4      489.1368   64.319374  12.254823  0.4763570129871368 2.678256   2005.834473
227.5      491.202    59.778824  18.060526  0.3877150118350983 2.540914   1971.1875 
227.6      491.4708   56.754562  19.653992  0.3140040040016174 2.418749   1952.497803
227.7      489.8568   53.900547  18.654779  0.3154799938201904 2.349717   1955.361084
227.8      486.5016   52.935513  18.017868  0.35275998711586 2.324789   1974.21875
227.9      481.751    51.987309  17.906965  0.389409989118576 2.318855   1995.032715
228        476.0954   51.772446  18.379894  0.4004670083522797 2.335319   2010.353638
228.1      470.0874   50.621273  18.619068  0.4083459973335266 2.34784    2014.989746
228.2      464.2548   50.751869  18.634874  0.4050189852714539 2.361835   2018.000732
