~Version
 VERS              .         2.0                           : CWLS LOG ASCII STANDARD - VERSION 2.0
 WRAP              .         NO                            : ONE LINE PER DEPTH STEP
 DLM               .         SPACE                         : DELIMITING CHARACTER(SPACE TAB OR COMMA)
~Well Information
#_______________________________________________________________________________
#
#PARAMETER_NAME    .UNIT     VALUE                         : DESCRIPTION
#_______________________________________________________________________________
STRT               .M        0                             : First reference value
STOP               .M        427.9                         : Last reference value
STEP               .M        0.1                           : Step increment
NULL               .         -9999                         : Missing value
COMP               .                                       : Company
WELL               .         H                             : Well name
FLD                .                                       : Field
LOC                .                                       : Location
CNTY               .                                       : County
STAT               .                                       : State
CTRY               .                                       : Country
SRVC               .                                       : Service Company
DATE               .                                       : Date
API                .                                       : API number
~Parameter Information Block
#_______________________________________________________________________________
#
#PARAMETER_NAME    .UNIT     VALUE                         : DESCRIPTION
#_______________________________________________________________________________
SET                .         Logs                          : 
TLFamily_DEPT      .         Measured Depth                : 
TLFamily_DT        .         Compressional Slowness        : 
TLFamily_GR        .         Gamma Ray                     : 
TLFamily_ILD       .         Resistivity - Deep            : 
TLFamily_NPOR_LIM  .         Thermal Neutron Porosity Limestone: 
TLFamily_PEF       .         Photoelectric Factor          : 
TLFamily_RHO       .         Bulk Density                  : 
~Curve Information
#_______________________________________________________________________________
#
#LOGNAME           .UNIT     LOG_ID                        : DESCRIPTION
#_______________________________________________________________________________
DEPT               .M                                      : Logged depth 
DT                 .us/m                                   : Compressional Slowness 
GR                 .GAPI                                   : MGS Gamma Ray 
ILD                .OHMM                                   : Array Ind. One Res 85 
NPOR_LIM           .V/V                                    : Lmst Neutron Por. (PEN) 
PEF                .B/E                                    : PE 
RHO                .K/M3                                   : Compensated Density 
~Ascii
# ...
81.7       -9999      52.627094  19970.060547 0.4300819933414459 11.417658  1725.145386
81.8       -9999      53.019516  19964.083984 0.4271700084209442 11.365499  1723.592285
81.90000000000001 -9999      52.432861  19965.632813 0.4473730027675629 11.255019  1718.993774
82         -9999      52.989536  19972.132813 0.4541459977626801 11.057313  1713.778931
82.09999999999999 -9999      54.514782  19975.738281 0.4774239957332611 10.974238  1709.705322
82.2       -9999      56.697964  19977.775391 0.4706560075283051 10.905035  1706.393799
82.3       -9999      58.21838   19980.232422 0.4644890129566193 10.945203  1704.235229
82.40000000000001 -9999      59.852036  19988.103516 0.4554699957370758 10.969413  1701.323486
82.5       -9999      60.570316  19994.044922 0.4542270004749298 11.056769  1701.740356
82.59999999999999 -9999      59.878212  20004.804688 0.4609169960021973 11.050479  1701.630615
82.7       -9999      58.079811  20016.828125 0.4665929973125458 10.998527  1703.416626
82.8       -9999      56.89777   20027.318359 0.4725750088691711 10.917393  1705.739136
82.90000000000001 -9999      57.667709  20023.912109 0.4686830043792725 10.858741  1708.366699
83         -9999      60.29113   20010.748047 0.4585599899291992 10.851037  1703.763062
83.09999999999999 -9999      62.746964  19991.794922 0.4602369964122772 10.834156  1692.847778
83.2       -9999      64.427155  19974.173828 0.4649800062179565 10.852186  1682.634521
83.3       -9999      64.818893  19964.25   0.4671519994735718 10.831273  1679.185791
83.40000000000001 -9999      63.50198   19964.667969 0.468302994966507 10.881258  1682.831543
83.5       -9999      61.617981  19973.136719 0.4728609919548035 10.883215  1689.168823
83.59999999999999 -9999      59.790234  19982.533203 0.4695709943771362 10.970629  1696.687744
83.7       -9999      59.651791  19989.398438 0.4745959937572479 10.976309  1700.461182
83.8       -9999      59.640846  19991.068359 0.4760099947452545 11.035594  1697.698608
83.90000000000001 -9999      59.932846  19992.09375 0.4839909970760345 10.94888   1687.955811
84         -9999      59.069572  19998.667969 0.4762780070304871 10.913159  1677.784668
84.09999999999999 -9999      59.532669  20010.822266 0.4861589968204498 10.854392  1669.8302 
84.2       -9999      60.673389  20019.583984 0.4981389939785004 10.930906  1665.988403
84.3       -9999      62.661644  20020.931641 0.5103060007095337 10.956794  1664.793579
84.40000000000001 -9999      62.549366  20015.765625 0.5094749927520752 11.047684  1669.524902
84.5       -9999      62.017769  20007.591797 0.4979189932346344 11.086948  1675.776733
84.59999999999999 -9999      61.69281   19999.259766 0.4859049916267395 11.072705  1683.037964
84.7       -9999      61.843174  19994.882813 0.4770300090312958 10.922671  1685.451782
84.8       -9999      61.870701  19997.578125 0.4796270132064819 10.747792  1684.386108
84.90000000000001 -9999      62.901783  20006.529297 0.4820429980754852 10.63973   1678.717407
85         -9999      63.686359  20014.912109 0.4815239906311035 10.597136  1675.196899
85.09999999999999 -9999      63.117382  20017.166016 0.4820170104503632 10.631492  1675.145752
85.2       -9999      60.07534   20015.066406 0.4861159920692444 10.742802  1677.131104
85.3       -9999      57.997696  20008.851563 0.4891960024833679 10.90687   1679.294434
85.40000000000001 -9999      57.203922  19993.675781 0.4947470128536224 11.030104  1680.514282
85.5       -9999      59.983131  19973.333984 0.4935699999332428 11.070269  1678.746948
85.59999999999999 -9999      62.233055  19958.707031 0.5089920163154602 11.069555  1672.056519
85.7       -9999      64.41683999999999 19954.617188 0.5090100169181824 11.029974  1663.648193
85.8       -9999      63.654739  19960.925781 0.5197439789772034 11.00736   1657.304932
85.90000000000001 -9999      62.639545  19971.134766 0.5108349919319153 10.967062  1654.949097
86         -9999      59.997593  19986.359375 0.516622006893158 10.965522  1656.001221
86.09999999999999 -9999      58.170994  19998.173828 0.5129590034484863 10.940055  1660.018066
86.2       -9999      57.616299  20003.433594 0.5139989852905273 10.93442   1667.642822
86.3       -9999      59.160679  20003.339844 0.5205399990081787 10.950094  1674.630859
86.40000000000001 -9999      60.777214  20009.238281 0.5170940160751343 10.972807  1679.915649
86.5       -9999      62.092289  20018.314453 0.5265420079231262 10.898289  1683.214233
86.59999999999999 -9999      63.01104   20027.875  0.5230050086975098 10.78301   1685.272949
86.7       -9999      64.178696  20032.375  0.5265809893608093 10.66277   1685.809692
86.8       -9999      63.960953  20028.078125 0.5183950066566467 10.583512  1686.268066
86.90000000000001 -9999      63.612255  20012.816406 0.5289379954338074 10.523863  1686.439331
87         -9999      62.778362  19991.619141 0.5310840010643005 10.531813  1687.559937
87.09999999999999 -9999      62.843018  19980.494141 0.5413129925727844 10.613029  1687.626587
87.2       -9999      62.055     19980.904297 0.5268669724464417 10.67679   1690.752075
87.3       -9999      61.793171  19992.726563 0.5277910232543945 10.657796  1693.654907
87.40000000000001 -9999      61.52837   20011.988281 0.5248169898986816 10.565646  1698.857544
87.5       -9999      60.95826   20034.822266 0.5259649753570557 10.539705  1702.523071
87.59999999999999 -9999      59.568924  20046.189453 0.533079981803894 10.55656   1708.514771
87.7       -9999      57.456665  20046.878906 0.5288000106811523 10.701213  1709.235229
87.8       -9999      55.596382  20040.560547 0.5194169878959656 10.8515    1708.001709
87.90000000000001 -9999      53.200306  20035.560547 0.5140780210494995 11.016048  1700.179199
88         -9999      51.768162  20030.568359 0.5074499845504761 11.077989  1690.335571
88.09999999999999 -9999      50.859463  20024.816406 0.5001469850540161 11.048301  1677.365967
88.2       -9999      52.358913  20012.851563 0.5001900196075439 10.987469  1667.362915
88.3       -9999      53.987301  19996.654297 0.5059390068054199 10.889178  1661.897095
88.40000000000001 -9999      55.987621  19972.576172 0.5129920244216919 10.80959   1662.612061
88.5       -9999      57.027401  19948.949219 0.508965015411377 10.777044  1666.950073
88.59999999999999 -9999      57.520489  19924.587891 0.5074449777603149 10.804409  1672.410522
88.7       -9999      56.925014  19917.179688 0.5023919939994812 10.812083  1678.64502
88.8       -9999      55.753971  19913.173828 0.4961220026016235 10.806424  1684.041748
88.90000000000001 -9999      54.81461   19914.625  0.4957369863986969 10.82263   1687.955078
89         -9999      54.004044  19906.285156 0.4996820092201233 10.813933  1691.419556
89.09999999999999 -9999      53.696842  19903.171875 0.4982329905033112 10.815283  1695.4729 
89.2       -9999      52.748989  19897.376953 0.4925900101661682 10.836604  1699.214478
89.3       -9999      53.20697   19905.019531 0.4893830120563507 10.868611  1701.280762
89.40000000000001 -9999      53.910889  19930.480469 0.493025004863739 10.855087  1700.847534
89.5       -9999      54.889286  19969.847656 0.4889790117740631 10.841207  1698.067993
89.59999999999999 -9999      55.320305  20005.804688 0.5001839995384216 10.831321  1693.969849
89.7       -9999      56.094116  20025.785156 0.5003380179405212 10.800488  1690.55249
89.8       -9999      57.002499  20020.283203 0.4928959906101227 10.7737    1684.799683
89.90000000000001 -9999      57.103062  19986.314453 0.4875459969043732 10.807549  1680.322144
90         -9999      57.214111  19937.738281 0.4897820055484772 10.888839  1678.006592
90.09999999999999 -9999      57.977757  19891.972656 0.497979998588562 10.950652  1681.746582
90.2       -9999      58.80666   19857.585938 0.4997580051422119 10.984266  1684.347412
90.3       -9999      58.679775  19832.625  0.4915649890899658 11.026089  1688.970459
90.40000000000001 -9999      57.778393  19811.263672 0.4899959862232208 11.040795  1693.960449
90.5       -9999      56.943977  19797.169922 0.4984390139579773 11.038068  1702.337158
