~Version
 VERS              .         2.0                           : CWLS LOG ASCII STANDARD - VERSION 2.0
 WRAP              .         NO                            : ONE LINE PER DEPTH STEP
 DLM               .         SPACE                         : DELIMITING CHARACTER(SPACE TAB OR COMMA)
~Well Information
#_______________________________________________________________________________
#
#PARAMETER_NAME    .UNIT     VALUE                         : DESCRIPTION
#_______________________________________________________________________________
STRT               .M        0                             : First reference value
STOP               .M        427.9                         : Last reference value
STEP               .M        0.1                           : Step increment
NULL               .         -9999                         : Missing value
COMP               .                                       : Company
WELL               .         H                             : Well name
FLD                .                                       : Field
LOC                .                                       : Location
CNTY               .                                       : County
STAT               .                                       : State
CTRY               .                                       : Country
SRVC               .                                       : Service Company
DATE               .                                       : Date
API                .                                       : API number
~Parameter Information Block
#_______________________________________________________________________________
#
#PARAMETER_NAME    .UNIT     VALUE                         : DESCRIPTION
#_______________________________________________________________________________
SET                .         Logs                          : 
TLFamily_DEPT      .         Measured Depth                : 
TLFamily_DT        .         Compressional Slowness        : 
TLFamily_GR        .         Gamma Ray                     : 
TLFamily_ILD       .         Resistivity - Deep            : 
TLFamily_NPOR_LIM  .         Thermal Neutron Porosity Limestone: 
TLFamily_PEF       .         Photoelectric Factor          : 
TLFamily_RHO       .         Bulk Density                  : 
~Curve Information
#_______________________________________________________________________________
#
#LOGNAME           .UNIT     LOG_ID                        : DESCRIPTION
#_______________________________________________________________________________
DEPT               .M                                      : Logged depth 
DT                 .us/m                                   : Compressional Slowness 
GR                 .GAPI                                   : MGS Gamma Ray 
ILD                .OHMM                                   : Array Ind. One Res 85 
NPOR_LIM           .V/V                                    : Lmst Neutron Por. (PEN) 
PEF                .B/E                                    : PE 
RHO                .K/M3                                   : Compensated Density 
~Ascii
0.0        -9999      22.71957   -9999      0.07705099880695343 -9999      -9999     
0.1        -9999      16.144773  -9999      0.07705099880695343 -9999      -9999     
0.2        -9999      14.251211  -9999      0.07705099880695343 -9999      -9999     
0.3        -9999      14.245137  -9999      0.07705099880695343 -9999      -9999     
0.4        -9999      14.751287  -9999      0.07705099880695343 -9999      -9999     
0.5        -9999      14.833454  -9999      0.07705099880695343 -9999      -9999     
0.6        -9999      15.665127  -9999      0.07705099880695343 -9999      -9999     
0.7        -9999      17.444969  -9999      -0.05192799866199493 -9999      -9999     
0.8        -9999      20.751406  -9999      -0.04662799835205078 -9999      -9999     
0.9        -9999      25.042889  -9999      -0.03745299950242043 -9999      -9999     
1          -9999      30.396496  -9999      -0.02560699917376041 -9999      -9999     
1.1        -9999      35.934917  -9999      -0.01365299988538027 -9999      -9999     
1.2        -9999      40.55003   -9999      -0.003911000210791826 -9999      -9999     
1.3        -9999      44.303474  -9999      0.001235999981872737 -9999      -9999     
1.4        -9999      46.758961  -9999      0.001031000050716102 -9999      -9999     
1.5        -9999      48.191978  -9999      -0.002540000015869737 -9999      -9999     
1.6        -9999      48.02552   -9999      -0.004033999983221292 -9999      -9999     
1.7        -9999      46.11792   -9999      0.003655999898910522 -9999      -9999     
1.8        -9999      42.04739   -9999      0.02791300043463707 -9999      -9999     
1.9        -9999      35.623768  -9999      0.07705099880695343 -9999      -9999     
2          -9999      28.892708  -9999      0.1525689959526062 -9999      -9999     
2.1        -9999      22.322506  -9999      0.2454600036144257 -9999      -9999     
2.2        -9999      17.451992  -9999      0.3267860114574432 -9999      -9999     
2.3        -9999      13.636956  -9999      0.375214010477066 -9999      -9999     
2.4        -9999      12.415583  -9999      0.2597340047359467 -9999      -9999     
2.5        -9999      11.111965  -9999      0.004784999880939722 -9999      -9999     
2.6        -9999      9.83079    -9999      -0.1904949992895126 -9999      -9999     
2.7        -9999      7.86707    -9999      -0.3182179927825928 -9999      -9999     
2.8        -9999      6.878457   -9999      -0.3772369921207428 -9999      -9999     
2.9        -9999      5.750116   -9999      0.1934839934110641 -9999      -9999     
3          -9999      5.236053   -9999      0.2239989936351776 -9999      -9999     
3.1        -9999      4.969703   -9999      0.2050240039825439 -9999      -9999     
3.2        -9999      5.63201    -9999      0.1834899932146072 -9999      -9999     
3.3        -9999      6.42082    -9999      0.181647002696991 -9999      -9999     
3.4        -9999      7.456481   -9999      0.2011860013008118 5.846618   2098.692383
3.5        -9999      8.91695    -9999      0.1861979961395264 5.836815   2164.929443
3.6        -9999      10.074076  -9999      0.1555220037698746 5.903991   2238.180664
3.7        -9999      10.377554  -9999      0.1352690011262894 6.037958   2296.709961
3.8        -9999      10.377555  -9999      0.1250230073928833 6.281679   2363.428223
3.9        -9999      10.186513  -9999      0.08375599980354309 6.471743   2329.818115
4          -9999      10.2991    -9999      0.03236100077629089 6.73686    2320.992676
4.1        -9999      11.001356  -9999      0.00121200003195554 7.00905    2356.583984
4.2        -9999      13.59374   -9999      -0.002741999924182892 7.300384   2326.105957
4.3        -9999      16.889479  -9999      0.01520899962633848 7.453737   2219.598877
4.4        -9999      20.757875  -9999      0.02509300038218498 7.564176   2014.415649
4.5        -9999      23.897844  -9999      0.02395099960267544 7.563646   -1989.409912
4.6        -9999      27.322397  -9999      0.009379999712109566 7.505995   583.971497
4.7        -9999      28.735315  -9999      -0.008317000232636929 7.536125   224.155304
4.8        -9999      29.202139  -9999      -0.01181000005453825 7.800471   29.531918 
4.9        -9999      27.214306  -9999      0.03870100155472755 8.214105999999999 53.009571 
5          -9999      24.680122  -9999      0.1999289989471436 8.65663    267.654602
5.1        -9999      21.193169  -9999      0.4263330101966858 9.029684   604.358337
5.2        -9999      18.565765  -9999      0.5737320184707642 9.269455000000001 927.1870730000001
5.3        -9999      16.108929  -9999      0.5427079796791077 9.300129999999999 1184.513306
5.4        -9999      14.468631  -9999      0.4565590023994446 9.299101   1356.445557
5.5        -9999      13.920734  -9999      0.4561710059642792 9.358705   1454.573364
5.6        -9999      14.069879  -9999      0.5286980271339417 9.475111999999999 1502.592285
5.7        -9999      14.58844   -9999      0.6174020171165466 9.553725999999999 1528.28479
5.8        -9999      15.095606  -9999      0.6499850153923035 9.620773   1546.08606
5.9        -9999      16.511889  -9999      0.6702970266342163 9.671189999999999 1558.714355
6          -9999      17.503639  -9999      0.6750109791755676 9.710972   1571.833618
6.1        -9999      17.817451  -9999      0.695268988609314 9.753261   1586.142578
6.2        -9999      17.463903  -9999      0.7158929705619812 9.823796   1601.244751
6.3        -9999      16.987999  -9999      0.7173159718513489 9.880144   1614.213135
6.4        -9999      16.515532  -9999      0.6893280148506165 9.917825000000001 1621.617188
6.5        -9999      16.281912  -9999      0.6695410013198853 9.891026   1621.936646
6.6        -9999      17.041353  -9999      0.6564610004425049 9.851437000000001 1617.063843
6.7        -9999      18.131987  -9999      0.6613330245018005 9.858401000000001 1609.788208
6.8        -9999      19.139462  -9999      0.6864299774169922 9.981861   1603.878418
6.9        -9999      19.728441  -9999      0.6957070231437683 10.181115  1602.345093
7          -9999      20.285761  -9999      0.694612979888916 10.441607  1601.447632
7.1        -9999      20.372942  -9999      0.6767539978027344 10.684197  1600.317627
7.2        -9999      20.010159  -9999      0.6489629745483398 10.813832  1598.496704
7.3        -9999      19.500317  -9999      0.6214720010757446 10.862483  1599.881958
7.4        -9999      19.608521  -9999      0.582880973815918 10.896911  1602.587524
7.5        -9999      20.096893  -9999      0.5662699937820435 11.025794  1608.692017
7.6        -9999      20.732433  -9999      0.5495049953460693 11.164007  1616.26123
7.7        -9999      21.497839  -9999      0.5288329720497131 11.38574   1626.063721
7.8        -9999      22.789253  -9999      0.5022839903831482 11.620175  1632.12561
7.9        -9999      23.297506  -9999      0.4880430102348328 11.836563  1636.211182
8          -9999      23.025398  -9999      0.4996219873428345 11.877677  1638.351929
8.1        -9999      22.009695  -9999      0.4849109947681427 11.904371  1640.906982
8.199999999999999 -9999      21.760805  -9999      0.4683110117912292 11.873879  1643.202026
8.300000000000001 -9999      21.367342  -9999      0.436028003692627 11.871308  1644.868774
8.4        -9999      21.84473   -9999      0.4333870112895966 11.839662  1648.176636
8.5        -9999      21.679665  -9999      0.4289419949054718 11.891847  1650.36792
8.6        -9999      22.427584  -9999      0.4389010071754456 11.911908  1652.084839
8.699999999999999 -9999      22.690609  -9999      0.44029301404953 11.919003  1648.664185
8.800000000000001 -9999      24.252337  -9999      0.4461469948291779 11.865457  1646.275391
8.9        -9999      26.660948  -9999      0.4312469959259033 11.795131  1640.703247
9          -9999      31.25433   -9999      0.4265179932117462 11.720852  1634.250488
9.1        -9999      37.250523  -9999      0.4235889911651611 11.760218  1625.890991
