~Version
 VERS              .         2.0                           : CWLS LOG ASCII STANDARD - VERSION 2.0
 WRAP              .         NO                            : ONE LINE PER DEPTH STEP
 DLM               .         SPACE                         : DELIMITING CHARACTER(SPACE TAB OR COMMA)
~Well Information
#_______________________________________________________________________________
#
#PARAMETER_NAME    .UNIT     VALUE                         : DESCRIPTION
#_______________________________________________________________________________
STRT               .M        0                             : First reference value
STOP               .M        427.9                         : Last reference value
STEP               .M        0.1                           : Step increment
NULL               .         -9999                         : Missing value
COMP               .                                       : Company
WELL               .         H                             : Well name
FLD                .                                       : Field
LOC                .                                       : Location
CNTY               .                                       : County
STAT               .                                       : State
CTRY               .                                       : Country
SRVC               .                                       : Service Company
DATE               .                                       : Date
API                .                                       : API number
~Parameter Information Block
#_______________________________________________________________________________
#
#PARAMETER_NAME    .UNIT     VALUE                         : DESCRIPTION
#_______________________________________________________________________________
SET                .         Logs                          : 
TLFamily_DEPT      .         Measured Depth                : 
TLFamily_DT        .         Compressional Slowness        : 
TLFamily_GR        .         Gamma Ray                     : 
TLFamily_ILD       .         Resistivity - Deep            : 
TLFamily_NPOR_LIM  .         Thermal Neutron Porosity Limestone: 
TLFamily_PEF       .         Photoelectric Factor          : 
TLFamily_RHO       .         Bulk Density                  : 
~Curve Information
#_______________________________________________________________________________
#
#LOGNAME           .UNIT     LOG_ID                        : DESCRIPTION
#_______________________________________________________________________________
DEPT               .M                                      : Logged depth 
DT                 .us/m                                   : Compressional Slowness 
GR                 .GAPI                                   : MGS Gamma Ray 
ILD                .OHMM                                   : Array Ind. One Res 85 
NPOR_LIM           .V/V                                    : Lmst Neutron Por. (PEN) 
PEF                .B/E                                    : PE 
RHO                .K/M3                                   : Compensated Density 
~Ascii
# ...
108.7      -9999      55.480534  20049.996094 0.515936017036438 10.920742  1703.737793
108.8      -9999      57.258953  20035.535156 0.5117539763450623 10.924326  1704.22229
108.9      -9999      58.426636  20012.941406 0.5149660110473633 10.940903  1704.201538
109        -9999      60.0186    19995.226563 0.5153390169143677 10.993039  1701.962402
109.1      -9999      59.918377  19980.546875 0.5142319798469543 10.959536  1699.002319
109.2      -9999      59.50811   19963.119141 0.5117769837379456 10.932995  1694.697021
109.3      -9999      59.150921  19945.160156 0.5025330185890198 10.892782  1694.474609
109.4      -9999      58.846878  19935.070313 0.5039839744567871 10.921222  1695.28833
109.5      -9999      58.366982  19937.279297 0.4976190030574799 10.9755    1701.297241
109.6      -9999      59.033607  19947.447266 0.5000010132789612 11.036942  1707.589722
109.7      -9999      60.549904  19961.240234 0.4965679943561554 11.115385  1714.593994
109.8      -9999      62.363457  19970.996094 0.5026829838752747 11.10385   1715.070679
109.9      -9999      63.153431  19968.648438 0.4916209876537323 11.037696  1714.637573
110        -9999      64.952744  19956.818359 0.4817070066928864 10.917157  1712.256592
110.1      -9999      65.477203  19947.396484 0.4717830121517181 10.861729  1712.612549
110.2      -9999      65.22399900000001 19944.09375 0.487075001001358 10.817298  1714.98999
110.3      -9999      63.233196  19950.798828 0.4918070137500763 10.826219  1718.505981
110.4      -9999      62.284618  19967.09375 0.4887120127677917 10.920114  1722.766479
110.5      -9999      60.847836  19984.53125 0.472791999578476 11.027411  1724.047974
110.6      -9999      59.586369  19993.644531 0.4707370102405548 11.114717  1724.843506
110.7      -9999      58.641464  19986.953125 0.4886429905891418 11.111568  1723.96936
110.8      -9999      57.930252  19968.275391 0.4973179996013641 11.129566  1726.269043
110.9      -9999      57.700668  19945.503906 0.5054420232772827 11.028523  1727.8125 
111        -9999      57.451427  19928.703125 0.4844299852848053 10.944555  1732.102417
111.1      -9999      57.937656  19921.28125 0.4728499948978424 10.850573  1734.865845
111.2      -9999      57.670635  19924.210938 0.4676429927349091 10.862713  1739.397217
111.3      -9999      58.250259  19938.193359 0.4760150015354156 10.832999  1742.539551
111.4      -9999      57.60841   19961.515625 0.4842100143432617 10.848666  1746.848511
111.5      -9999      57.00544   19981.628906 0.488305002450943 10.847292  1747.223389
111.6      -9999      54.659801  19995.457031 0.4764460027217865 10.869664  1745.462402
111.7      -9999      55.235424  20005.517578 0.4779399931430817 10.836107  1740.161743
111.8      -9999      55.152214  20014.310547 0.4700089991092682 10.829655  1735.692627
111.9      -9999      56.628475  20013.242188 0.4811199903488159 10.785601  1732.350464
112        -9999      56.026695  20004.75   0.4786770045757294 10.757998  1731.471924
112.1      -9999      56.85054   19989.111328 0.4744290113449097 10.724204  1732.599365
112.2      -9999      55.495384  19972.328125 0.4724130034446716 10.700491  1733.410889
112.3      -9999      54.922935  19947.935547 0.4652909934520721 10.705897  1735.085449
112.4      -9999      54.734013  19929.316406 0.4657500088214874 10.755181  1735.748535
112.5      -9999      56.428566  19919.769531 0.4606519937515259 10.83731   1737.340454
112.6      -9999      58.200974  19925.814453 0.4598270058631897 10.929324  1736.181396
112.7      -9999      58.912102  19948.892578 0.4573439955711365 11.006511  1736.467896
112.8      -9999      59.129848  19985.855469 0.4562540054321289 11.02131   1735.839844
112.9      -9999      58.371986  20036.386719 0.4537830054759979 10.997637  1734.196655
113        -9999      57.695515  20091.246094 0.4431880116462708 10.984406  1731.778442
113.1      -9999      56.954788  20150.904297 0.4486980140209198 10.933607  1731.60144
113.2      -9999      56.715687  20199.441406 0.4593429863452911 10.887191  1734.550171
113.3      -9999      57.637962  20235.242188 0.4658420085906982 10.840702  1737.012207
113.4      -9999      58.452259  20232.849609 0.4618290066719055 10.848511  1740.106567
113.5      -9999      58.887329  20195.289063 0.4522989988327026 10.798591  1743.136475
113.6      -9999      58.476387  20119.849609 0.4581649899482727 10.710677  1748.870605
113.7      -9999      58.965469  20033.695313 0.4511600136756897 10.593805  1749.238647
113.8      -9999      58.614326  19952.291016 0.4508369863033295 10.493974  1746.968628
113.9      -9999      57.400589  19895.166016 0.4503949880599976 10.411577  1739.900513
114        -9999      55.812634  19867.863281 0.4512990117073059 10.385907  1736.038574
114.1      -9999      54.696255  19868.638672 0.46663698554039 10.370111  1729.166748
114.2      -9999      54.804451  19880.724609 0.4608260095119476 10.391444  1725.753418
114.3      -9999      54.413589  19897.183594 0.4603700041770935 10.451696  1721.842651
114.4      -9999      55.361961  19915.275391 0.444905012845993 10.546782  1723.163208
114.5      -9999      55.651432  19934.5625 0.4533219933509827 10.656302  1723.462769
114.6      -9999      56.940079  19946.291016 0.4568069875240326 10.785046  1726.565674
114.7      -9999      57.134853  19946.933594 0.4548510015010834 10.886077  1728.426636
114.8      -9999      57.887363  19934.705078 0.4538249969482422 10.919948  1731.266357
114.9      -9999      57.846878  19911.455078 0.460413008928299 10.881292  1731.647705
115        -9999      58.243286  19889.003906 0.4624109864234924 10.84659   1732.4198 
115.1      -9999      57.704147  19882.542969 0.4627180099487305 10.776952  1731.062256
115.2      -9999      57.404964  19898.998047 0.4665820002555847 10.742211  1732.346069
115.3      -9999      57.141739  19921.439453 0.4744420051574707 10.688944  1734.289673
115.4      -9999      57.97398   19942.259766 0.4772729873657227 10.647165  1738.160278
115.5      -9999      59.835732  19951.673828 0.477295994758606 10.508138  1737.952271
115.6      -9999      61.30146   19947.443359 0.4792979955673218 10.409255  1738.201416
115.7      -9999      62.161663  19936.927734 0.4736790060997009 10.35281   1739.29187
115.8      -9999      61.698452  19944.392578 0.4651939868927002 10.387109  1745.953735
115.9      -9999      61.521461  19973.449219 0.463441014289856 10.419693  1754.795288
116        -9999      60.610226  20003.314453 0.4765059947967529 10.472671  1766.690063
116.1      -9999      60.648052  19997.939453 0.4787940084934235 10.555956  1781.540894
116.2      -9999      60.630722  19934.568359 0.4784570038318634 10.611101  1790.471924
116.3      -9999      61.534561  19818.386719 0.450643002986908 10.584983  1794.96521
116.4      -9999      60.757324  19711.755859 0.450419008731842 10.543344  1776.812378
116.5      -9999      58.365921  19671.451172 0.4355869889259338 10.597836  1726.535156
116.6      -9999      54.694412  19729.349609 0.4442130029201508 10.751999  844.1456910000001
116.7      -9999      51.322323  19875.84375 0.4223499894142151 10.914347  499.976044
116.8      -9999      48.585091  20078.302734 0.4287729859352112 11.01821   440.993744
116.9      -9999      47.607288  20271.894531 0.4330820143222809 11.06601   670.7696529999999
117        -9999      48.423233  20405.089844 0.4381999969482422 11.009036  1085.709106
117.1      -9999      50.822796  20475.244141 0.4338630139827728 10.80857   1771.717651
117.2      -9999      52.604996  20499.099609 0.4177019894123077 10.553498  1811.14978
117.3      -9999      53.939865  20490.480469 0.4235230088233948 10.36712   1812.476318
117.4      -9999      54.784275  20435.298828 0.4141280055046082 10.296585  1802.901611
117.5      -9999      55.529716  20322.351563 0.4183889925479889 10.287766  1797.176392
117.6      -9999      55.900326  20158.808594 0.4139389991760254 10.32468   1796.501709
117.7      -9999      56.297009  19995.636719 0.4217329919338226 10.406833  1798.047607
117.8      -9999      57.52177   19879.314453 0.427139014005661 10.498213  1800.972046
