~Version
 VERS              .         2.0                           : CWLS LOG ASCII STANDARD - VERSION 2.0
 WRAP              .         NO                            : ONE LINE PER DEPTH STEP
 DLM               .         SPACE                         : DELIMITING CHARACTER(SPACE TAB OR COMMA)
~Well Information
#_______________________________________________________________________________
#
#PARAMETER_NAME    .UNIT     VALUE                         : DESCRIPTION
#_______________________________________________________________________________
STRT               .M        0                             : First reference value
STOP               .M        427.9                         : Last reference value
STEP               .M        0.1                           : Step increment
NULL               .         -9999                         : Missing value
COMP               .                                       : Company
WELL               .         H                             : Well name
FLD                .                                       : Field
LOC                .                                       : Location
CNTY               .                                       : County
STAT               .                                       : State
CTRY               .                                       : Country
SRVC               .                                       : Service Company
DATE               .                                       : Date
API                .                                       : API number
~Parameter Information Block
#_______________________________________________________________________________
#
#PARAMETER_NAME    .UNIT     VALUE                         : DESCRIPTION
#_______________________________________________________________________________
SET                .         Logs                          : 
TLFamily_DEPT      .         Measured Depth                : 
TLFamily_DT        .         Compressional Slowness        : 
TLFamily_GR        .         Gamma Ray                     : 
TLFamily_ILD       .         Resistivity - Deep            : 
TLFamily_NPOR_LIM  .         Thermal Neutron Porosity Limestone: 
TLFamily_PEF       .         Photoelectric Factor          : 
TLFamily_RHO       .         Bulk Density                  : 
~Curve Information
#_______________________________________________________________________________
#
#LOGNAME           .UNIT     LOG_ID                        : DESCRIPTION
#_______________________________________________________________________________
DEPT               .M                                      : Logged depth 
DT                 .us/m                                   : Compressional Slowness 
GR                 .GAPI                                   : MGS Gamma Ray 
ILD                .OHMM                                   : Array Ind. One Res 85 
NPOR_LIM           .V/V                                    : Lmst Neutron Por. (PEN) 
PEF                .B/E                                    : PE 
RHO                .K/M3                                   : Compensated Density 
~Ascii
# ...
357.6      396.5916   34.005337  103.780739 0.3357140123844147 1.801245   2056.719971
357.7      397.2942   33.236076  90.44574   0.3394530117511749 1.811657   2054.987305
357.8      397.9457   33.417362  76.683548  0.3334600031375885 1.832634   2053.831787
357.9      398.5099   34.47398   73.945915  0.342613011598587 1.84681    2053.640381
358        398.9575   36.729092  77.74601   0.3480820059776306 1.854679   2055.152832
358.1      399.2679   39.805714  80.607544  0.359919011592865 1.850935   2059.484375
358.2      399.4321   43.412621  80.325203  0.3600380122661591 1.84882    2064.112305
358.3      399.4535   47.155838  76.111549  0.3584020137786865 1.843822   2067.531494
358.4      399.3491   50.143692  78.765884  0.3605270087718964 1.844658   2068.442871
358.5      399.1475   52.766747  80.959183  0.3683130145072937 1.854223   2068.689209
358.6      398.8861   54.625046  78.149475  0.3733809888362885 1.873485   2068.803955
358.7      398.6056   54.943375  73.628494  0.3777180016040802 1.884056   2071.104736
358.8      398.3443   53.102589  67.06783299999999 0.3789640069007874 1.889938   2072.904053
358.9      398.133    49.95343   59.334969  0.3803699910640717 1.883793   2073.773193
359        397.9907   46.012463  49.075253  0.3812389969825745 1.871363   2072.340576
359.1      397.9222   41.39283   47.952141  0.3749150037765503 1.842337   2069.321045
359.2      397.9179   37.148052  51.247791  0.3651700019836426 1.811699   2064.167236
359.3      397.9556   34.066982  54.578697  0.3539650142192841 1.783251   2059.932129
359.4      398.0037   32.380562  56.917007  0.3469820022583008 1.767897   2057.780518
359.5      398.0264   31.35696   58.501286  0.3461790084838867 1.764072   2055.223389
359.6      397.9893   32.12833   59.25798   0.337022989988327 1.778127   2055.641846
359.7      397.8652   34.271095  60.907772  0.3396340012550354 1.859796   2057.699951
359.8      397.6387   37.131935  59.899651  0.3380379974842072 1.940199   2060.862061
359.9      397.3082   38.862991  54.535809  0.3474180102348328 2.004888   2065.641602
360        396.8867   38.743156  37.424175  0.3485380113124847 1.992798   2072.79126
360.1      396.3991   35.492935  29.059088  0.3595150113105774 1.967265   2080.23999
360.2      395.878    30.492847  35.614834  0.3579089939594269 1.854088   2083.67334
360.3      395.3578   24.88784   47.039421  0.3416399955749512 1.747241   2085.346191
360.4      394.8703   20.840332  53.241722  0.3130789995193481 1.651153   2084.543457
360.5      394.4391   19.456789  53.119728  0.2985790073871613 1.658047   2081.562744
360.6      394.0761   20.303881  56.59127   0.2976959943771362 1.669236   2074.554443
360.7      393.7793   21.674187  58.235336  0.3042930066585541 1.710154   2070.24585
360.8      393.5314   22.796282  48.283493  0.3113960027694702 1.738868   2067.094238
360.9      393.3018   23.351984  49.729168  0.3267959952354431 1.770836   2065.314209
361        393.0505   23.086433  51.416271  0.3218849897384644 1.76965    2063.67041
361.1      392.735    22.109324  48.996395  0.3135760128498077 1.799331   2062.634277
361.2      392.3193   21.656569  44.711922  0.2972840070724487 1.82623    2065.296875
361.3      391.785    21.937288  42.527313  0.300231009721756 1.860302   2069.739258
361.4      391.1395   22.269936  40.792671  0.3095099925994873 1.866215   2072.633545
361.5      390.4225   22.45273   39.905632  0.3235639929771423 1.862721   2072.7146 
361.6      389.7073   23.224396  38.136066  0.3290480077266693 1.824344   2072.315674
361.7      389.0971   24.426615  34.983429  0.3226479887962341 1.792071   2071.906738
361.8      388.7194   26.754557  30.940588  0.3079420030117035 1.778807   2076.653809
361.9      388.7164   31.595451  28.434395  0.3018589913845062 1.799473   2089.121094
362        389.2362   38.904049  23.06362   0.2948839962482452 1.841314   2114.687988
362.1      390.4209   47.204002  15.306899  0.2932499945163727 1.907555   2143.156494
362.2      392.3915   55.264462  13.232741  0.2990100085735321 1.972616   2168.7229 
362.3      395.2295   61.252243  12.694366  0.3192580044269562 2.00624    2181.216064
362.4      398.956    64.623955  12.227293  0.3467209935188293 2.013473   2181.966064
362.5      403.5114   65.819664  15.088244  0.3663150072097778 2.043795   2171.906738
362.6      408.7428   66.387199  20.099783  0.3743889927864075 2.070035   2160.245117
362.7      414.4055   66.070694  16.840658  0.3628450036048889 2.095458   2151.027588
362.8      420.1795   64.218506  10.418675  0.3652180135250092 2.088133   2142.588867
362.9      425.7026   60.57312   11.226916  0.3872149884700775 2.076645   2132.226807
363        430.6117   55.613464  18.862364  0.4111030101776123 2.017936   2113.832031
363.1      434.5854   49.409237  22.695507  0.3905420005321503 1.942427   2091.405273
363.2      437.3802   43.176891  27.922396  0.3422969877719879 1.878862   2061.01416
363.3      438.852    38.88303   30.28528   0.2983700037002563 1.862678   2033.543213
363.4      438.9652   36.00024   32.208324  0.2785069942474365 1.8776     2013.641968
363.5      437.7887   33.59201   27.242355  0.2690609991550446 1.883438   2007.562012
363.6      435.4824   30.5277    27.624649  0.27046799659729 1.887269   2009.471436
363.7      432.2794   27.738102  26.698959  0.2885990142822266 1.872933   2016.535889
363.8      428.4643   25.618435  20.410011  0.3112150132656097 1.859832   2026.412476
363.9      424.3492   24.87986   22.64698   0.3294459879398346 1.834664   2035.767456
364        420.2484   25.067839  25.242664  0.33160001039505 1.825915   2042.133301
364.1      416.4524   25.497551  28.990877  0.328577995300293 1.815247   2044.322144
364.2      413.2043   25.60306   24.841715  0.3274059891700745 1.8103     2046.694702
364.3      410.6818   24.482273  22.026794  0.3315219879150391 1.794445   2050.525635
364.4      408.9861   23.045164  24.616755  0.3391189873218536 1.789155   2055.426514
364.5      408.1411   21.597521  29.921675  0.3413810133934021 1.787213   2061.621826
364.6      408.1025   22.327559  40.063225  0.3399179875850677 1.835559   2069.390137
364.7      408.7747   25.35989   47.350952  0.3295589983463287 1.890236   2074.676758
364.8      410.0295   29.770666  35.514397  0.3260309994220734 1.947932   2075.531982
364.9      411.7264   33.354053  18.871181  0.3358429968357086 1.961313   2069.230469
365        413.7281   34.970966  18.156733  0.374677985906601 1.967464   2061.018066
365.1      415.9097   34.37933   24.112051  0.4088430106639862 1.92764    2051.564941
365.2      418.1613   31.751368  29.63862   0.415037989616394 1.878752   2044.755249
365.3      420.3856   28.398657  32.804127  0.3872849941253662 1.830616   2039.778442
365.4      422.4937   25.572596  23.673496  0.3531480133533478 1.820755   2036.306763
365.5      424.4016   24.178766  23.429707  0.3363200128078461 1.814707   2032.43396
365.6      426.0302   23.303373  34.32724   0.334755003452301 1.810514   2027.848999
365.7      427.3103   22.229675  55.90086   0.3364140093326569 1.806951   2024.391479
365.8      428.1897   21.003168  70.157303  0.3483180105686188 1.805314   2019.499756
365.9      428.6407   20.452839  83.24606300000001 0.3522399961948395 1.807396   2022.088257
366        428.6647   22.143629  86.282967  0.353305995464325 1.820566   2029.635498
366.1      428.2928   27.449699  68.052429  0.3462350070476532 1.840128   2042.873413
366.2      427.58     33.555691  36.826771  0.3354640007019043 1.854327   2053.616699
366.3      426.5978   38.974903  17.301022  0.3355410099029541 1.867726   2061.085693
366.4      425.423    41.618862  13.549981  0.3519580066204071 1.867094   2058.334229
366.5      424.1277   42.474808  15.021928  0.3732919991016388 1.85091    2046.703491
366.6      422.7701   39.896473  18.897825  0.3830960094928741 1.828275   2028.356201
366.7      421.3895   36.83905   25.718216  0.3901669979095459 1.817248   2016.149658
366.8      420.0029   34.073971  29.110447  0.4049319922924042 1.817423   2013.16748
366.9      418.6068   33.254795  28.245592  0.4056600034236908 1.81849    2020.32666
