~Version
 VERS              .         2.0                           : CWLS LOG ASCII STANDARD - VERSION 2.0
 WRAP              .         NO                            : ONE LINE PER DEPTH STEP
 DLM               .         SPACE                         : DELIMITING CHARACTER(SPACE TAB OR COMMA)
~Well Information
#_______________________________________________________________________________
#
#PARAMETER_NAME    .UNIT     VALUE                         : DESCRIPTION
#_______________________________________________________________________________
STRT               .M        0                             : First reference value
STOP               .M        427.9                         : Last reference value
STEP               .M        0.1                           : Step increment
NULL               .         -9999                         : Missing value
COMP               .                                       : Company
WELL               .         H                             : Well name
FLD                .                                       : Field
LOC                .                                       : Location
CNTY               .                                       : County
STAT               .                                       : State
CTRY               .                                       : Country
SRVC               .                                       : Service Company
DATE               .                                       : Date
API                .                                       : API number
~Parameter Information Block
#_______________________________________________________________________________
#
#PARAMETER_NAME    .UNIT     VALUE                         : DESCRIPTION
#_______________________________________________________________________________
SET                .         Logs                          : 
TLFamily_DEPT      .         Measured Depth                : 
TLFamily_DT        .         Compressional Slowness        : 
TLFamily_GR        .         Gamma Ray                     : 
TLFamily_ILD       .         Resistivity - Deep            : 
TLFamily_NPOR_LIM  .         Thermal Neutron Porosity Limestone: 
TLFamily_PEF       .         Photoelectric Factor          : 
TLFamily_RHO       .         Bulk Density                  : 
~Curve Information
#_______________________________________________________________________________
#
#LOGNAME           .UNIT     LOG_ID                        : DESCRIPTION
#_______________________________________________________________________________
DEPT               .M                                      : Logged depth 
DT                 .us/m                                   : Compressional Slowness 
GR                 .GAPI                                   : MGS Gamma Ray 
ILD                .OHMM                                   : Array Ind. One Res 85 
NPOR_LIM           .V/V                                    : Lmst Neutron Por. (PEN) 
PEF                .B/E                                    : PE 
RHO                .K/M3                                   : Compensated Density 
~Ascii
# ...
247        454.9475   39.999573  20.989511  0.3711639940738678 2.131986   2052.32251
247.1      454.8976   40.857311  20.693907  0.3702470064163208 2.138947   2044.17627
247.2      454.9465   42.327713  20.089626  0.3766990005970001 2.159314   2035.588013
247.3      455.1817   43.760361  19.475027  0.3922390043735504 2.186363   2030.386597
247.4      455.6392   45.387165  18.876404  0.4090020060539246 2.214402   2025.837769
247.5      456.3043   46.889111  18.44039   0.4171029925346375 2.23712    2025.342041
247.6      457.1251   47.640465  18.317286  0.4273500144481659 2.251986   2026.416138
247.7      458.0328   47.236477  18.426947  0.4216490089893341 2.249216   2029.595703
247.8      458.9613   45.86805   18.768343  0.4196499884128571 2.229671   2031.779785
247.9      459.8606   44.176388  19.243544  0.4160569906234741 2.198097   2032.845459
248        460.7018   41.565922  19.258125  0.4088410139083862 2.163189   2030.615112
248.1      461.4757   39.40065   19.120186  0.3881599903106689 2.129023   2026.791626
248.2      462.1869   37.761856  18.944109  0.3623999953269958 2.104104   2022.072021
248.3      462.8452   36.99205   18.760958  0.3508979976177216 2.09533    2017.208862
248.4      463.4591   37.122906  18.509687  0.3508009910583496 2.094224   2013.501099
248.5      464.0297   38.754898  18.193216  0.353736013174057 2.103993   2012.559937
248.6      464.5478   40.040844  17.928888  0.3519800007343292 2.113085   2014.656982
248.7      464.9946   41.682884  17.578075  0.3540619909763336 2.130946   2016.970093
248.8      465.3441   42.656887  17.363863  0.3549520075321198 2.145654   2019.310547
248.9      465.5685   44.083672  16.998322  0.3598960041999817 2.171672   2021.576416
249        465.6465   43.988655  16.845415  0.3614720106124878 2.189964   2023.303467
249.1      465.5708   44.138794  16.7764    0.3611240088939667 2.200112   2023.499146
249.2      465.3535   43.681141  16.808599  0.3656280040740967 2.193312   2023.787476
249.3      465.0296   43.831444  17.06781   0.3571099936962128 2.180344   2024.757446
249.4      464.6569   43.469841  16.888105  0.3488099873065948 2.162847   2024.185547
249.5      464.3097   43.520741  16.460155  0.3303509950637817 2.151638   2022.032715
249.6      464.0703   43.953182  15.933829  0.3149470090866089 2.148007   2019.265503
249.7      464.0162   44.123356  15.028749  0.3024100065231323 2.157609   2020.545776
249.8      464.2072   45.355392  13.830413  0.2946000099182129 2.228044   2025.978638
249.9      464.6733   47.230328  12.289914  0.2951929867267609 2.313142   2035.384033
250        465.4089   51.145687  10.396772  0.2964549958705902 2.422712   2048.711426
250.1      466.3723   56.091648  8.352997999999999 0.3144220113754272 2.506612   2063.899414
250.2      467.4938   62.422836  7.153291   0.3589609861373901 2.597945   2078.90625
250.3      468.6908   68.306381  5.658126   0.4121389985084534 2.630475   2090.830811
250.4      469.8848   73.387764  4.920268   0.484921008348465 2.646385   2100.878174
250.5      471.0188   76.63125599999999 4.585094   0.5361449718475342 2.631541   2109.057129
250.6      472.0694   78.638695  4.543062   0.573826014995575 2.632492   2115.86499
250.7      473.0505   79.051529  4.62729    0.5709360241889954 2.61629    2118.142822
250.8      474.01     78.913788  4.709379   0.5576099753379822 2.608691   2118.124268
250.9      475.0198   78.19795999999999 5.290285   0.534155011177063 2.617641   2117.123535
251        476.1611   78.709801  5.580337   0.5062959790229797 2.63711    2116.312988
251.1      477.5095   79.223625  5.484183   0.4862200021743774 2.736265   2116.876709
251.2      479.1206   81.117805  5.618925   0.4718190133571625 2.878762   2123.193848
251.3      481.0181   82.22520400000001 4.941426   0.455704003572464 3.0051     2138.690186
251.4      483.1856   83.138695  3.720999   0.4576619863510132 3.047498   2156.701416
251.5      485.5634   83.59534499999999 3.154783   0.4852420091629028 3.03831    2169.799561
251.6      488.0511   85.142365  2.817937   0.5335379838943481 2.965992   2173.716064
251.7      490.5168   86.54067999999999 2.611285   0.5565040111541748 2.844275   2169.567627
251.8      492.8116   88.12913500000001 2.553388   0.5604159832000732 2.715116   2155.693848
251.9      494.7892   89.399345  2.549022   0.5504239797592163 2.640033   2140.996826
252        496.325    90.415176  2.568207   0.5467209815979004 2.597911   2132.217041
252.1      497.3313   90.75839999999999 2.54554    0.5491269826889038 2.555875   2133.198975
252.2      497.7666   90.648796  2.500399   0.5553439855575562 2.518053   2139.293945
252.3      497.6371   90.172073  2.477009   0.5651329755783081 2.515412   2142.242676
252.4      496.9911   89.29898799999999 2.488609   0.5646330118179321 2.52505    2141.276367
252.5      495.9093   87.900398  2.547115   0.5644050240516663 2.552259   2137.515381
252.6      494.4928   87.626076  2.664372   0.5654879808425903 2.563959   2134.442627
252.7      492.8526   87.41203299999999 2.738882   0.5811910033226013 2.573407   2130.996094
252.8      491.0991   87.665215  2.726028   0.5904319882392883 2.565725   2129.097168
252.9      489.3351   87.98020200000001 2.788437   0.5910980105400085 2.560165   2127.848389
253        487.6476   88.065231  2.816578   0.5820140242576599 2.563794   2125.576904
253.1      486.1044   86.19799   2.967748   0.5763239860534668 2.589305   2119.032471
253.2      484.7507   83.709671  3.248021   0.5605930089950562 2.644043   2111.562012
253.3      483.6109   80.952499  3.531174   0.5498920083045959 2.695261   2109.176025
253.4      482.6919   79.799194  3.802371   0.5320240259170532 2.733901   2112.440186
253.5      481.9879   78.022316  3.970322   0.5369290113449097 2.742517   2119.777832
253.6      481.4834   77.478416  3.877904   0.53746098279953 2.738574   2125.530029
253.7      481.1525   77.75112900000001 3.850938   0.5472379922866821 2.722943   2127.734131
253.8      480.9501   80.22556299999999 3.910725   0.5526829957962036 2.709318   2123.585205
253.9      480.7961   82.03784899999999 3.803027   0.5570039749145508 2.701354   2117.607178
254        480.5553   84.190529  3.554741   0.5630970001220703 2.696514   2109.005127
254.1      480.0243   84.479401  3.448557   0.5709850192070007 2.696557   2106.17334
254.2      478.9339   83.314728  3.725652   0.5657730102539063 2.70894    2108.095215
254.3      476.9794   79.668182  4.250375   0.5433239936828613 2.756693   2124.434814
254.4      473.8815   75.00923899999999 4.706682   0.5071020126342773 3.039755   2159.049561
254.5      469.4691   69.70414700000001 4.662186   0.4850580096244812 3.577948   2218.511963
254.6      463.7623   64.199532  5.226529   0.4499419927597046 4.089299   2293.147217
254.7      457.0233   59.808384  8.881621000000001 0.3897660076618195 4.33087    2354.109375
254.8      449.7538   56.811771  15.322245  0.3206200003623962 4.256873   2373.735352
254.9      442.6252   56.021267  14.435506  0.2992810010910034 3.919618   2340.159912
255        436.3559   56.826012  13.511508  0.3216460049152374 3.336021   2267.615723
255.1      431.5659   59.709858  13.87371   0.3454189896583557 2.770439   2175.287842
255.2      428.6504   63.187172  14.247293  0.3485769927501678 2.454986   2095.273438
255.3      427.7077   66.139427  14.525669  0.3499099910259247 2.410305   2046.479858
255.4      428.5385   67.77132400000001 14.986205  0.357338011264801 2.407157   2031.296509
255.5      430.7117   67.50786600000001 15.421748  0.3701319992542267 2.401045   2029.691528
255.6      433.6718   65.832787  15.685732  0.3778409957885742 2.389929   2029.581787
255.7      436.8548   63.098267  16.095291  0.3875199854373932 2.377935   2028.580688
255.8      439.7819   61.15659   16.335083  0.3996439874172211 2.378426   2026.984619
255.9      442.1155   59.44355   16.534964  0.405104011297226 2.38614    2024.829468
256        443.6745   58.950626  16.781275  0.419297993183136 2.388045   2022.920532
256.1      444.4146   58.884903  16.9119    0.4237810075283051 2.40139    2023.251343
