~Version
 VERS              .         2.0                           : CWLS LOG ASCII STANDARD - VERSION 2.0
 WRAP              .         NO                            : ONE LINE PER DEPTH STEP
 DLM               .         SPACE                         : DELIMITING CHARACTER(SPACE TAB OR COMMA)
~Well Information
#_______________________________________________________________________________
#
#PARAMETER_NAME    .UNIT     VALUE                         : DESCRIPTION
#_______________________________________________________________________________
STRT               .M        0                             : First reference value
STOP               .M        427.9                         : Last reference value
STEP               .M        0.1                           : Step increment
NULL               .         -9999                         : Missing value
COMP               .                                       : Company
WELL               .         H                             : Well name
FLD                .                                       : Field
LOC                .                                       : Location
CNTY               .                                       : County
STAT               .                                       : State
CTRY               .                                       : Country
SRVC               .                                       : Service Company
DATE               .                                       : Date
API                .                                       : API number
~Parameter Information Block
#_______________________________________________________________________________
#
#PARAMETER_NAME    .UNIT     VALUE                         : DESCRIPTION
#_______________________________________________________________________________
SET                .         Logs                          : 
TLFamily_DEPT      .         Measured Depth                : 
TLFamily_DT        .         Compressional Slowness        : 
TLFamily_GR        .         Gamma Ray                     : 
TLFamily_ILD       .         Resistivity - Deep            : 
TLFamily_NPOR_LIM  .         Thermal Neutron Porosity Limestone: 
TLFamily_PEF       .         Photoelectric Factor          : 
TLFamily_RHO       .         Bulk Density                  : 
~Curve Information
#_______________________________________________________________________________
#
#LOGNAME           .UNIT     LOG_ID                        : DESCRIPTION
#_______________________________________________________________________________
DEPT               .M                                      : Logged depth 
DT                 .us/m                                   : Compressional Slowness 
GR                 .GAPI                                   : MGS Gamma Ray 
ILD                .OHMM                                   : Array Ind. One Res 85 
NPOR_LIM           .V/V                                    : Lmst Neutron Por. (PEN) 
PEF                .B/E                                    : PE 
RHO                .K/M3                                   : Compensated Density 
~Ascii
# ...
27.7       -9999      44.448818  19987.443359 0.3941380083560944 10.722961  1683.615967
27.8       -9999      46.059765  19990.757813 0.3850950002670288 10.658238  1678.69104
27.9       -9999      47.207146  19984.292969 0.3833209872245789 10.585807  1677.470093
28         -9999      49.658531  19974.896484 0.3781720101833344 10.474936  1679.882813
28.1       -9999      50.521431  19968.25   0.3882380127906799 10.390887  1685.595825
28.2       -9999      51.52948   19966.462891 0.3907530009746552 10.408785  1691.07666
28.3       -9999      51.285213  19963.617188 0.4021559953689575 10.534611  1694.486694
28.4       -9999      51.366871  19959.505859 0.4122990071773529 10.612137  1692.743652
28.5       -9999      50.768345  19950.751953 0.4126630127429962 10.709723  1687.616699
28.6       -9999      50.399776  19942.056641 0.4092549979686737 10.745355  1679.417114
28.7       -9999      49.983944  19934.013672 0.3993459939956665 10.818271  1672.215576
28.8       -9999      49.314648  19931.494141 0.4084239900112152 10.736892  1664.87146
28.9       -9999      48.864971  19932.6875 0.4193609952926636 10.681417  1660.147339
29         -9999      48.425865  19938.523438 0.4280549883842468 10.562903  1656.785278
29.1       -9999      47.503235  19946.851563 0.4326710104942322 10.526204  1652.22229
29.2       -9999      45.8895    19954.845703 0.4451870024204254 10.428945  1647.307495
29.3       -9999      43.180874  19962.960938 0.4702450037002563 10.393406  1644.050659
29.4       -9999      40.972294  19967.179688 0.4683279991149902 10.369061  1646.99585
29.5       -9999      38.976696  19968.822266 0.4675540030002594 10.422534  1656.665894
29.6       -9999      38.485184  19963.279297 0.4402869939804077 10.445022  1675.461426
29.7       -9999      38.787708  19958.007813 0.4439960122108459 10.454034  1699.354248
29.8       -9999      40.488506  19950.603516 0.4274510145187378 10.424361  1725.032104
29.9       -9999      43.113876  19949.271484 0.4140979945659637 10.33694   1745.922607
30         -9999      45.30006   19952.300781 0.4022589921951294 10.278367  1761.787964
30.1       -9999      46.495956  19965.0625 0.3903819918632507 10.238883  1771.35022
30.2       -9999      47.176708  19979.056641 0.3942399919033051 10.254852  1777.145142
30.3       -9999      48.459705  19995.230469 0.3971419930458069 10.306425  1780.202393
30.4       -9999      50.219566  20006.046875 0.3987300097942352 10.416129  1785.283813
30.5       -9999      51.297646  20014.855469 0.3906689882278442 10.503963  1789.892822
30.6       -9999      53.002064  20015.773438 0.3768230080604553 10.565916  1795.20166
30.7       -9999      53.547462  20014.988281 0.3891839981079102 10.602513  1797.730103
30.8       -9999      53.748222  20014.525391 0.39615398645401 10.615666  1798.716431
30.9       -9999      52.17638   20021.017578 0.3982569873332977 10.624812  1795.23645
31         -9999      52.036709  20028.582031 0.3956240117549896 10.660293  1786.433838
31.1       -9999      51.763985  20040.447266 0.3995690047740936 10.757403  1772.032715
31.2       -9999      53.190407  20060.03125 0.412651002407074 10.811998  1757.037964
31.3       -9999      54.489109  20085.033203 0.4140340089797974 10.815624  1742.145874
31.4       -9999      55.515579  20099.083984 0.4225699901580811 10.773513  1730.462524
31.5       -9999      55.388329  20095.626953 0.4244939982891083 10.718292  1721.864624
31.6       -9999      55.388226  20069.689453 0.4274919927120209 10.660589  1718.785522
31.7       -9999      56.006985  20028.095703 0.4217019975185394 10.662833  1717.10791
31.8       -9999      55.678688  19976.921875 0.4135740101337433 10.754811  1716.323364
31.9       -9999      55.760742  19942.554688 0.4177339971065521 10.851451  1713.952881
32         -9999      55.712486  19926.123047 0.427717000246048 10.85025   1712.182373
32.1       -9999      56.483765  19931.757813 0.4323329925537109 10.801892  1710.608276
32.2       -9999      55.821587  19947.121094 0.4226660132408142 10.694336  1712.461304
32.3       -9999      55.912457  19963.521484 0.4243859946727753 10.593134  1715.243896
32.4       -9999      55.312485  19963.763672 0.4278639853000641 10.493718  1717.058228
32.5       -9999      55.110794  19948.976563 0.4323779940605164 10.503082  1717.072876
32.6       -9999      54.080185  19932.625  0.4307219982147217 10.580232  1714.914673
32.7       -9999      54.27755   19921.349609 0.4479889869689941 10.680627  1710.45105
32.8       -9999      54.75275   19918.771484 0.4429279863834381 10.78867   1705.248413
32.9       -9999      55.563808  19926.884766 0.4356870055198669 10.881441  1701.717896
33         -9999      55.059566  19962.441406 0.4177620112895966 10.949787  1703.241943
33.1       -9999      54.072445  20014.091797 0.4089230000972748 10.937107  1706.814819
33.2       -9999      51.815102  20068.457031 0.4001849889755249 10.910388  1714.4021 
33.3       -9999      50.341702  20109.060547 0.3994719982147217 10.84099   1721.736572
33.4       -9999      48.586071  20134.240234 0.4058020114898682 10.800084  1729.770264
33.5       -9999      48.298458  20140.230469 0.4169659912586212 10.757888  1733.614624
33.6       -9999      48.630199  20123.933594 0.4224990010261536 10.760159  1741.883301
33.7       -9999      49.348629  20086.751953 0.4109669923782349 10.806289  1749.838379
33.8       -9999      49.501411  20046.248047 0.4015339910984039 10.877666  1759.179199
33.9       -9999      49.140755  20015.013672 0.3769769966602325 10.948993  1762.936401
34         -9999      48.495358  19992.666016 0.382176011800766 10.972226  1764.485229
34.1       -9999      47.358562  19984.064453 0.3797760009765625 10.946154  1757.876465
34.2       -9999      46.951645  19984.675781 0.3958219885826111 10.896285  1745.543457
34.3       -9999      45.678577  19997.273438 0.4044319987297058 10.853804  1728.827026
34.4       -9999      44.921005  20004.523438 0.4063510000705719 10.867267  1718.384399
34.5       -9999      43.52256   20002.447266 0.3924460113048553 10.931985  1712.480591
34.6       -9999      42.529545  19986.972656 0.3845770061016083 10.946158  1710.890503
34.7       -9999      41.421497  19962.320313 0.3830989897251129 10.911059  1708.636353
34.8       -9999      41.083416  19933.275391 0.3910329937934875 10.84146   1708.003662
34.9       -9999      41.798687  19910.539063 0.3932349979877472 10.757685  1706.02771
35         -9999      43.109676  19906.855469 0.4069010019302368 10.665334  1703.026855
35.1       -9999      44.839584  19918.666016 0.4147500097751617 10.59736   1700.622803
35.2       -9999      46.663658  19943.517578 0.4211080074310303 10.643296  1703.328369
35.3       -9999      48.763256  19964.705078 0.4010969996452332 10.70635   1712.052856
35.4       -9999      49.742374  19976.050781 0.390161007642746 10.780486  1723.109863
35.5       -9999      51.301094  19967.910156 0.3806299865245819 10.752719  1736.869995
35.6       -9999      52.172405  19944.298828 0.3918719887733459 10.756118  1749.406738
35.7       -9999      53.036739  19911.007813 0.3899529874324799 10.668913  1759.589355
35.8       -9999      53.033829  19882.199219 0.3875170052051544 10.606553  1767.001343
35.9       -9999      53.011703  19879.511719 0.3738430142402649 10.495727  1774.26001
36         -9999      52.960178  19911.464844 0.3771669864654541 10.465769  1784.849121
36.1       -9999      53.048351  19976.708984 0.3718850016593933 10.457151  1800.33252
36.2       -9999      53.302013  20071.583984 0.3648059964179993 10.469467  1822.192017
36.3       -9999      53.171719  20176.681641 0.3519720137119293 10.448007  1845.048462
36.4       -9999      53.858929  20253.259766 0.3435209989547729 10.436092  1870.330688
36.5       -9999      54.005268  20267.097656 0.3311780095100403 10.450886  1892.311279
36.6       -9999      53.632603  20218.279297 0.3201110064983368 10.515788  1911.221924
36.7       -9999      52.240505  20125.123047 0.3179379999637604 10.606985  1922.227905
36.8       -9999      50.629227  20010.542969 0.3282949924468994 10.686212  1932.415161
