~Version
 VERS              .         2.0                           : CWLS LOG ASCII STANDARD - VERSION 2.0
 WRAP              .         NO                            : ONE LINE PER DEPTH STEP
 DLM               .         SPACE                         : DELIMITING CHARACTER(SPACE TAB OR COMMA)
~Well Information
#_______________________________________________________________________________
#
#PARAMETER_NAME    .UNIT     VALUE                         : DESCRIPTION
#_______________________________________________________________________________
STRT               .M        0                             : First reference value
STOP               .M        427.9                         : Last reference value
STEP               .M        0.1                           : Step increment
NULL               .         -9999                         : Missing value
COMP               .                                       : Company
WELL               .         H                             : Well name
FLD                .                                       : Field
LOC                .                                       : Location
CNTY               .                                       : County
STAT               .                                       : State
CTRY               .                                       : Country
SRVC               .                                       : Service Company
DATE               .                                       : Date
API                .                                       : API number
~Parameter Information Block
#_______________________________________________________________________________
#
#PARAMETER_NAME    .UNIT     VALUE                         : DESCRIPTION
#_______________________________________________________________________________
SET                .         Logs                          : 
TLFamily_DEPT      .         Measured Depth                : 
TLFamily_DT        .         Compressional Slowness        : 
TLFamily_GR        .         Gamma Ray                     : 
TLFamily_ILD       .         Resistivity - Deep            : 
TLFamily_NPOR_LIM  .         Thermal Neutron Porosity Limestone: 
TLFamily_PEF       .         Photoelectric Factor          : 
TLFamily_RHO       .         Bulk Density                  : 
~Curve Information
#_______________________________________________________________________________
#
#LOGNAME           .UNIT     LOG_ID                        : DESCRIPTION
#_______________________________________________________________________________
DEPT               .M                                      : Logged depth 
DT                 .us/m                                   : Compressional Slowness 
GR                 .GAPI                                   : MGS Gamma Ray 
ILD                .OHMM                                   : Array Ind. One Res 85 
NPOR_LIM           .V/V                                    : Lmst Neutron Por. (PEN) 
PEF                .B/E                                    : PE 
RHO                .K/M3                                   : Compensated Density 
~Ascii
# ...
302.5      427.6475   93.687973  5.547334   0.4970259964466095 2.799105   2193.935303
302.6      430.2698   91.274361  5.343406   0.5033450126647949 2.787887   2183.628174
302.7      432.7148   90.426537  5.034554   0.5042030215263367 2.760934   2174.225098
302.8      434.904    89.528633  4.979254   0.5059660077095032 2.745947   2170.342529
302.9      436.7861   89.711212  4.957866   0.5053629875183105 2.730706   2170.718506
303        438.3415   89.559074  4.74587    0.5013149976730347 2.738852   2174.376709
303.1      439.5822   90.36189299999999 4.560846   0.4985750019550323 2.73067    2178.498535
303.2      440.5484   90.55423   4.456811   0.5076450109481812 2.712394   2185.179199
303.3      441.3005   89.77591700000001 4.653806   0.5161460041999817 2.690319   2189.047852
303.4      441.9107   88.772018  5.009442   0.520222008228302 2.699299   2189.938477
303.5      442.4549   88.15428199999999 5.619717   0.5043830275535583 2.716896   2189.772217
303.6      443.0039   87.48848   5.935725   0.4792279899120331 2.750653   2192.522217
303.7      443.6162   87.618385  5.859733   0.4634180068969727 2.777492   2194.549316
303.8      444.33     88.009102  5.825949   0.4568969905376434 2.80364    2194.210205
303.9      445.1563   89.760345  5.679354   0.4609520137310028 2.791547   2192.841309
304        446.0739   90.01546500000001 5.293395   0.4723869860172272 2.767457   2192.719482
304.1      447.0271   90.970207  4.845216   0.4734430015087128 2.73202    2191.851807
304.2      447.929    90.47056600000001 4.535232   0.4872620105743408 2.694889   2188.428711
304.3      448.6688   89.85546100000001 4.527677   0.4906220138072968 2.646647   2183.025391
304.4      449.123    86.909683  5.029012   0.4994069933891296 2.610205   2172.879883
304.5      449.1692   83.571434  6.21947    0.4809620082378387 2.615374   2158.398926
304.6      448.6998   79.554703  7.283103   0.4448620080947876 2.639125   2140.131836
304.7      447.6367   77.177391  7.966923   0.4086219966411591 2.659119   2124.348145
304.8      445.9454   75.772919  8.182930000000001 0.3797979950904846 2.658861   2112.610352
304.9      443.6483   74.880775  7.850352   0.3719649910926819 2.657011   2106.629883
305        440.8365   74.58652499999999 8.105033000000001 0.3715380132198334 2.621053   2108.202637
305.1      437.6757   74.743927  8.538297   0.3831659853458405 2.560055   2118.717041
305.2      434.4013   75.178696  8.533227999999999 0.3819800019264221 2.505764   2132.324951
305.3      431.2995   75.333771  8.262841   0.3912500143051147 2.474857   2143.915283
305.4      428.6763   75.941948  7.973906   0.3940719962120056 2.4535     2155.520752
305.5      426.8188   77.001999  7.829908   0.4045099914073944 2.434976   2162.761963
305.6      425.9567   78.67250799999999 7.792854   0.3922730088233948 2.456729   2164.6604 
305.7      426.2333   79.11880499999999 7.703377   0.3797810077667236 2.512986   2159.885498
305.8      427.6915   79.448471  7.48432    0.3689810037612915 2.574634   2162.044434
305.9      430.2745   79.474068  7.082704   0.3715800046920776 2.620288   2166.200928
306        433.8366   81.44528200000001 6.354007   0.3876579999923706 2.657572   2167.014893
306.1      438.16     83.439804  5.14346    0.4160700142383575 2.684098   2160.072754
306.2      442.9735   85.848511  3.922711   0.4573380053043365 2.697702   2154.285889
306.3      447.9738   87.80027800000001 3.148221   0.5003389716148376 2.703897   2147.497314
306.4      452.8498   88.743752  2.824956   0.5362139940261841 2.69772    2140.666504
306.5      457.312    87.954491  2.678665   0.5651749968528748 2.677788   2136.948242
306.6      461.1217   86.30978399999999 2.639618   0.5830860137939453 2.65427    2138.490479
306.7      464.1162   85.889076  2.646573   0.5946199893951416 2.642725   2142.945801
306.8      466.2218   86.617363  2.806862   0.5889949798583984 2.649317   2147.311279
306.9      467.452    87.596146  3.189808   0.5822499990463257 2.655855   2152.130615
307        467.8907   88.209221  3.752103   0.5442699790000916 2.657932   2158.525635
307.1      467.6641   88.363152  4.627888   0.5160319805145264 2.639712   2163.533447
307.2      466.9085   87.34114099999999 5.527227   0.4612280130386353 2.597503   2164.729004
307.3      465.7431   84.760132  5.956736   0.4360730051994324 2.544124   2161.19458
307.4      464.2464   82.845215  6.316329   0.3979339897632599 2.503948   2153.508545
307.5      462.4297   81.741348  6.804513   0.3856500089168549 2.478841   2147.500488
307.6      460.2065   81.801224  7.174292   0.3739700019359589 2.46494    2144.075684
307.7      457.3725   81.403778  7.422231   0.3838970065116882 2.454384   2142.766113
307.8      453.6135   81.900482  7.644058   0.3837940096855164 2.450096   2139.087402
307.9      448.5522   81.709541  7.888443   0.3889870047569275 2.447774   2131.946777
308        441.8406   81.155235  8.224577999999999 0.3971549868583679 2.447448   2119.564941
308.1      433.2907   79.216797  8.895743   0.3893919885158539 2.456086   2109.113525
308.2      423.0014   76.917107  9.966570000000001 0.3710210025310516 2.63499    2114.327881
308.3      411.4344   72.968025  10.370967  0.3333309888839722 3.000942   2149.49585
308.4      399.4014   69.07313499999999 10.320907  0.3170959949493408 3.456711   2220.246826
308.5      387.9594   65.150093  12.638076  0.2901619970798492 3.819782   2311.32251
308.6      378.2348   62.355648  20.792786  0.252703994512558 4.016317   2393.586182
308.7      371.2178   61.053185  27.019815  0.205033004283905 3.942124   2442.999023
308.8      367.5772   61.737099  24.898472  0.1764039993286133 3.595966   2429.795166
308.9      367.54     64.10762800000001 17.278807  0.1934469938278198 3.133586   2366.496338
309        370.8607   66.097672  10.987176  0.2474360018968582 2.761269   2279.399658
309.1      376.8811   67.20536800000001 9.282648999999999 0.3302119970321655 2.554243   2197.98584
309.2      384.6679   68.21534699999999 8.898830999999999 0.3853679895401001 2.447998   2139.95459
309.3      393.1923   68.617302  8.815942   0.4255070090293884 2.432219   2111.088379
309.4      401.51     69.77085099999999 8.744987999999999 0.4333989918231964 2.449106   2100.483154
309.5      408.9026   70.370689  8.734061000000001 0.4563519954681396 2.466833   2098.962646
309.6      414.9523   71.612495  8.686210000000001 0.4686279892921448 2.48051    2099.502441
309.7      419.5392   72.65361799999999 8.611916000000001 0.4721870124340057 2.489186   2099.665039
309.8      422.7729   74.072624  8.489494000000001 0.4619280099868774 2.492356   2100.371094
309.9      424.8933   74.205536  8.344823   0.4632090032100677 2.499103   2101.907959
310        426.1812   74.444023  8.335208   0.4605120122432709 2.50853    2105.503174
310.1      426.8965   74.19703699999999 8.308007999999999 0.4647819995880127 2.509777   2109.917969
310.2      427.2471   73.756371  8.360816   0.4526680111885071 2.494755   2113.293213
310.3      427.3857   72.67092100000001 8.380801   0.4570159912109375 2.470261   2111.977783
310.4      427.4217   70.753288  8.364973000000001 0.4669969975948334 2.437194   2108.883545
310.5      427.4355   68.38020299999999 8.395225999999999 0.4586670100688934 2.413167   2103.279541
310.6      427.4807   66.446533  8.468306999999999 0.4431430101394653 2.394595   2097.632568
310.7      427.5826   65.87243700000001 8.460732999999999 0.418861985206604 2.397703   2092.504395
310.8      427.7354   66.268021  8.47298    0.4125489890575409 2.396956   2092.543945
310.9      427.8965   67.084869  8.402532000000001 0.4150950014591217 2.394478   2094.191162
311        427.9805   67.51398500000001 8.350248000000001 0.4181599915027618 2.381795   2096.868408
311.1      427.8552   68.11273199999999 8.41513    0.4277040064334869 2.376098   2097.818848
311.2      427.3473   67.42746   8.549462   0.4313069880008698 2.369769   2099.516846
311.3      426.262    67.207054  8.601499   0.4276730120182037 2.375976   2100.928223
311.4      424.4167   67.134506  8.530442000000001 0.416238009929657 2.377886   2100.178223
