~Version
 VERS              .         2.0                           : CWLS LOG ASCII STANDARD - VERSION 2.0
 WRAP              .         NO                            : ONE LINE PER DEPTH STEP
 DLM               .         SPACE                         : DELIMITING CHARACTER(SPACE TAB OR COMMA)
~Well Information
#_______________________________________________________________________________
#
#PARAMETER_NAME    .UNIT     VALUE                         : DESCRIPTION
#_______________________________________________________________________________
STRT               .M        0                             : First reference value
STOP               .M        427.9                         : Last reference value
STEP               .M        0.1                           : Step increment
NULL               .         -9999                         : Missing value
COMP               .                                       : Company
WELL               .         H                             : Well name
FLD                .                                       : Field
LOC                .                                       : Location
CNTY               .                                       : County
STAT               .                                       : State
CTRY               .                                       : Country
SRVC               .                                       : Service Company
DATE               .                                       : Date
API                .                                       : API number
~Parameter Information Block
#_______________________________________________________________________________
#
#PARAMETER_NAME    .UNIT     VALUE                         : DESCRIPTION
#_______________________________________________________________________________
SET                .         Logs                          : 
TLFamily_DEPT      .         Measured Depth                : 
TLFamily_DT        .         Compressional Slowness        : 
TLFamily_GR        .         Gamma Ray                     : 
TLFamily_ILD       .         Resistivity - Deep            : 
TLFamily_NPOR_LIM  .         Thermal Neutron Porosity Limestone: 
TLFamily_PEF       .         Photoelectric Factor          : 
TLFamily_RHO       .         Bulk Density                  : 
~Curve Information
#_______________________________________________________________________________
#
#LOGNAME           .UNIT     LOG_ID                        : DESCRIPTION
#_______________________________________________________________________________
DEPT               .M                                      : Logged depth 
DT                 .us/m                                   : Compressional Slowness 
GR                 .GAPI                                   : MGS Gamma Ray 
ILD                .OHMM                                   : Array Ind. One Res 85 
NPOR_LIM           .V/V                                    : Lmst Neutron Por. (PEN) 
PEF                .B/E                                    : PE 
RHO                .K/M3                                   : Compensated Density 
~Ascii
# ...
55.3       -9999      53.587448  20038.414063 0.4356380105018616 10.786754  1797.453125
55.4       -9999      54.84306   20051.431641 0.4200640022754669 10.781775  1796.326904
55.5       -9999      55.726364  20053.416016 0.429843008518219 10.773301  1794.32959
55.6       -9999      56.256596  20040.886719 0.4257839918136597 10.712324  1788.01062
55.7       -9999      57.940041  20005.892578 0.4460830092430115 10.722696  1778.550659
55.8       -9999      59.444962  19960.966797 0.4471110105514526 10.753129  1766.211182
55.9       -9999      62.059391  19928.511719 0.4583700001239777 10.816665  1754.381226
56         -9999      65.51050600000001 19912.617188 0.4536210000514984 10.844401  1744.908569
56.1       -9999      69.878395  19909.888672 0.4531430006027222 10.871825  1737.424927
56.2       -9999      73.267044  19925.347656 0.4521990120410919 10.834338  1733.343262
56.3       -9999      76.004623  19956.679688 0.4716199934482574 10.814191  1727.790894
56.4       -9999      77.82083900000001 19997.167969 0.4865419864654541 10.798667  1723.064087
56.5       -9999      79.575653  20032.642578 0.5006470084190369 10.765334  1718.6073 
56.6       -9999      80.779366  20062.96875 0.5021759867668152 10.741286  1718.209473
56.7       -9999      81.885544  20077.787109 0.4978899955749512 10.74341   1717.177124
56.8       -9999      84.11443300000001 20072.251953 0.4997079968452454 10.761436  1716.790283
56.9       -9999      86.978905  20054.693359 0.5047209858894348 10.730373  1716.737183
57         -9999      89.646736  20041.994141 0.5204510092735291 10.743855  1718.152954
57.1       -9999      91.037575  20033.75   0.5169389843940735 10.81214   1717.824585
57.2       -9999      91.959709  20032.847656 0.5258309841156006 10.838002  1720.491333
57.3       -9999      92.637405  20036.095703 0.522786021232605 10.807798  1723.747925
57.4       -9999      91.80285600000001 20042.109375 0.5327079892158508 10.759122  1728.895142
57.5       -9999      90.683105  20036.414063 0.5229700207710266 10.73227   1730.952881
57.6       -9999      88.376831  20018.363281 0.5192599892616272 10.618425  1736.109131
57.7       -9999      85.314575  19996.339844 0.5214689970016479 10.54494   1737.323975
57.8       -9999      80.52216300000001 19981.835938 0.5327680110931396 10.470279  1741.108032
57.9       -9999      75.75889599999999 19977.421875 0.5371710062026978 10.459815  1747.573486
58         -9999      72.492424  19976.654297 0.5422130227088928 10.441849  1765.957642
58.1       -9999      70.29541   19978.945313 0.5336629748344421 10.478229  1791.406128
58.2       -9999      69.31895400000001 19976.611328 0.5222280025482178 10.501435  1824.238037
58.3       -9999      67.50881200000001 19968.591797 0.5034580230712891 10.554145  1857.062012
58.4       -9999      66.787239  19955.019531 0.4968349933624268 10.593997  1883.900513
58.5       -9999      65.227554  19948.820313 0.4896369874477386 10.651651  1898.787231
58.6       -9999      65.97172500000001 19948.513672 0.48157998919487 10.67814   1906.701294
58.7       -9999      66.58403800000001 19956.619141 0.4713949859142303 10.700665  1911.253784
58.8       -9999      68.57933   19967.482422 0.4796270132064819 10.697532  1913.593262
58.9       -9999      70.380318  19980.300781 0.4833959937095642 10.665128  1912.675781
59         -9999      71.337677  19986.380859 0.4874730110168457 10.628448  1910.157104
59.1       -9999      71.495918  19987.941406 0.4786570072174072 10.55375   1904.078857
59.2       -9999      70.21159400000001 19988.388672 0.4816929996013641 10.511987  1897.403687
59.3       -9999      69.71790300000001 19997.089844 0.4791820049285889 10.451406  1892.458862
59.4       -9999      69.18817900000001 20018.146484 0.4748939871788025 10.440397  1895.319214
59.5       -9999      70.115616  20044.5    0.4704959988594055 10.349463  1901.208618
59.6       -9999      69.284599  20068.1875 0.466374009847641 10.311603  1909.104248
59.7       -9999      69.836151  20071.96875 0.4709640145301819 10.254008  1913.579224
59.8       -9999      68.994461  20060.980469 0.4685980081558228 10.294889  1915.61084
59.9       -9999      69.00179300000001 20028.783203 0.4647510051727295 10.305246  1912.058228
60         -9999      67.491173  19985.695313 0.45414799451828 10.398071  1908.773438
60.1       -9999      67.015739  19931.478516 0.4499390125274658 10.470788  1905.61731
60.2       -9999      66.717705  19879.212891 0.4387960135936737 10.583975  1906.050293
60.3       -9999      67.142235  19833.755859 0.4395459890365601 10.602378  1907.392944
60.4       -9999      67.75121300000001 19819.542969 0.4396359920501709 10.598666  1909.676514
60.5       -9999      69.02842699999999 19846.273438 0.44827601313591 10.570646  1912.511353
60.6       -9999      70.676109  19912.736328 0.4491519927978516 10.59513   1912.747559
60.7       -9999      71.64772000000001 20022.576172 0.4457730054855347 10.565472  1911.873535
60.8       -9999      72.559242  20160.462891 0.4442340135574341 10.510327  1906.224854
60.9       -9999      71.94021600000001 20288.865234 0.4407190084457397 10.490847  1900.83313
61         -9999      71.625359  20361.847656 0.4478690028190613 10.485987  1893.090454
61.1       -9999      70.81922900000001 20369.201172 0.4499189853668213 10.464872  1889.367554
61.2       -9999      71.12331399999999 20310.050781 0.4509299993515015 10.458209  1883.760498
61.3       -9999      71.002411  20207.941406 0.451227992773056 10.523292  1882.368652
61.4       -9999      71.37365   20089.460938 0.4606190025806427 10.577     1878.691895
61.5       -9999      70.70839700000001 19998.050781 0.4614180028438568 10.628277  1877.266479
61.6       -9999      70.41126300000001 19945.126953 0.4601989984512329 10.673704  1870.185791
61.7       -9999      69.86545599999999 19924.605469 0.4593159854412079 10.754222  1864.292358
61.8       -9999      69.803696  19919.341797 0.4705860018730164 10.838189  1857.030762
61.9       -9999      69.97891199999999 19913.900391 0.4724729955196381 10.963026  1852.125122
62         -9999      70.34023999999999 19903.439453 0.4680610001087189 11.060102  1846.779175
62.1       -9999      70.579689  19888.927734 0.4722920060157776 11.10236   1843.252319
62.2       -9999      70.152176  19874.064453 0.4771789908409119 11.068431  1838.666382
62.3       -9999      68.876091  19854.894531 0.4765999913215637 11.018912  1832.009399
62.4       -9999      67.78373000000001 19844.628906 0.4639100134372711 10.963079  1823.686401
62.5       -9999      67.176918  19843.625  0.4654310047626495 10.910022  1813.57959
62.6       -9999      66.329018  19855.957031 0.4766600131988525 10.899723  1804.078369
62.7       -9999      65.78124200000001 19876.783203 0.4906629920005798 10.940207  1794.435913
62.8       -9999      66.56849699999999 19904.365234 0.4808329939842224 10.980581  1786.628662
62.9       -9999      67.77803   19929.544922 0.4773859977722168 10.975308  1780.660767
63         -9999      68.808815  19944.15625 0.4655300080776215 10.940836  1774.372803
63.1       -9999      68.683769  19944.160156 0.4721519947052002 10.926869  1768.083862
63.2       -9999      68.62215399999999 19922.763672 0.4708839952945709 10.926458  1759.96814
63.3       -9999      67.83064299999999 19888.076172 0.4825290143489838 10.926142  1752.823608
63.4       -9999      67.346863  19842.541016 0.4772340059280396 10.955995  1745.286987
63.5       -9999      68.19639599999999 19798.695313 0.4915139973163605 11.004809  1738.414795
63.6       -9999      71.31098900000001 19751.455078 0.4803450107574463 11.003077  1731.42041
63.7       -9999      73.575287  19700.888672 0.4876979887485504 10.955348  1725.442505
63.8       -9999      75.531143  19642.257813 0.4738799929618835 10.902309  1721.57019
63.9       -9999      76.349487  19589.150391 0.4864970147609711 10.864272  1721.724976
64         -9999      75.89299800000001 19603.5    0.4937329888343811 10.814592  1728.608765
64.09999999999999 -9999      73.54387699999999 19805.804688 0.5053330063819885 10.746039  1739.148682
