~Version
 VERS              .         2.0                           : CWLS LOG ASCII STANDARD - VERSION 2.0
 WRAP              .         NO                            : ONE LINE PER DEPTH STEP
 DLM               .         SPACE                         : DELIMITING CHARACTER(SPACE TAB OR COMMA)
~Well Information
#_______________________________________________________________________________
#
#PARAMETER_NAME    .UNIT     VALUE                         : DESCRIPTION
#_______________________________________________________________________________
STRT               .M        0                             : First reference value
STOP               .M        427.9                         : Last reference value
STEP               .M        0.1                           : Step increment
NULL               .         -9999                         : Missing value
COMP               .                                       : Company
WELL               .         H                             : Well name
FLD                .                                       : Field
LOC                .                                       : Location
CNTY               .                                       : County
STAT               .                                       : State
CTRY               .                                       : Country
SRVC               .                                       : Service Company
DATE               .                                       : Date
API                .                                       : API number
~Parameter Information Block
#_______________________________________________________________________________
#
#PARAMETER_NAME    .UNIT     VALUE                         : DESCRIPTION
#_______________________________________________________________________________
SET                .         Logs                          : 
TLFamily_DEPT      .         Measured Depth                : 
TLFamily_DT        .         Compressional Slowness        : 
TLFamily_GR        .         Gamma Ray                     : 
TLFamily_ILD       .         Resistivity - Deep            : 
TLFamily_NPOR_LIM  .         Thermal Neutron Porosity Limestone: 
TLFamily_PEF       .         Photoelectric Factor          : 
TLFamily_RHO       .         Bulk Density                  : 
~Curve Information
#_______________________________________________________________________________
#
#LOGNAME           .UNIT     LOG_ID                        : DESCRIPTION
#_______________________________________________________________________________
DEPT               .M                                      : Logged depth 
DT                 .us/m                                   : Compressional Slowness 
GR                 .GAPI                                   : MGS Gamma Ray 
ILD                .OHMM                                   : Array Ind. One Res 85 
NPOR_LIM           .V/V                                    : Lmst Neutron Por. (PEN) 
PEF                .B/E                                    : PE 
RHO                .K/M3                                   : Compensated Density 
~Ascii
# ...
413.4      375.4495   136.651764 4.923894   0.3338789939880371 4.001276   2351.613525
413.5      371.854    137.009552 4.957083   0.324739009141922 4.423995   2357.23584
413.6      365.48     137.161575 5.231051   0.2874819934368134 4.667328   2358.964355
413.7      356.5516   135.739944 6.065163   0.2557879984378815 4.693644   2365.17041
413.8      345.3897   134.513428 7.770658   0.2282209992408752 4.546872   2375.949707
413.9      332.4388   132.142273 9.893814000000001 0.2124640047550201 4.419708   2392.549316
414        318.2856   131.537384 11.623658  0.1973509937524796 4.380407   2415.474854
414.1      303.6467   130.686127 12.36318   0.1827639937400818 4.412573   2441.327148
414.2      289.3095   131.448837 13.180901  0.1705420017242432 4.455511   2464.391602
414.3      276.0293   131.899902 14.642068  0.1600349992513657 4.4969     2482.832275
414.4      264.4184   133.562164 16.281843  0.15242700278759 4.514028   2498.008057
414.5      254.8591   133.879486 18.000486  0.1477700024843216 4.511147   2501.074707
414.6      247.4662   133.55072  19.560946  0.1460960060358047 4.445571   2484.986572
414.7      242.1064   132.285461 18.362873  0.1477520018815994 4.311687   2453.157227
414.8      238.4621   131.340637 12.509151  0.1523090004920959 4.212198   2417.405762
414.9      236.1172   130.515778 7.71148    0.159514993429184 4.181495   2393.250732
415        234.6387   130.623886 7.640768   0.1641079932451248 4.246933   2386.614014
415.1      233.6361   131.543365 14.688327  0.1647460013628006 4.337163   2403.499512
415.2      232.7964   132.599716 21.603949  0.1592279970645905 4.469976   2436.506104
415.3      231.9006   133.169708 22.87993   0.1511979997158051 4.556452   2478.951904
415.4      230.8235   133.500015 24.554026  0.1417520046234131 4.579095   2514.467529
415.5      229.5243   -9999      28.071817  0.1334989964962006 4.500774   2540.104248
415.6      228.0329   -9999      25.255945  0.1281830072402954 4.423485   2554.713623
415.7      226.4295   -9999      22.017368  0.126240000128746 4.379492   2566.40625
415.8      224.8186   -9999      24.103123  0.1265950053930283 4.372685   2573.723145
415.9      223.3046   -9999      29.242022  0.1278689950704575 4.386282   2576.788086
416        221.9712   -9999      32.008762  0.1290940046310425 4.406006   2575.977295
416.1      220.87     -9999      32.734718  0.1300709992647171 4.468326   2575.962646
416.2      220.0179   -9999      30.216995  0.1308470070362091 4.524185   2576.695801
416.3      219.4012   -9999      28.523893  0.1315349936485291 4.593635   2580.749756
416.4      218.9864   -9999      27.301399  0.1321399956941605 4.662756   2585.157715
416.5      218.7309   -9999      23.753454  0.1326500028371811 4.748975   2590.16748
416.6      218.5923   -9999      21.288994  0.1330419927835464 4.785728   2594.178711
416.7      218.5331   -9999      23.176647  0.1332850009202957 4.803525   2593.618408
416.8      218.5229   -9999      25.739149  0.1333159953355789 4.797103   2588.299072
416.9      218.5365   -9999      25.642744  0.1331859976053238 4.79942    2580.317627
417        218.5521   -9999      22.022312  0.1329630017280579 4.794148   2574.711182
417.1      218.5491   -9999      18.525011  0.1327909976243973 4.8075     2570.798828
417.2      218.5078   -9999      19.38868   0.1327189952135086 4.829965   2569.405762
417.3      218.4112   -9999      22.370762  0.1329379975795746 4.859305   2569.849121
417.4      218.2479   -9999      24.022301  0.1335179954767227 4.86249    2571.598877
417.5      218.014    -9999      22.481119  0.1344649940729141 4.855796   2572.782959
417.6      217.715    -9999      21.826397  0.1355679929256439 4.825713   2571.601807
417.7      217.3639   -9999      19.27397   0.1366299986839294 4.789956   2572.036377
417.8      216.9766   -9999      15.929616  0.1374610066413879 4.757527   2573.539307
417.9      216.565    -9999      15.471298  0.1379929929971695 4.7281     2578.285156
418        216.1289   -9999      18.943882  0.1382319927215576 4.681074   2581.013672
418.1      215.6502   -9999      21.861561  0.1383039951324463 4.623552   2580.866211
418.2      215.0902   -9999      25.166693  -9999      4.577727   2579.140137
418.3      214.3925   -9999      30.201458  -9999      4.553018   2575.356201
418.4      213.491    -9999      37.23246   -9999      4.528575   2574.06665
418.5      212.3215   -9999      37.329819  -9999      4.534489   2572.289307
418.6      210.8361   -9999      29.902346  -9999      4.563671   2574.250977
418.7      209.0177   -9999      24.626528  -9999      4.596553   2573.804688
418.8      206.8909   -9999      22.479937  -9999      4.589518   2575.996338
418.9      204.5266   -9999      28.291639  -9999      4.584457   2575.209229
419        202.0394   -9999      45.602631  -9999      4.58654    2576.364258
419.1      199.5747   -9999      78.086754  -9999      4.588306   2574.55542
419.2      197.2878   -9999      107.210411 -9999      4.569347   2573.947266
419.3      195.3199   -9999      118.903625 -9999      4.551974   2571.728271
419.4      193.7798   -9999      132.046707 -9999      4.543706   2569.962891
419.5      192.733    -9999      141.030243 -9999      4.544096   2568.760742
419.6      192.2033   -9999      150.072281 -9999      4.550842   2570.243408
419.7      192.1825   -9999      122.787033 -9999      4.5675     2570.958008
419.8      192.6435   -9999      73.86133599999999 -9999      4.575584   2571.966553
419.9      193.5515   -9999      46.65823   -9999      4.565054   2569.753418
420        -9999      -9999      34.494499  -9999      4.533548   2566.570801
420.1      -9999      -9999      26.857431  -9999      4.50073    2561.305176
420.2      -9999      -9999      22.5895    -9999      4.475934   2557.637207
420.3      -9999      -9999      21.603659  -9999      4.465809   2553.492188
420.4      -9999      -9999      22.173538  -9999      4.472063   2551.790039
420.5      -9999      -9999      26.900209  -9999      4.487877   2550.26709
420.6      -9999      -9999      45.849976  -9999      4.49903    2551.427002
420.7      -9999      -9999      80.20018   -9999      -9999      -9999     
420.8      -9999      -9999      78.97202299999999 -9999      -9999      -9999     
420.9      -9999      -9999      57.764412  -9999      -9999      -9999     
421        -9999      -9999      41.156395  -9999      -9999      -9999     
421.1      -9999      -9999      35.562195  -9999      -9999      -9999     
421.2      -9999      -9999      34.90897   -9999      -9999      -9999     
421.3      -9999      -9999      35.172565  -9999      -9999      -9999     
421.4      -9999      -9999      35.507172  -9999      -9999      -9999     
421.5      -9999      -9999      36.005756  -9999      -9999      -9999     
421.6      -9999      -9999      36.622978  -9999      -9999      -9999     
421.7      -9999      -9999      37.164452  -9999      -9999      -9999     
421.8      -9999      -9999      37.710785  -9999      -9999      -9999     
421.9      -9999      -9999      38.289898  -9999      -9999      -9999     
422        -9999      -9999      38.726521  -9999      -9999      -9999     
422.1      -9999      -9999      39.172707  -9999      -9999      -9999     
422.2      -9999      -9999      39.720287  -9999      -9999      -9999     
422.3      -9999      -9999      40.211002  -9999      -9999      -9999     
422.4      -9999      -9999      36.832901  -9999      -9999      -9999     
422.5      -9999      -9999      35.227306  -9999      -9999      -9999     
422.6      -9999      -9999      33.648998  -9999      -9999      -9999     
422.7      -9999      -9999      32.158154  -9999      -9999      -9999     
422.8      -9999      -9999      30.872477  -9999      -9999      -9999     
422.9      -9999      -9999      29.813311  -9999      -9999      -9999     
423        -9999      -9999      29.086454  -9999      -9999      -9999     
423.1      -9999      -9999      28.630287  -9999      -9999      -9999     
