~Version
 VERS              .         2.0                           : CWLS LOG ASCII STANDARD - VERSION 2.0
 WRAP              .         NO                            : ONE LINE PER DEPTH STEP
 DLM               .         SPACE                         : DELIMITING CHARACTER(SPACE TAB OR COMMA)
~Well Information
#_______________________________________________________________________________
#
#PARAMETER_NAME    .UNIT     VALUE                         : DESCRIPTION
#_______________________________________________________________________________
STRT               .M        0                             : First reference value
STOP               .M        427.9                         : Last reference value
STEP               .M        0.1                           : Step increment
NULL               .         -9999                         : Missing value
COMP               .                                       : Company
WELL               .         H                             : Well name
FLD                .                                       : Field
LOC                .                                       : Location
CNTY               .                                       : County
STAT               .                                       : State
CTRY               .                                       : Country
SRVC               .                                       : Service Company
DATE               .                                       : Date
API                .                                       : API number
~Parameter Information Block
#_______________________________________________________________________________
#
#PARAMETER_NAME    .UNIT     VALUE                         : DESCRIPTION
#_______________________________________________________________________________
SET                .         Logs                          : 
TLFamily_DEPT      .         Measured Depth                : 
TLFamily_DT        .         Compressional Slowness        : 
TLFamily_GR        .         Gamma Ray                     : 
TLFamily_ILD       .         Resistivity - Deep            : 
TLFamily_NPOR_LIM  .         Thermal Neutron Porosity Limestone: 
TLFamily_PEF       .         Photoelectric Factor          : 
TLFamily_RHO       .         Bulk Density                  : 
~Curve Information
#_______________________________________________________________________________
#
#LOGNAME           .UNIT     LOG_ID                        : DESCRIPTION
#_______________________________________________________________________________
DEPT               .M                                      : Logged depth 
DT                 .us/m                                   : Compressional Slowness 
GR                 .GAPI                                   : MGS Gamma Ray 
ILD                .OHMM                                   : Array Ind. One Res 85 
NPOR_LIM           .V/V                                    : Lmst Neutron Por. (PEN) 
PEF                .B/E                                    : PE 
RHO                .K/M3                                   : Compensated Density 
~Ascii
# ...
329.7      400.1204   84.113274  4.126867   0.4043470025062561 2.516483   2156.478516
329.8      408.4451   89.702293  3.778155   0.4325099885463715 2.502869   2164.743652
329.9      416.6099   92.21302   3.275062   0.4651739895343781 2.485615   2169.547119
330        424.1746   91.276695  3.111568   0.5001659989356995 2.457875   2165.165527
330.1      430.849    87.600014  3.273357   0.5030369758605957 2.431727   2153.351807
330.2      436.5159   82.335831  4.092102   0.4759919941425323 2.411689   2143.488525
330.3      441.2407   77.822655  4.740091   0.4294320046901703 2.393333   2136.508301
330.4      445.2657   74.454277  4.919154   0.3859989941120148 2.372701   2129.368408
330.5      448.9894   73.19924899999999 5.138771   0.3572770059108734 2.338445   2122.119141
330.6      452.9228   71.371864  5.239317   0.3451299965381622 2.327899   2115.028564
330.7      457.6089   71.12567900000001 4.95084    0.3436489999294281 2.331809   2111.98999
330.8      463.5114   71.174057  4.630724   0.3526250123977661 2.353957   2116.568848
330.9      470.8963   72.94008599999999 3.932956   0.3592680096626282 2.376521   2126.569092
331        479.7443   74.902985  3.011909   0.4004850089550018 2.412246   2134.235596
331.1      489.7248   78.156448  2.678333   0.4844500124454498 2.432815   2138.679443
331.2      500.2489   81.07558400000001 2.590605   0.5540609955787659 2.431188   2140.585449
331.3      510.589    82.871826  2.727548   0.571278989315033 2.413001   2135.868896
331.4      520.0269   84.161621  2.780441   0.552573025226593 2.387375   2128.797119
331.5      527.9852   85.83560900000001 2.777657   0.5499780178070068 2.370624   2124.42627
331.6      534.1075   86.705116  2.825715   0.5747190117835999 2.352773   2125.311035
331.7      538.2729   85.76152   2.633246   0.5790209770202637 2.333162   2119.94751
331.8      540.5559   81.60054   2.711982   0.5942299962043762 2.279726   2103.238525
331.9      541.1503   74.367531  3.158518   0.5842670202255249 2.196134   2074.040527
332        540.2856   63.843811  5.587532   0.5154770016670227 2.085233   2036.561157
332.1      538.1609   53.34367   9.424094999999999 0.3818889856338501 1.971285   2001.219482
332.2      534.9099   44.16185   9.490152   0.2533130049705505 1.887429   1976.956299
332.3      530.5992   39.250134  7.597991   0.1950159966945648 1.850555   1970.916382
332.4      525.2513   36.435642  6.482753   0.1914090067148209 1.854269   1980.406006
332.5      518.8876   36.16634   5.999951   0.2014279961585999 1.867849   1998.494751
332.6      511.5728   36.09063   5.570681   0.2182179987430573 1.889159   2014.62854
332.7      503.4431   36.669479  5.380468   0.2324459999799728 1.895354   2026.234131
332.8      494.7131   37.053127  5.31247    0.2500729858875275 1.892694   2033.692261
332.9      485.6585   37.266895  5.379028   0.2657879889011383 1.874499   2039.225708
333        476.582    38.017796  5.441868   0.2726849913597107 1.861771   2045.605713
333.1      467.773    39.414845  5.420265   0.2807109951972961 1.85357    2052.80249
333.2      459.4734   39.872082  5.400733   0.2838949859142303 1.852895   2059.391602
333.3      451.8574   39.37294   5.812755   0.2919969856739044 1.84882    2062.895508
333.4      445.0275   38.801167  5.609508   0.3055860102176666 1.848981   2063.770996
333.5      439.0217   39.425907  5.242638   0.3129169940948486 1.852728   2062.080811
333.6      433.8289   39.388103  5.43693    0.3167510032653809 1.850836   2058.584717
333.7      429.4051   39.329773  6.219947   0.3040379881858826 1.839539   2055.968018
333.8      425.6873   38.614895  7.328541   0.296999990940094 1.825974   2054.587646
333.9      422.6016   38.572853  7.27795    0.3028750121593475 1.867206   2061.93042
334        420.0669   37.272888  8.261056999999999 0.3132399916648865 2.01635    2076.265381
334.1      417.9958   36.369751  14.002254  0.3111070096492767 2.161808   2099.23291
334.2      416.2953   35.466618  28.412489  0.2976450026035309 2.268301   2115.608154
334.3      414.8684   35.728436  41.019615  0.2865749895572662 2.267765   2123.991943
334.4      413.6149   36.204933  48.083382  0.314981997013092 2.223351   2115.519043
334.5      412.4333   36.89418   51.156586  0.3328039944171906 2.069902   2097.640381
334.6      411.2197   38.169113  42.394154  0.3432739973068237 1.928364   2070.904541
334.7      409.8669   40.659805  36.177494  0.3263469934463501 1.844701   2052.40918
334.8      408.264    44.981438  30.632454  0.3150199949741364 1.902425   2048.052002
334.9      406.3024   51.353233  22.445332  0.3187789916992188 1.96915    2064.654541
335        403.8886   59.999283  12.459907  0.3226610124111176 2.045085   2096.91626
335.1      400.9657   70.180626  6.766658   0.325654000043869 2.098802   2139.972168
335.2      397.5361   79.47809599999999 7.631222   0.3224309980869293 2.139691   2183.700439
335.3      393.6812   86.80658699999999 8.201127   0.3229129910469055 2.147279   2220.165283
335.4      389.5664   91.586212  8.746286   0.3242850005626678 2.145468   2239.26123
335.5      385.4283   94.256294  9.159259   0.3261860013008118 2.130006   2243.776367
335.6      381.5431   94.392982  9.052708000000001 0.3261240124702454 2.122704   2240.578613
335.7      378.1833   93.561981  8.859804   0.3396109938621521 2.111282   2234.506592
335.8      375.5722   93.133331  8.094401   0.3513740003108978 2.109122   2229.162598
335.9      373.8498   93.07055699999999 8.164895   0.3686670064926147 2.105445   2227.304932
336        373.0549   92.89183   8.180173   0.3713000118732452 2.115699   2230.751221
336.1      373.1286   92.67614   8.318322999999999 0.3676579892635345 2.133248   2232.616211
336.2      373.9351   93.31244700000001 8.004263999999999 0.3544009923934937 2.153615   2233.874023
336.3      375.2916   94.192497  7.789164   0.3527800142765045 2.161405   2235.616943
336.4      377.002    95.806389  7.635437   0.3613289892673492 2.172628   2238.925537
336.5      378.885    97.359337  7.635388   0.3767189979553223 2.17711    2238.686035
336.6      380.7933   99.66982299999999 7.48712    0.3790200054645538 2.184556   2234.068604
336.7      382.6235   101.535416 7.382238   0.3825660049915314 2.181627   2228.936523
336.8      384.3169   103.00589  7.295293   0.3840610086917877 2.177315   2225.32959
336.9      385.8537   103.528244 7.302893   0.3922039866447449 2.162889   2223.461426
337        387.2441   103.202927 7.124269   0.4023570120334625 2.158056   2222.702881
337.1      388.5177   102.81707  7.070588   0.4086270034313202 2.16901    2224.324219
337.2      389.714    103.537933 7.275962   0.4093469977378845 2.177298   2233.479248
337.3      390.8744   104.8759   7.323968   0.3973720073699951 2.180018   2242.167725
337.4      392.0366   105.970558 7.011373   0.3967030048370361 2.184769   2247.580811
337.5      393.2311   106.607262 6.901227   0.3952890038490295 2.19672    2245.151611
337.6      394.4802   106.327148 6.798313   0.3954080045223236 2.199192   2244.210449
337.7      395.7984   105.338036 6.674948   0.3892419934272766 2.211344   2236.561035
337.8      397.1945   103.913574 6.586237   0.3804639875888824 2.233122   2229.975586
337.9      398.6736   102.922562 6.533698   0.3733490109443665 2.254069   2225.032227
338        400.2397   102.983452 6.444663   0.3629400134086609 2.249003   2229.333252
338.1      401.8966   104.332108 6.35043    0.3644540011882782 2.237419   2232.16333
338.2      403.6491   105.60656  6.298843   0.3628639876842499 2.229387   2233.67334
338.3      405.5022   106.867638 6.26654    0.3627879917621613 2.227992   2231.631104
338.4      407.4597   107.577408 6.283529   0.3550879955291748 2.23468    2230.530518
338.5      409.5217   108.919533 6.224676   0.3573859930038452 2.245719   2229.66626
338.6      411.6811   109.223946 6.114931   0.3517009913921356 2.25729    2231.625  
338.7      413.9202   109.107964 5.984948   0.363321989774704 2.260398   2234.888428
338.8      416.2072   110.063667 5.847609   0.3601930141448975 2.275146   2240.521729
338.9      418.4948   112.546028 5.755136   0.3715369999408722 2.287705   2246.598633
