~Version
 VERS              .         2.0                           : CWLS LOG ASCII STANDARD - VERSION 2.0
 WRAP              .         NO                            : ONE LINE PER DEPTH STEP
 DLM               .         SPACE                         : DELIMITING CHARACTER(SPACE TAB OR COMMA)
~Well Information
#_______________________________________________________________________________
#
#PARAMETER_NAME    .UNIT     VALUE                         : DESCRIPTION
#_______________________________________________________________________________
STRT               .M        0                             : First reference value
STOP               .M        427.9                         : Last reference value
STEP               .M        0.1                           : Step increment
NULL               .         -9999                         : Missing value
COMP               .                                       : Company
WELL               .         H                             : Well name
FLD                .                                       : Field
LOC                .                                       : Location
CNTY               .                                       : County
STAT               .                                       : State
CTRY               .                                       : Country
SRVC               .                                       : Service Company
DATE               .                                       : Date
API                .                                       : API number
~Parameter Information Block
#_______________________________________________________________________________
#
#PARAMETER_NAME    .UNIT     VALUE                         : DESCRIPTION
#_______________________________________________________________________________
SET                .         Logs                          : 
TLFamily_DEPT      .         Measured Depth                : 
TLFamily_DT        .         Compressional Slowness        : 
TLFamily_GR        .         Gamma Ray                     : 
TLFamily_ILD       .         Resistivity - Deep            : 
TLFamily_NPOR_LIM  .         Thermal Neutron Porosity Limestone: 
TLFamily_PEF       .         Photoelectric Factor          : 
TLFamily_RHO       .         Bulk Density                  : 
~Curve Information
#_______________________________________________________________________________
#
#LOGNAME           .UNIT     LOG_ID                        : DESCRIPTION
#_______________________________________________________________________________
DEPT               .M                                      : Logged depth 
DT                 .us/m                                   : Compressional Slowness 
GR                 .GAPI                                   : MGS Gamma Ray 
ILD                .OHMM                                   : Array Ind. One Res 85 
NPOR_LIM           .V/V                                    : Lmst Neutron Por. (PEN) 
PEF                .B/E                                    : PE 
RHO                .K/M3                                   : Compensated Density 
~Ascii
# ...
191.2      455.6749   65.252815  16.017313  0.3976050019264221 2.152997   2108.175537
191.3      456.0789   64.978668  15.345206  0.4201630055904388 2.141317   2099.893311
191.4      456.4498   65.919945  15.146042  0.4249520003795624 2.141093   2095.127441
191.5      456.7615   68.67092100000001 15.082074  0.4156470000743866 2.150656   2096.059814
191.6      456.9842   71.47138200000001 14.714386  0.4126200079917908 2.180487   2100.700928
191.7      457.0832   74.72835499999999 14.628234  0.4288110136985779 2.214236   2110.779053
191.8      457.0201   75.992378  14.648023  0.4443190097808838 2.241121   2122.661865
191.9      456.7557   76.864876  14.576047  0.4243159890174866 2.25014    2130.416992
192        456.253    76.95291899999999 14.046845  0.4149410128593445 2.253876   2134.045898
192.1      455.4815   77.915108  14.002457  0.4008330106735229 2.241031   2134.05127
192.2      454.4223   78.255859  14.245986  0.4122419953346252 2.220923   2134.646729
192.3      453.0731   78.825706  14.160475  0.4146539866924286 2.229301   2131.842285
192.4      451.4518   79.030312  13.880105  0.4046300053596497 2.260063   2130.92627
192.5      449.5992   79.254654  13.302107  0.3934809863567352 2.330468   2133.059326
192.6      447.5781   79.30809000000001 13.207019  0.3772319853305817 2.381225   2139.898682
192.7      445.4699   79.861244  13.784698  0.4034689962863922 2.430485   2146.458496
192.8      443.3678   81.31733699999999 14.26699   0.4017199873924255 2.454764   2162.269531
192.9      441.3686   82.092918  14.251672  0.4072389900684357 2.638121   2184.315186
193        439.5641   82.186745  14.177627  0.3890990018844604 2.785681   2210.161621
193.1      438.0332   81.028587  14.876793  0.3776269853115082 2.916787   2227.171631
193.2      436.8361   78.61370100000001 17.575554  0.3688119947910309 2.878124   2231.08252
193.3      436.0095   75.33297   16.831825  0.377346009016037 2.842088   2217.284912
193.4      435.565    72.389763  16.368864  0.4039539992809296 2.62845    2192.118652
193.5      435.4887   71.05445899999999 16.595842  0.3963220119476318 2.413184   2162.809326
193.6      435.743    71.359222  17.491117  0.3770529925823212 2.241072   2139.392578
193.7      436.2705   73.417023  17.201347  0.3667359948158264 2.247052   2123.832275
193.8      437.0011   76.410889  17.246712  0.3788740038871765 2.241616   2114.193359
193.9      437.8607   78.673203  17.939676  0.4028370082378387 2.220435   2106.303711
194        438.7802   79.186798  18.97093   0.3995279967784882 2.192588   2096.19458
194.1      439.7044   79.08802   20.203112  0.3951790034770966 2.1687     2085.644775
194.2      440.5982   81.729523  21.09226   0.371196985244751 2.157811   2078.718506
194.3      441.4492   87.478584  21.618671  0.3660120069980621 2.158833   2071.90332
194.4      442.2641   96.840248  22.184071  0.3687820136547089 2.182141   2070.139893
194.5      443.0639   107.303093 22.031113  0.3800379931926727 2.202855   2071.173584
194.6      443.8749   117.315414 22.358974  0.3910399973392487 2.22382    2075.770996
194.7      444.7192   124.69841  23.057133  0.3939119875431061 2.235987   2077.73999
194.8      445.6088   130.819763 22.86783   0.3967030048370361 2.25829    2080.911133
194.9      446.5411   136.727371 22.271893  0.396259993314743 2.30752    2080.44165
195        447.4994   145.847214 22.925219  0.3914560079574585 2.389018   2078.733643
195.1      448.4555   153.980698 23.097212  0.3871150016784668 2.436561   2073.352295
195.2      449.3759   157.672058 23.289986  0.4012370109558105 2.43394    2070.434814
195.3      450.2273   151.896332 21.982201  0.4244489967823029 2.362173   2066.628662
195.4      450.9806   139.360077 21.741976  0.4602830111980438 2.260674   2061.724121
195.5      451.6127   120.58181  22.596067  0.4449990093708038 2.133703   2054.00293
195.6      452.1049   100.877464 22.815578  0.4202390015125275 2.036211   2045.479126
195.7      452.4404   83.9263    23.349588  0.382423996925354 1.981781   2035.414917
195.8      452.6011   73.88236999999999 23.139177  0.3734610080718994 1.98813    2024.295776
195.9      452.5676   69.227936  22.236761  0.3757509887218475 2.00789    2016.324463
196        452.321    67.565285  21.72167   0.3747209906578064 2.039855   2014.770386
196.1      451.8485   67.50758399999999 20.922182  0.3798269927501678 2.08039    2022.883545
196.2      451.15     68.006691  20.033804  0.3851610124111176 2.123988   2036.55188
196.3      450.2435   68.201149  19.774927  0.3943279981613159 2.159459   2054.57251
196.4      449.1677   68.96584300000001 19.384287  0.3889650106430054 2.18803    2071.305176
196.5      447.9796   69.27220199999999 19.333118  0.3942820131778717 2.219395   2085.218018
196.6      446.7477   71.23239100000001 19.088417  0.3886469900608063 2.249343   2092.414551
196.7      445.5417   74.36396000000001 18.413715  0.3849009871482849 2.283829   2097.28418
196.8      444.4224   79.50185399999999 17.722839  0.3630790114402771 2.317242   2102.895752
196.9      443.4334   83.618568  17.231497  0.3593949973583221 2.345195   2111.36377
197        442.5981   87.693237  17.161522  0.3536509871482849 2.359954   2119.367432
197.1      441.9207   91.266273  16.732281  0.3570959866046906 2.365576   2126.184326
197.2      441.3929   93.74743700000001 16.196548  0.3660309910774231 2.36763    2129.866943
197.3      440.9998   94.542046  16.135691  0.3800039887428284 2.359275   2131.043213
197.4      440.7269   94.345665  15.829823  0.3912410140037537 2.353546   2127.228271
197.5      440.562    93.936424  15.207206  0.386135995388031 2.347005   2122.898682
197.6      440.4947   92.106133  15.029576  0.3867770135402679 2.344568   2118.9646 
197.7      440.5129   89.642403  14.907254  0.4031260013580322 2.336609   2118.073242
197.8      440.5997   87.774261  14.927737  0.4196569919586182 2.337766   2118.790283
197.9      440.7312   86.185936  14.999192  0.4331530034542084 2.35255    2121.826172
198        440.877    85.775673  14.977984  0.4186019897460938 2.377343   2126.224365
198.1      441.0046   85.670303  14.887895  0.4078289866447449 2.404369   2130.386475
198.2      441.0849   86.974457  14.389735  0.4092589914798737 2.428469   2134.43335
198.3      441.0974   87.449303  13.958756  0.432889997959137 2.438079   2136.655762
198.4      441.0348   89.46832999999999 13.985603  0.4484550058841705 2.426153   2136.788574
198.5      440.9043   90.265137  14.362923  0.4563980102539063 2.393512   2134.195068
198.6      440.7256   91.289925  14.521919  0.4375289976596832 2.34975    2130.667725
198.7      440.527    90.795738  14.811969  0.4323650002479553 2.307973   2126.754395
198.8      440.3401   91.50597399999999 15.264572  0.4082159996032715 2.278546   2124.921631
198.9      440.196    91.018486  15.14429   0.4129410088062286 2.257684   2127.295166
199        440.1224   91.624908  15.32212   0.4123690128326416 2.244914   2133.376709
199.1      440.1425   92.194183  15.570154  0.4301030039787292 2.227721   2139.727295
199.2      440.2744   92.52443700000001 16.104076  0.4246290028095245 2.201198   2142.790283
199.3      440.53     90.01514400000001 16.58778   0.4220579862594604 2.164552   2139.729248
199.4      440.9133   85.41954800000001 16.430796  0.4064069986343384 2.124367   2129.578369
199.5      441.4194   79.876205  16.934494  0.3961490094661713 2.092659   2116.173584
199.6      442.0347   73.839111  17.522375  0.3897570073604584 2.09136    2104.743164
199.7      442.7398   68.934326  17.455975  0.3910880088806152 2.092312   2101.677734
199.8      443.5143   66.07804899999999 17.873119  0.3859170079231262 2.241324   2109.549316
199.9      444.342    64.523293  17.540747  0.3666560053825378 2.388136   2123.760254
200        445.2141   62.472733  16.464102  0.3520210087299347 2.524389   2139.572998
200.1      446.1282   59.057476  17.212498  0.3541249930858612 2.501058   2145.700684
200.2      447.0847   56.368252  17.484919  0.3724989891052246 2.488263   2141.755371
200.3      448.0819   53.828957  17.172729  0.384207010269165 2.356643   2128.518311
