~Version
 VERS              .         2.0                           : CWLS LOG ASCII STANDARD - VERSION 2.0
 WRAP              .         NO                            : ONE LINE PER DEPTH STEP
 DLM               .         SPACE                         : DELIMITING CHARACTER(SPACE TAB OR COMMA)
~Well Information
#_______________________________________________________________________________
#
#PARAMETER_NAME    .UNIT     VALUE                         : DESCRIPTION
#_______________________________________________________________________________
STRT               .M        0                             : First reference value
STOP               .M        427.9                         : Last reference value
STEP               .M        0.1                           : Step increment
NULL               .         -9999                         : Missing value
COMP               .                                       : Company
WELL               .         H                             : Well name
FLD                .                                       : Field
LOC                .                                       : Location
CNTY               .                                       : County
STAT               .                                       : State
CTRY               .                                       : Country
SRVC               .                                       : Service Company
DATE               .                                       : Date
API                .                                       : API number
~Parameter Information Block
#_______________________________________________________________________________
#
#PARAMETER_NAME    .UNIT     VALUE                         : DESCRIPTION
#_______________________________________________________________________________
SET                .         Logs                          : 
TLFamily_DEPT      .         Measured Depth                : 
TLFamily_DT        .         Compressional Slowness        : 
TLFamily_GR        .         Gamma Ray                     : 
TLFamily_ILD       .         Resistivity - Deep            : 
TLFamily_NPOR_LIM  .         Thermal Neutron Porosity Limestone: 
TLFamily_PEF       .         Photoelectric Factor          : 
TLFamily_RHO       .         Bulk Density                  : 
~Curve Information
#_______________________________________________________________________________
#
#LOGNAME           .UNIT     LOG_ID                        : DESCRIPTION
#_______________________________________________________________________________
DEPT               .M                                      : Logged depth 
DT                 .us/m                                   : Compressional Slowness 
GR                 .GAPI                                   : MGS Gamma Ray 
ILD                .OHMM                                   : Array Ind. One Res 85 
NPOR_LIM           .V/V                                    : Lmst Neutron Por. (PEN) 
PEF                .B/E                                    : PE 
RHO                .K/M3                                   : Compensated Density 
~Ascii
# ...
163.5      474.6233   73.44163500000001 7.071263   0.3412019908428192 3.52817    2373.015381
163.6      469.6805   75.85932200000001 6.551192   0.3401019871234894 3.155602   2332.255127
163.7      466.0885   78.084541  6.393766   0.376240998506546 2.789851   2278.127197
163.8      463.5462   80.280373  6.7203     0.3871870040893555 2.638937   2238.984863
163.9      461.7434   81.354782  6.639772   0.3899630010128021 2.616329   2215.140625
164        460.4094   81.280739  6.15818    0.3941890001296997 2.583692   2209.979736
164.1      459.3363   80.949265  5.810471   0.4026809930801392 2.549329   2207.981201
164.2      458.3817   81.18002300000001 6.106519   0.4426769912242889 2.536659   2206.62207
164.3      457.4599   81.98902099999999 6.828731   0.4390200078487396 2.514069   2205.178711
164.4      456.5341   81.322998  7.217994   0.4071989953517914 2.499374   2204.576416
164.5      455.6071   80.68019099999999 7.329691   0.3751260042190552 2.515739   2203.651123
164.6      454.7064   79.422943  7.965076   0.3608930110931396 2.557113   2201.717041
164.7      453.8678   79.09612300000001 8.152068   0.3593310117721558 2.589804   2197.083008
164.8      453.1233   79.044533  7.728695   0.3524940013885498 2.617307   2192.263428
164.9      452.4942   80.137062  7.058219   0.3395699858665466 2.665889   2186.815918
165        451.9878   82.606155  6.498394   0.3642140030860901 2.707567   2186.457031
165.1      451.5986   86.194923  6.037664   0.38960000872612 2.719047   2189.275635
165.2      451.3116   89.632835  6.145935   0.4193769991397858 2.716864   2195.784668
165.3      451.1073   91.055649  6.27503    0.4223040044307709 2.7239     2203.998779
165.4      450.9652   92.24775699999999 6.251524   0.4207740128040314 2.710258   2210.890137
165.5      450.8671   91.66121699999999 6.173357   0.4309340119361877 2.698162   2215.5    
165.6      450.798    91.268417  6.132586   0.4405120015144348 2.701155   2216.374756
165.7      450.7475   90.28836099999999 6.136057   0.4545179903507233 2.710469   2216.599365
165.8      450.7098   91.29555499999999 6.087755   0.4629690051078796 2.707543   2213.357178
165.9      450.6842   91.97672300000001 6.082798   0.467397004365921 2.693857   2210.651855
166        450.6756   92.11668400000001 6.217112   0.4771789908409119 2.67191    2207.138428
166.1      450.6944   90.94059   6.253749   0.4779810011386871 2.643386   2205.799072
166.2      450.7561   90.632065  6.337655   0.4813460111618042 2.612993   2203.383057
166.3      450.8783   90.29995   6.588496   0.4668090045452118 2.600093   2201.689697
166.4      451.0779   89.769684  6.751472   0.454800009727478 2.605907   2200.942383
166.5      451.3675   89.22112300000001 6.574405   0.4307050108909607 2.634064   2201.070801
166.6      451.7529   88.33448   6.314333   0.4232789874076843 2.683226   2202.72583
166.7      452.2318   87.388031  6.334856   0.4309180080890656 2.734686   2205.094482
166.8      452.7954   86.648781  6.380171   0.4521810114383698 2.773701   2208.0354 
166.9      453.4301   87.12606   6.401858   0.4698309898376465 2.791339   2206.262207
167        454.1198   88.64213599999999 6.301614   0.4590539932250977 2.796222   2201.950439
167.1      454.8467   91.938889  6.236036   0.4606190025806427 2.782051   2194.452393
167.2      455.5918   94.593468  5.914246   0.4674189984798431 2.767056   2191.938477
167.3      456.333    96.41761   5.582203   0.4920090138912201 2.749121   2190.736816
167.4      457.0445   96.718498  5.6964     0.5193489789962769 2.751399   2193.442139
167.5      457.6956   97.234917  5.847385   0.51801598072052 2.746943   2197.115723
167.6      458.252    97.16754899999999 5.777509   0.514909029006958 2.734959   2203.746338
167.7      458.6774   97.257088  5.652211   0.519411027431488 2.720779   2207.071533
167.8      458.9363   97.860039  5.586807   0.5393180251121521 2.72746    2205.714111
167.9      458.9973   99.27578699999999 5.592001   0.5403439998626709 2.733819   2204.40625
168        458.8354   99.92325599999999 5.663984   0.5359820127487183 2.724726   2204.087158
168.1      458.4333   99.337959  5.645327   0.5313060283660889 2.722854   2205.016113
168.2      457.7815   98.318161  5.529193   0.5461840033531189 2.732674   2202.356934
168.3      456.8771   97.069351  5.612926   0.545744001865387 2.726122   2204.010742
168.4      455.7209   95.31041   5.742407   0.5448089838027954 2.686638   2206.341553
168.5      454.3145   92.679062  5.757631   0.5267170071601868 2.643928   2209.11377
168.6      452.6572   89.556549  6.113357   0.5083950161933899 2.59045    2208.999512
168.7      450.7448   86.565353  7.382889   0.4844790101051331 2.518587   2206.791748
168.8      448.5715   83.479271  8.210514999999999 0.4490120112895966 2.452935   2203.285889
168.9      446.1358   81.868797  8.119322   0.4166159927845001 2.435632   2200.096924
169        443.4493   82.134789  8.458532   0.3982569873332977 2.468423   2197.819824
169.1      440.5475   84.171333  7.613781   0.4133599996566772 2.497215   2195.204834
169.2      437.4994   84.994438  6.946953   0.4432010054588318 2.509719   2194.992432
169.3      434.4125   84.53029600000001 7.293399   0.4800939857959747 2.485806   2193.554443
169.4      431.4307   80.95459   8.352627   0.4943360090255737 2.496587   2193.590576
169.5      428.7234   76.073311  9.428699   0.465925008058548 2.573098   2204.822021
169.6      426.4674   69.279976  9.992642999999999 0.4064300060272217 2.979404   2244.364746
169.7      424.8239   64.16044599999999 10.904876  0.351294994354248 3.632349   2313.22876
169.8      423.9149   59.743729  13.932909  0.3018159866333008 4.252734   2393.218262
169.9      423.8037   59.374767  23.140175  0.2413160055875778 4.500664   2462.452148
170        424.4821   60.207561  24.320845  0.2011609971523285 4.377311   2482.097168
170.1      425.8694   63.489632  15.598183  0.2142419964075089 3.9076     2440.14917
170.2      427.8211   65.74603999999999 12.524669  0.2840459942817688 3.218104   2356.55957
170.3      430.1496   69.106201  11.999687  0.3307769894599915 2.579715   2266.755615
170.4      432.6514   71.617386  11.686591  0.3567720055580139 2.261916   2189.868896
170.5      435.1363   74.78874999999999 11.453003  0.3503020107746124 2.223704   2145.213867
170.6      437.4533   77.88967100000001 11.215198  0.3613280057907104 2.236179   2129.939697
170.7      439.5056   81.64872699999999 11.072643  0.3576169908046722 2.271974   2133.825195
170.8      441.2547   83.004395  10.874395  0.3601469993591309 2.325022   2142.60498
170.9      442.7105   84.299232  10.245975  0.3556979894638062 2.379849   2154.478027
171        443.9141   85.59335299999999 10.02949   0.3690580129623413 2.410991   2166.444092
171.1      444.9173   89.02237700000001 10.154402  0.3805780112743378 2.42569    2174.656006
171.2      445.7655   93.38942   10.058925  0.388810008764267 2.417783   2177.751709
171.3      446.4882   99.30249000000001 10.032247  0.3848139941692352 2.404998   2176.502686
171.4      447.0978   103.902946 10.134336  0.3821189999580383 2.381529   2176.911377
171.5      447.5961   105.853058 10.109474  0.3848020136356354 2.36423    2177.551758
171.6      447.9838   105.401131 10.159584  0.3884040117263794 2.355185   2179.880615
171.7      448.2698   105.258575 10.106516  0.3988980054855347 2.350708   2182.070801
171.8      448.4754   106.894745 10.094756  0.4098649919033051 2.344665   2185.018311
171.9      448.6338   107.901619 10.126865  0.4160520136356354 2.326896   2185.84668
172        448.7841   108.594955 10.284217  0.4142990112304688 2.319986   2184.750244
172.1      448.9639   107.411568 10.458944  0.4048520028591156 2.309207   2185.375244
172.2      449.2006   105.985664 10.6331    0.3973700106143951 2.305867   2187.622559
172.3      449.5067   103.975273 10.4871    0.4031150043010712 2.312518   2191.655518
172.4      449.8773   103.408356 10.221366  0.422309011220932 2.359231   2196.016357
172.5      450.2916   105.001236 9.850042   0.4372909963130951 2.416019   2205.636963
172.6      450.7146   109.153084 8.541607000000001 0.4287770092487335 2.471817   2214.159668
