~Version
 VERS              .         2.0                           : CWLS LOG ASCII STANDARD - VERSION 2.0
 WRAP              .         NO                            : ONE LINE PER DEPTH STEP
 DLM               .         SPACE                         : DELIMITING CHARACTER(SPACE TAB OR COMMA)
~Well Information
#_______________________________________________________________________________
#
#PARAMETER_NAME    .UNIT     VALUE                         : DESCRIPTION
#_______________________________________________________________________________
STRT               .M        0                             : First reference value
STOP               .M        427.9                         : Last reference value
STEP               .M        0.1                           : Step increment
NULL               .         -9999                         : Missing value
COMP               .                                       : Company
WELL               .         H                             : Well name
FLD                .                                       : Field
LOC                .                                       : Location
CNTY               .                                       : County
STAT               .                                       : State
CTRY               .                                       : Country
SRVC               .                                       : Service Company
DATE               .                                       : Date
API                .                                       : API number
~Parameter Information Block
#_______________________________________________________________________________
#
#PARAMETER_NAME    .UNIT     VALUE                         : DESCRIPTION
#_______________________________________________________________________________
SET                .         Logs                          : 
TLFamily_DEPT      .         Measured Depth                : 
TLFamily_DT        .         Compressional Slowness        : 
TLFamily_GR        .         Gamma Ray                     : 
TLFamily_ILD       .         Resistivity - Deep            : 
TLFamily_NPOR_LIM  .         Thermal Neutron Porosity Limestone: 
TLFamily_PEF       .         Photoelectric Factor          : 
TLFamily_RHO       .         Bulk Density                  : 
~Curve Information
#_______________________________________________________________________________
#
#LOGNAME           .UNIT     LOG_ID                        : DESCRIPTION
#_______________________________________________________________________________
DEPT               .M                                      : Logged depth 
DT                 .us/m                                   : Compressional Slowness 
GR                 .GAPI                                   : MGS Gamma Ray 
ILD                .OHMM                                   : Array Ind. One Res 85 
NPOR_LIM           .V/V                                    : Lmst Neutron Por. (PEN) 
PEF                .B/E                                    : PE 
RHO                .K/M3                                   : Compensated Density 
~Ascii
# ...
274.9      419.3619   55.559612  18.775349  0.4070509970188141 2.35287    2057.128906
275        419.3619   57.243954  18.643721  0.4062930047512054 2.352606   2058.384521
275.1      419.3836   58.252369  18.651203  0.397130012512207 2.365802   2058.477051
275.2      419.4201   58.388889  18.737827  0.3993630111217499 2.371401   2056.11499
275.3      419.4622   58.501362  18.942316  0.3892349898815155 2.375174   2054.61084
275.4      419.4995   60.092159  19.042164  0.3821150064468384 2.374401   2054.669189
275.5      419.5209   61.026554  18.841974  0.3801200091838837 2.374953   2056.782227
275.6      419.5161   61.449745  18.748486  0.3805040121078491 2.365932   2059.15332
275.7      419.477    61.229862  18.629351  0.3878780007362366 2.356465   2063.30835
275.8      419.3995   61.374058  18.605381  0.3997350037097931 2.35445    2066.887695
275.9      419.2846   60.615032  18.626427  0.4108430147171021 2.362997   2067.921143
276        419.1396   59.016857  18.577477  0.4258359968662262 2.371074   2066.93042
276.1      418.9771   57.269588  18.623041  0.4287370145320892 2.370111   2066.052979
276.2      418.8141   56.724968  18.641474  0.4200519919395447 2.371771   2066.233398
276.3      418.6692   56.905682  18.541418  0.4066500067710876 2.373993   2064.640625
276.4      418.5591   57.283714  18.509909  0.3977589905261993 2.388398   2064.071533
276.5      418.4958   57.696304  18.371822  0.4109350144863129 2.397542   2063.10083
276.6      418.4842   57.918098  18.303532  0.4278939962387085 2.415514   2063.995117
276.7      418.5212   58.367233  18.129288  0.4405010044574738 2.425363   2064.446045
276.8      418.5966   58.710033  18.140759  0.4438999891281128 2.435634   2065.445068
276.9      418.6955   58.980373  18.250755  0.4513300061225891 2.428304   2064.462402
277        418.8002   59.67244   18.215725  0.454805999994278 2.413918   2062.911133
277.1      418.8933   60.22707   18.131462  0.4497979879379272 2.395062   2061.814697
277.2      418.9593   60.020779  18.06082   0.4350549876689911 2.384391   2061.168457
277.3      418.9867   59.1674    17.973257  0.4188970029354095 2.388042   2061.952881
277.4      418.9682   58.93882   17.818914  0.4101909995079041 2.397064   2062.364258
277.5      418.9012   58.942451  17.855837  0.4176889955997467 2.411743   2062.352051
277.6      418.7882   59.920429  17.805616  0.414792001247406 2.430315   2061.291504
277.7      418.6362   61.090832  17.693899  0.425366997718811 2.439334   2060.853027
277.8      418.4566   63.46714   17.550476  0.4204989969730377 2.441587   2060.497314
277.9      418.2635   64.827606  17.523134  0.4305729866027832 2.43731    2059.745605
278        418.0725   65.994972  17.543797  0.4238750040531158 2.450699   2060.373779
278.1      417.8979   66.181442  17.677784  0.4283129870891571 2.452012   2063.535645
278.2      417.7509   66.669411  17.751825  0.4203020036220551 2.451385   2070.401123
278.3      417.6367   66.138992  17.693226  0.4294629991054535 2.436275   2076.96167
278.4      417.5539   65.335983  17.675543  0.4294719994068146 2.424809   2082.078125
278.5      417.4941   63.998943  17.753889  0.4349589943885803 2.401632   2085.565674
278.6      417.4437   62.691383  17.686964  0.4409080147743225 2.389783   2085.51001
278.7      417.386    61.346127  17.622856  0.4330640137195587 2.394675   2081.789063
278.8      417.3047   60.687576  17.505655  0.4384180009365082 2.409241   2075.904541
278.9      417.1887   60.876652  17.456234  0.4224269986152649 2.426569   2073.621826
279        417.0341   61.526176  17.136271  0.4327090084552765 2.432343   2073.772461
279.1      416.8472   62.06604   16.828775  0.4311060011386871 2.433728   2074.979736
279.2      416.6433   61.991356  16.960932  0.4394359886646271 2.420894   2073.555176
279.3      416.4445   60.649536  16.941925  0.4352430105209351 2.408998   2072.180664
279.4      416.2753   58.568901  17.01897   0.4343839883804321 2.394979   2070.513184
279.5      416.1573   56.909718  17.247879  0.4282709956169128 2.391404   2070.407715
279.6      416.105    56.29192   17.264591  0.4207459986209869 2.388641   2070.862305
279.7      416.1227   56.068192  17.335342  0.4230720102787018 2.387933   2071.354004
279.8      416.2041   56.076797  17.489006  0.4247109889984131 2.382857   2071.479248
279.9      416.3344   56.62122   17.552809  0.4224449992179871 2.383198   2072.991211
280        416.4939   56.451061  17.60358   0.420551985502243 2.38519    2073.86792
280.1      416.6619   56.274593  17.450272  0.4303120076656342 2.38797    2072.43042
280.2      416.8195   55.752918  17.404337  0.43613401055336 2.39634    2068.857422
280.3      416.9523   55.876762  17.172472  0.4261600077152252 2.415282   2066.406738
280.4      417.0499   55.969727  17.051191  0.4146549999713898 2.439977   2065.11084
280.5      417.1068   56.6521    16.727392  0.4113140106201172 2.458206   2065.177979
280.6      417.1211   58.50209   16.529024  0.4092719852924347 2.467757   2067.517822
280.7      417.0949   61.144695  16.312063  0.4040440022945404 2.468266   2071.886963
280.8      417.0349   63.38237   16.630785  0.3997350037097931 2.461054   2077.504883
280.9      416.9513   64.293182  16.929094  0.396697998046875 2.468842   2082.709229
281        416.8565   64.069237  16.868135  0.3945749998092651 2.529542   2089.0979 
281.1      416.7636   62.218025  16.69808   0.3953889906406403 2.61985    2097.122314
281.2      416.6831   59.539505  16.668486  0.4012309908866882 2.708041   2105.518555
281.3      416.6209   57.390255  16.478477  0.4154430031776428 2.745086   2109.976807
281.4      416.5772   57.174511  15.919855  0.4349159896373749 2.731429   2109.627197
281.5      416.547    58.139576  15.631639  0.4525550007820129 2.656033   2102.382324
281.6      416.521    59.516247  15.71902   0.455689013004303 2.562999   2092.2854 
281.7      416.4883   61.268322  15.77492   0.4546389877796173 2.484376   2081.555176
281.8      416.438    62.972164  15.774921  0.4519999921321869 2.459293   2076.790771
281.9      416.362    63.150784  15.517265  0.4516080021858215 2.528908   2080.932617
282        416.2576   62.829433  15.3676    0.4380980134010315 2.677301   2092.492188
282.1      416.13     61.788597  15.711632  0.4183509945869446 2.81881    2107.307861
282.2      415.9938   60.981392  16.316708  0.400842010974884 2.892873   2119.751221
282.3      415.8723   59.990788  16.778582  0.3921549916267395 2.898015   2126.421631
282.4      415.7947   60.451405  15.879207  0.4057019948959351 2.84148    2126.200195
282.5      415.7896   61.142616  15.100364  0.4124230146408081 2.811258   2123.76001
282.6      415.8785   61.90723   14.23452   0.4218589961528778 2.856783   2121.579102
282.7      416.07     62.322426  13.097962  0.4105679988861084 2.95887    2126.019775
282.8      416.3587   62.476757  12.526715  0.4049389958381653 3.020035   2131.19458
282.9      416.728    61.871479  12.202711  0.4126870036125183 3.001518   2133.504639
283        417.1559   61.07505   11.234282  0.4205229878425598 2.889986   2126.601807
283.1      417.6217   61.149426  11.201051  0.4328039884567261 2.701308   2114.690186
283.2      418.1102   62.417301  11.548308  0.4306179881095886 2.517491   2099.014893
283.3      418.6117   63.680576  11.365156  0.4347780048847198 2.438179   2087.300049
283.4      419.1194   65.252357  11.286203  0.4389210045337677 2.511553   2085.239258
283.5      419.626    66.240227  11.169354  0.4187459945678711 2.686316   2097.812012
283.6      420.1248   66.739189  11.814996  0.422461986541748 2.914364   2119.625488
283.7      420.6133   65.89005299999999 12.688841  0.4049350023269653 3.104943   2144.718994
283.8      421.1021   64.66194900000001 13.716042  0.4052479863166809 3.245438   2166.445557
283.9      421.6207   63.7313    13.17094   0.3914969861507416 3.25713    2176.659424
284        422.219    63.575741  11.895234  0.4002749919891357 3.135662   2172.001221
284.1      422.9582   64.105507  11.088002  0.4134759902954102 2.919726   2154.980957
284.2      423.8957   64.67841300000001 10.656898  0.420661985874176 2.742678   2133.040039
