~Version
 VERS              .         2.0                           : CWLS LOG ASCII STANDARD - VERSION 2.0
 WRAP              .         NO                            : ONE LINE PER DEPTH STEP
 DLM               .         SPACE                         : DELIMITING CHARACTER(SPACE TAB OR COMMA)
~Well Information
#_______________________________________________________________________________
#
#PARAMETER_NAME    .UNIT     VALUE                         : DESCRIPTION
#_______________________________________________________________________________
STRT               .M        0                             : First reference value
STOP               .M        427.9                         : Last reference value
STEP               .M        0.1                           : Step increment
NULL               .         -9999                         : Missing value
COMP               .                                       : Company
WELL               .         H                             : Well name
FLD                .                                       : Field
LOC                .                                       : Location
CNTY               .                                       : County
STAT               .                                       : State
CTRY               .                                       : Country
SRVC               .                                       : Service Company
DATE               .                                       : Date
API                .                                       : API number
~Parameter Information Block
#_______________________________________________________________________________
#
#PARAMETER_NAME    .UNIT     VALUE                         : DESCRIPTION
#_______________________________________________________________________________
SET                .         Logs                          : 
TLFamily_DEPT      .         Measured Depth                : 
TLFamily_DT        .         Compressional Slowness        : 
TLFamily_GR        .         Gamma Ray                     : 
TLFamily_ILD       .         Resistivity - Deep            : 
TLFamily_NPOR_LIM  .         Thermal Neutron Porosity Limestone: 
TLFamily_PEF       .         Photoelectric Factor          : 
TLFamily_RHO       .         Bulk Density                  : 
~Curve Information
#_______________________________________________________________________________
#
#LOGNAME           .UNIT     LOG_ID                        : DESCRIPTION
#_______________________________________________________________________________
DEPT               .M                                      : Logged depth 
DT                 .us/m                                   : Compressional Slowness 
GR                 .GAPI                                   : MGS Gamma Ray 
ILD                .OHMM                                   : Array Ind. One Res 85 
NPOR_LIM           .V/V                                    : Lmst Neutron Por. (PEN) 
PEF                .B/E                                    : PE 
RHO                .K/M3                                   : Compensated Density 
~Ascii
# ...
385.7      373.8048   33.116501  89.016098  0.3286980092525482 1.784668   2092.620361
385.8      370.9094   31.303711  90.14941399999999 0.3115800023078918 1.788581   2107.939941
385.9      368.2681   28.855947  91.537476  0.2897540032863617 1.795317   2123.161133
386        366.0127   26.597019  92.22184799999999 0.2741590142250061 1.818685   2140.119385
386.1      364.2487   25.108826  94.937393  0.2605760097503662 1.859343   2158.450439
386.2      363.0458   25.347927  96.30669399999999 0.2561590075492859 1.905192   2175.525635
386.3      362.4321   26.322985  93.14007599999999 0.2504520118236542 1.930176   2188.394775
386.4      362.3922   27.50835   88.50511899999999 0.252481997013092 1.931347   2191.452148
386.5      362.8706   28.732849  86.733574  0.2640359997749329 1.887661   2180.718262
386.6      363.7791   29.636753  89.851112  0.2855739891529083 1.82034    2153.85376
386.7      365.008    30.130514  93.471024  0.3127729892730713 1.74367    2119.072021
386.8      366.439    29.945089  96.419174  0.333526998758316 1.700641   2084.103271
386.9      367.9596   29.836443  98.18998000000001 0.3482019901275635 1.684666   2057.300293
387        369.4744   29.286516  99.37114699999999 0.3496730029582977 1.700071   2040.934937
387.1      370.9141   28.472418  101.647423 0.3504520058631897 1.720146   2035.097168
387.2      372.2388   27.44556   104.436134 0.3500730097293854 1.7435     2035.548462
387.3      373.4373   26.909178  105.04361  0.356007993221283 1.757682   2040.700928
387.4      374.5217   26.83824   106.6017   0.3556320071220398 1.769816   2051.052002
387.5      375.5202   27.666697  108.534805 0.3572860062122345 1.772083   2066.854492
387.6      376.4684   28.462107  109.098228 0.3444139957427979 1.76739    2083.827881
387.7      377.4012   28.981394  108.104988 0.3356269896030426 1.76382    2098.595459
387.8      378.3467   28.990416  86.68955200000001 0.3165319859981537 1.762355   2111.868652
387.9      379.3204   28.409468  61.72744   0.310249000787735 1.767658   2119.833008
388        380.3225   27.12845   68.43193100000001 0.3053889870643616 1.773468   2122.539307
388.1      381.3364   26.027882  95.868858  0.3075219988822937 1.784351   2117.600586
388.2      382.3312   25.227121  103.519836 0.3071550130844116 1.783185   2108.993408
388.3      383.268    24.895203  99.39093   0.3108490109443665 1.771842   2096.648438
388.4      384.1084   24.382088  92.256691  0.3170509934425354 1.750925   2082.69458
388.5      384.8248   23.805643  87.434044  0.3277609944343567 1.700796   2068.60083
388.6      385.4079   23.24596   84.43781300000001 0.3344500064849854 1.630922   2060.441895
388.7      385.871    22.128656  79.719193  0.3360430002212524 1.568439   2057.254883
388.8      386.2478   21.02434   80.31189000000001 0.3329080045223236 1.547441   2059.78833
388.9      386.5849   20.276587  77.267464  0.3311290144920349 1.560728   2065.914551
389        386.9318   20.202478  63.501453  0.3263820111751556 1.609424   2072.987793
389.1      387.3311   20.077696  65.63209500000001 0.3166509866714478 1.674549   2076.643799
389.2      387.811    20.665276  83.584076  0.3096950054168701 1.726822   2075.483887
389.3      388.3822   21.011158  94.950165  0.3064709901809692 1.73251    2069.814209
389.4      389.0388   21.609489  95.365234  0.3160380125045776 1.705303   2061.2854 
389.5      389.7619   21.420086  90.87204   0.3219819962978363 1.683332   2052.072754
389.6      390.5237   21.596951  85.164368  0.3329949975013733 1.674567   2045.254761
389.7      391.2929   21.798372  77.62494700000001 0.3405190110206604 1.683928   2042.306519
389.8      392.0391   22.481632  74.910912  0.3446660041809082 1.69554    2042.200562
389.9      392.7368   23.002584  81.12966900000001 0.3437260091304779 1.710635   2043.68042
390        393.368    23.866463  83.536613  0.3411230146884918 1.720528   2047.32605
390.1      393.9225   25.125315  84.360077  0.3363479971885681 1.73569    2050.941162
390.2      394.3973   26.282637  82.532295  0.3376840054988861 1.744041   2054.925293
390.3      394.7931   27.22711   79.455276  0.3346579968929291 1.75566    2055.549316
390.4      395.1102   27.280222  76.386909  0.3376080095767975 1.76069    2055.279541
390.5      395.3461   26.598694  78.668808  0.342399001121521 1.728338   2051.622314
390.6      395.4941   24.413502  84.538055  0.3448669910430908 1.649709   2048.334961
390.7      395.5436   21.420288  82.855377  0.3500829935073853 1.569682   2043.773804
390.8      395.4839   17.892546  74.506401  0.3469730019569397 1.516173   2042.367188
390.9      395.3063   15.121601  69.54705   0.3461210131645203 1.466343   2042.822632
391        395.0069   12.869648  65.501801  0.3379859924316406 1.437884   2044.269043
391.1      394.587    11.390642  62.065544  0.3354330062866211 1.416197   2047.057129
391.2      394.0526   10.306519  65.21315   0.3311029970645905 1.38071    2049.702637
391.3      393.4141   9.391937   70.409058  0.3284029960632324 1.307793   2051.322998
391.4      392.6852   8.743549   69.26881400000001 0.3186300098896027 1.266627   2050.334229
391.5      391.8845   8.662903   71.097137  0.3220979869365692 1.262757   2051.108398
391.6      391.035    9.274858   75.053482  0.3272550106048584 1.284886   2052.090332
391.7      390.1646   10.078666  78.693657  0.332069993019104 1.313251   2054.157959
391.8      389.3044   11.517352  75.47009300000001 0.3294560015201569 1.361968   2055.94751
391.9      388.485    12.751849  71.59858699999999 0.3254620134830475 1.410041   2058.822754
392        387.7316   13.524929  68.958832  0.3254860043525696 1.435585   2064.034912
392.1      387.0612   13.632649  68.626633  0.3254849910736084 1.465134   2069.140869
392.2      386.4801   13.448413  71.693405  0.3254689872264862 1.507128   2074.42749
392.3      385.9851   13.050136  72.82795   0.3317219913005829 1.548138   2076.561279
392.4      385.566    12.351562  72.178505  0.3312869966030121 1.560883   2078.08252
392.5      385.209    11.806575  70.215851  0.3362190127372742 1.571824   2077.010742
392.6      384.8979   11.727387  69.672173  0.3364419937133789 1.58326    2074.209717
392.7      384.614    12.082917  68.687462  0.3383699953556061 1.608557   2071.798584
392.8      384.3329   12.094108  64.153992  0.3327139914035797 1.667779   2073.791504
392.9      384.0213   12.210113  63.689495  0.3283939957618713 1.735254   2076.707764
393        383.6363   11.82253   70.281425  0.3292840123176575 1.805293   2081.422607
393.1      383.1269   11.609419  73.256592  0.3287909924983978 1.836376   2087.344727
393.2      382.4406   11.311332  72.519661  0.3210450112819672 1.852399   2095.599365
393.3      381.5316   11.479747  66.77731300000001 0.3093909919261932 1.820574   2101.468018
393.4      380.3703   11.981419  64.074127  0.3003599941730499 1.799575   2106.495605
393.5      378.9491   13.0642    60.215645  0.2996450066566467 1.777145   2109.100098
393.6      377.2846   13.593804  55.273384  0.303631991147995 1.758167   2114.086914
393.7      375.4155   14.016595  53.279709  0.3102959990501404 1.712428   2116.721191
393.8      373.3979   14.085141  62.375088  0.3147810101509094 1.673424   2125.491455
393.9      371.3017   14.370513  72.195183  0.3125700056552887 1.716563   2136.909912
394        369.2081   14.178663  69.35245500000001 0.3005039989948273 1.760981   2150.390381
394.1      367.2081   14.23937   68.57418800000001 0.2864319980144501 1.818978   2157.311279
394.2      365.3993   14.571177  56.589424  0.2781429886817932 1.839512   2156.550293
394.3      363.8799   15.762879  49.342571  0.2827199995517731 1.873751   2151.712158
394.4      362.7404   16.740089  49.351238  0.2979300022125244 1.863744   2148.046143
394.5      362.0518   17.8659    52.842651  0.3053430020809174 1.858436   2151.380615
394.6      361.8594   18.503729  51.154102  0.3002130091190338 1.86475    2161.549316
394.7      362.1814   19.061979  47.789871  0.2783029973506927 1.892357   2178.746826
394.8      363.0151   18.73937   63.087975  0.2613640129566193 1.904831   2188.9021 
